"commune";"type_ecole";"mail";"code_postal";"nom_etablissement";"departement";"adresse";"statut";"latitude";"longitude"
"Saint-Paterne - Le Chevain";"Elem";"ce.0720114h@ac-nantes.fr";"72610";"Ecole primaire publique Le chat perché";"Sarthe";"Place Du Château, Le Chevain";"Public";"48.43308534601122";"0.12558910944690968"
"Connerré";"Mater";"ce.0720127x@ac-nantes.fr";"72160";"Ecole maternelle publique St Exupéry";"Sarthe";"Rue Du Sergent Mantier";"Public";"48.05898332711182";"0.49359434921968914"
"Montreuil-le-Henri";"Elem";"ce.0720294d@ac-nantes.fr";"72150";"Ecole élémentaire publique";"Sarthe";"Rue De Lucé";"Public";"47.86754846254855";"0.5641864404222371"
"Tuffé Val de la Chéronne";"Elem";"ce.0720354u@ac-nantes.fr";"72160";"Ecole primaire publique Fernand Loriot";"Sarthe";"1 Chemin Des Écoliers, Tuffe";"Public";"48.11208093187337";"0.5198004544541713"
"Vallon-sur-Gée";"Mater";"ce.0720359z@ac-nantes.fr";"72540";"Ecole maternelle publique";"Sarthe";"3 Route Chanoine Pineau";"Public";"47.96475697239839";"-0.06467658886273758"
"Vancé";"Elem";"ce.0720361b@ac-nantes.fr";"72310";"Ecole primaire publique Marcel Pagnol";"Sarthe";"13 Rue Des Ecoles";"Public";"47.83125482618155";"0.6460179854605727"
"Yvré-le-Pôlin";"Elem";"ce.0720389g@ac-nantes.fr";"72330";"Ecole primaire publique Marie-Louise Gendron-Aine";"Sarthe";"Place Des Ecoles";"Public";"47.8196326956247";"0.1542454161337168"
"La Ferté-Bernard";"Elem";"ce.0720393l@ac-nantes.fr";"72400";"Ecole élémentaire publique Ledru Rollin";"Sarthe";"4 Rue Jules Ferry";"Public";"48.18491497749562";"0.6598602445278119"
"La Ferté-Bernard";"Mater";"ce.0720395n@ac-nantes.fr";"72400";"Ecole maternelle publique Paul Klee";"Sarthe";"14 Rue D'Huisne";"Public";"48.1864791377048";"0.6516815281815534"
"Lamnay";"Elem";"ce.0720440m@ac-nantes.fr";"72320";"Ecole primaire publique Georges Vallée";"Sarthe";"Route De Saint-Jean-Des-Echelles";"Public";"48.11952868752895";"0.7089023579186221"
"Louplande";"Elem";"ce.0720460j@ac-nantes.fr";"72210";"Ecole primaire publique Mozart";"Sarthe";"8 Route De Souligne Flace";"Public";"47.944569098835146";"0.0418501028506053"
"Coulaines";"Elem";"ce.0720488p@ac-nantes.fr";"72190";"Ecole primaire d'application Molière";"Sarthe";"3 Rue Molière";"Public";"48.02153402220216";"0.20266238759070293"
"Arçonnay";"Elem";"ce.0720500c@ac-nantes.fr";"72610";"Ecole primaire publique";"Sarthe";"4 Rue Du Moulin À Vent";"Public";"48.39711544958151";"0.08809753685002411"
"La Bazoge";"Elem";"ce.0720528h@ac-nantes.fr";"72650";"Ecole élémentaire publique Jean Monnet";"Sarthe";"22 Rue Des Hortensias";"Public";"48.09686260742604";"0.1482507363769259"
"Allonnes";"Elem";"ce.0720539v@ac-nantes.fr";"72700";"Ecole élémentaire publique Victor Hugo";"Sarthe";"16 Rue Georges Bizet";"Public";"47.97046835438629";"0.1635666071015298"
"La Bruère-sur-Loir";"Mater";"ce.0720572f@ac-nantes.fr";"72500";"Ecole maternelle publique Jacques Jourdan";"Sarthe";"5 Rue Principale";"Public";"47.651047936750565";"0.34971712707621005"
"Le Mans";"Mater";"ce.0720607u@ac-nantes.fr";"72000";"Ecole maternelle publique Maryse Bastié";"Sarthe";"21 Rue Du Gréco";"Public";"47.9740602088217";"0.21313514217724405"
"Le Mans";"Mater";"ce.0720610x@ac-nantes.fr";"72100";"Ecole maternelle publique Docteur Calmette";"Sarthe";"1  Place Huchepie";"Public";"47.96772669660621";"0.2014847586116707"
"Le Mans";"Mater";"ce.0720613a@ac-nantes.fr";"72100";"Ecole maternelle publique Adrienne Bolland";"Sarthe";"9 Rue Du Colonel Renard";"Public";"47.96582669491053";"0.20368077846532048"
"Le Mans";"Mater";"ce.0720617e@ac-nantes.fr";"72000";"Ecole maternelle publique Marie Curie";"Sarthe";"12 Rue Beauregard";"Public";"47.993964628700496";"0.17712885104846848"
"Le Mans";"Mater";"ce.0720621j@ac-nantes.fr";"72000";"Ecole maternelle publique Germain Pilon";"Sarthe";"24 Rue Germain Pilon";"Public";"48.01213209532736";"0.20352669582947408"
"Précigné";"Elem";"ce.0720634y@ac-nantes.fr";"72300";"Ecole primaire publique François Rabelais";"Sarthe";"11 Rue Alain De Rouge";"Public";"47.767794867909224";"-0.32529805764069225"
"Saint-Célerin";"Elem";"ce.0720657y@ac-nantes.fr";"72110";"Ecole primaire publique L'Ecole Géroise";"Sarthe";"Route De Lombron";"Public";"48.12204395944353";"0.4310699351570407"
"Saint-Calais";"Mater";"ce.0720658z@ac-nantes.fr";"72120";"Ecole maternelle publique Dr Ollivier";"Sarthe";"1 Rue Du Docteur Ollivier";"Public";"47.92013960354695";"0.742184675347249"
"Saint-Georges-le-Gaultier";"Elem";"ce.0720692l@ac-nantes.fr";"72130";"Ecole primaire publique";"Sarthe";"26 Rue Des Ardoisières";"Public";"48.29745249409736";"-0.10815356149100289"
"Le Mans";"Elem";"ce.0720703y@ac-nantes.fr";"72100";"Ecole élémentaire publique Jules Ferry";"Sarthe";"5 Rue Jules Ferry";"Public";"47.97750241724253";"0.20159753509511918"
"Le Mans";"Elem";"ce.0720708d@ac-nantes.fr";"72000";"Ecole élémentaire publique Gounod Michel";"Sarthe";"4 Allée Claude Debussy";"Public";"47.972932155345624";"0.209009191142504"
"Le Mans";"Elem";"ce.0720719r@ac-nantes.fr";"72100";"Ecole élémentaire publique Pierre Philippeaux";"Sarthe";"180 Avenue Jean Jaurès";"Public";"47.98771547507096";"0.20795015222326851"
"La Bazoge";"Mater";"ce.0721199m@ac-nantes.fr";"72650";"Ecole maternelle publique Henri Matisse";"Sarthe";"24  Rue Des Hortensias";"Public";"48.09612279192247";"0.14826509969323742"
"La Milesse";"Elem";"ce.0721202r@ac-nantes.fr";"72650";"Ecole élémentaire publique Robert Desnos";"Sarthe";"1 Rue Des Ecoles";"Public";"48.06368528342164";"0.1353334930958239"
"La Chapelle-du-Bois";"Elem";"ce.0721207w@ac-nantes.fr";"72400";"Ecole primaire publique Gutenberg";"Sarthe";"1 Rue Des Ecoles";"Public";"48.22256373296885";"0.5924145235376087"
"Champagné";"Elem";"ce.0721229v@ac-nantes.fr";"72470";"Ecole élémentaire publique Louise Michel";"Sarthe";"Rue Célestin Freinet";"Public";"48.02399677385947";"0.331443016418637"
"Chahaignes";"Elem";"ce.0721256z@ac-nantes.fr";"72340";"Ecole primaire publique";"Sarthe";"20 Rue De La Fontaine Marot";"Public";"47.74121976793891";"0.5130715276798734"
"Beaufay";"Elem";"ce.0721259c@ac-nantes.fr";"72110";"Ecole primaire publique";"Sarthe";"2 Rue Des Landes";"Public";"48.145762133004396";"0.3621978688565406"
"Saint-Vincent-du-Lorouër";"Elem";"ce.0721270p@ac-nantes.fr";"72150";"Ecole élémentaire publique";"Sarthe";"24 Rue Edmond Charlot";"Public";"47.82458304812422";"0.48736359984644484"
"Allonnes";"Mater";"ce.0721294r@ac-nantes.fr";"72700";"Ecole maternelle publique Paul Langevin";"Sarthe";"Boulevard De Vendée";"Public";"47.95425637063419";"0.16841804220584994"
"Rouessé-Vassé";"Elem";"ce.0721308f@ac-nantes.fr";"72140";"Ecole primaire publique Nicolas Grippon";"Sarthe";"8 Rue De L'Ecole";"Public";"48.16033436196654";"-0.19676963305879408"
"Mont-Saint-Jean";"Elem";"ce.0721309g@ac-nantes.fr";"72140";"Ecole primaire publique Les Quatre Saisons";"Sarthe";"7 Rue Des Ecoles";"Public";"48.24610997481646";"-0.10856936967350939"
"La Flèche";"Elem";"ce.0721372a@ac-nantes.fr";"72200";"Ecole élémentaire publique André Fertre";"Sarthe";"Rue De La Magdeleine";"Public";"47.70142073421439";"-0.08243234907309727"
"Courgains";"Elem";"ce.0721377f@ac-nantes.fr";"72260";"Ecole primaire publique St Exupéry";"Sarthe";"Chemin Des Gats";"Public";"48.290562249090854";"0.2806875661919392"
"Mulsanne";"Elem";"ce.0721387s@ac-nantes.fr";"72230";"Ecole primaire publique Paul Cézanne";"Sarthe";"Allée De La Rochère";"Public";"47.91339994998762";"0.2519633896508873"
"Neuville-sur-Sarthe";"Elem";"ce.0721388t@ac-nantes.fr";"72190";"Ecole primaire publique Léonard de Vinci";"Sarthe";"12 Grande Rue";"Public";"48.076055354183076";"0.19192157169686608"
"Etival-lès-le-Mans";"Mater";"ce.0721443c@ac-nantes.fr";"72700";"Ecole maternelle publique";"Sarthe";"Route De Voivres";"Public";"47.954785193783366";"0.08697824751876432"
"Le Mans";"Mater";"ce.0721471h@ac-nantes.fr";"72000";"Ecole maternelle publique Eugénie Cotton";"Sarthe";"28 Rue Etienne Falconet";"Public";"47.970004700028056";"0.21542680627112742"
"Le Mans";"Elem";"direction@ecolejulesverne.fr";"72100";"Ecole primaire privée COURS JULES VERNE - ESPERANCE BANLIEUES";"Sarthe";"5 Rue De Bel Air";"Privé";"47.969196773451536";"0.21667338128536556"
"Orvault";"Mater";"ce.0440988k@ac-nantes.fr";"44700";"Ecole maternelle publique La Ferrière";"Loire-Atlantique";"4 Avenue De La Jeunesse";"Public";"47.24505240270874";"-1.5910896729313704"
"Besné";"Elem";"ce.0441091x@ac-nantes.fr";"44160";"Ecole primaire privée Sainte Marie";"Loire-Atlantique";"21 Rue De La Roche À Berthe";"Privé";"47.397991889348404";"-2.0914593324755812"
"Quilly";"Elem";"ce.0441304d@ac-nantes.fr";"44750";"Ecole primaire privée Sainte Thérèse";"Loire-Atlantique";"6 Rue Du Bois Joli";"Privé";"47.46105503640043";"-1.9561820278350701"
"Saint-Mars-du-Désert";"Elem";"ce.0441323z@ac-nantes.fr";"44850";"Ecole primaire privée Saint Martin";"Loire-Atlantique";"18 Rue Julienne David";"Privé";"47.36615177487843";"-1.4080398001531922"
"Nantes";"Elem";"ce.0441463b@ac-nantes.fr";"44319";"Ecole primaire privée Blanche de Castille";"Loire-Atlantique";"45 Boulevard Jules Verne, Bp 61902";"Privé";"47.237047162867285";"-1.5334998940708784"
"La Chapelle-sur-Erdre";"Mater";"ce.0441660r@ac-nantes.fr";"44240";"Ecole maternelle publique Beausoleil";"Loire-Atlantique";"Rue Beausoleil";"Public";"47.3041986342787";"-1.5617105383805194"
"La Chapelle-sur-Erdre";"Elem";"ce.0441661s@ac-nantes.fr";"44240";"Ecole élémentaire publique Robert Doisneau";"Loire-Atlantique";"Boulevard Du Gesvres";"Public";"47.26723466001939";"-1.5520201834466394"
"La Baule-Escoublac";"Mater";"ce.0441663u@ac-nantes.fr";"44500";"Ecole maternelle publique Paul Minot";"Loire-Atlantique";"3 Avenue Paul Minot";"Public";"47.28580323580082";"-2.3673297079953923"
"Pont-Saint-Martin";"Mater";"ce.0441844r@ac-nantes.fr";"44860";"Ecole maternelle publique Les Halbrans";"Loire-Atlantique";"Impasse Des Halbrans";"Public";"47.12451709687512";"-1.5812300270721344"
"La Chapelle-sur-Erdre";"Mater";"ce.0441919x@ac-nantes.fr";"44240";"Ecole maternelle publique Robert Doisneau";"Loire-Atlantique";"Boulevard Du Gesvres";"Public";"47.26723466001939";"-1.5520201834466394"
"Nantes";"Elem";"ce.0441924c@ac-nantes.fr";"44300";"Ecole élémentaire publique La Beaujoire";"Loire-Atlantique";"66 Bd Du Professeur René Auvigné";"Public";"47.2572500391477";"-1.5187459586842098"
"Chaillé-les-Marais";"Elem";"ce.0851152r@ac-nantes.fr";"85450";"Ecole primaire publique Hélène de Suzannet";"Vendée";"1 Rue Jules Ferry";"Public";"46.3936801292305";"-1.0197915059287512"
"Saint-Saturnin";"Elem";"ce.0720772y@ac-nantes.fr";"72650";"Ecole élémentaire publique Les 7 plumes";"Sarthe";"12 Rue Des Ecoles";"Public";"48.06294909614316";"0.16238482501045068"
"Château-Thébaud";"Elem";"ce.0440388h@ac-nantes.fr";"44690";"Ecole primaire privée Saint Joseph";"Loire-Atlantique";"6 Rue Du Prieuré";"Privé";"47.12414237745458";"-1.4219696083208484"
"Chaumes-en-Retz";"Elem";"ce.0441105m@ac-nantes.fr";"44320";"Ecole primaire privée Sainte Marie";"Loire-Atlantique";"2 Place De L'Aqueduc, Arthon-En-Retz";"Privé";"47.11845357982229";"-1.9399933690463163"
"Guémené-Penfao";"Elem";"ce.0441140a@ac-nantes.fr";"44290";"Ecole primaire privée Sainte Marie";"Loire-Atlantique";"35 Rue De Subrette";"Privé";"47.633192972548606";"-1.827269788606024"
"La Haie-Fouassière";"Elem";"ce.0441153p@ac-nantes.fr";"44690";"Ecole primaire privée Saint Joseph";"Loire-Atlantique";"23 Rue De La Gare";"Privé";"47.15626998653256";"-1.398120348471695"
"Le Landreau";"Elem";"ce.0441206x@ac-nantes.fr";"44430";"Ecole primaire privée Sainte Marie";"Loire-Atlantique";"15 Rue Des Moulins";"Privé";"47.20551604450978";"-1.307540008990625"
"Plessé";"Elem";"ce.0441225t@ac-nantes.fr";"44630";"Ecole primaire privée Notre-Dame";"Loire-Atlantique";"6 Rue De Guémené";"Privé";"47.542529475732366";"-1.8858494394529015"
"Saint-Mars-de-Coutais";"Elem";"ce.0441324a@ac-nantes.fr";"44680";"Ecole primaire privée Sainte Thérèse";"Loire-Atlantique";"8 Rue Du Grand Pré";"Privé";"47.1113842083421";"-1.7332396333721563"
"Donges";"Elem";"ce.0440363f@ac-nantes.fr";"44480";"Ecole primaire privée Saint Joseph";"Loire-Atlantique";"50 Rue Des Ecoles";"Privé";"47.319081955422654";"-2.071890637251444"
"Couëron";"Elem";"ce.0440372r@ac-nantes.fr";"44220";"Ecole primaire privée Saint Symphorien";"Loire-Atlantique";"53 Rue Henri Gautier";"Privé";"47.21626729061614";"-1.729129761397028"
"Chaumes-en-Retz";"Elem";"ce.0440441r@ac-nantes.fr";"44320";"Ecole primaire publique Charles Perrault";"Loire-Atlantique";"6 Rue D'Arthon, Arthon-En-Retz";"Public";"47.18631669787936";"-1.9456601513630971"
"Brains";"Elem";"ce.0440480h@ac-nantes.fr";"44830";"Ecole primaire publique Jules Verne";"Loire-Atlantique";"20 Rue Des Clos Mats";"Public";"47.16760365899996";"-1.7219798638989072"
"Chaumes-en-Retz";"Elem";"ce.0440498c@ac-nantes.fr";"44680";"Ecole primaire publique Armelle Chevalier";"Loire-Atlantique";"2 Rue De La Blanche, Chemere";"Public";"47.123877452759714";"-1.9136199885273026"
"Conquereuil";"Elem";"ce.0440504j@ac-nantes.fr";"44290";"Ecole primaire publique La Renaissance";"Loire-Atlantique";"1 Place Jeanne Brétéché";"Public";"47.62640686934888";"-1.7542822707539822"
"Derval";"Elem";"ce.0440524f@ac-nantes.fr";"44590";"Ecole primaire publique Le Tourniquet";"Loire-Atlantique";"6 Rue Du Tourniquet";"Public";"47.666813364552276";"-1.6686093665194872"
"Donges";"Elem";"ce.0440528k@ac-nantes.fr";"44480";"Ecole primaire publique de La Pommeraye";"Loire-Atlantique";"28 Rue De L'Erdre, La Pommeraye";"Public";"47.355890413643344";"-2.103909423119097"
"La Haie-Fouassière";"Elem";"ce.0440566b@ac-nantes.fr";"44690";"Ecole élémentaire publique Charles Gifard";"Loire-Atlantique";"4 Rue De La Treille";"Public";"47.15310509245753";"-1.3998496740733517"
"Nantes";"Elem";"ce.0440626s@ac-nantes.fr";"44300";"Ecole élémentaire publique La Chauvinière";"Loire-Atlantique";"32 Boulevard De La Chauvinière";"Public";"47.252593286665835";"-1.5746504408418156"
"Nantes";"Elem";"ce.0440641h@ac-nantes.fr";"44100";"Ecole élémentaire publique Fraternité";"Loire-Atlantique";"24 Boulevard De La Fraternité";"Public";"47.21562782053454";"-1.5861101691678403"
"Nantes";"Mater";"ce.0440721v@ac-nantes.fr";"44200";"Ecole maternelle publique Gustave Roch";"Loire-Atlantique";"24 Boulevard Gustave Roch";"Public";"47.20481370774089";"-1.5505793438662472"
"Orvault";"Mater";"ce.0440740r@ac-nantes.fr";"44700";"Ecole maternelle publique Bois-Saint-Louis";"Loire-Atlantique";"18 Avenue Des Lilas";"Public";"47.246279012857954";"-1.5823403588694567"
"Pont-Saint-Martin";"Elem";"ce.0440761n@ac-nantes.fr";"44860";"Ecole élémentaire publique Les Halbrans";"Loire-Atlantique";"Impasse Réné Rabouin";"Public";"47.12508533826677";"-1.5807498644001154"
"Riaillé";"Elem";"ce.0440808p@ac-nantes.fr";"44440";"Ecole primaire publique Robert Doisneau";"Loire-Atlantique";"224 Rue Des Rochettes";"Public";"47.51818041039585";"-1.2982894834343417"
"Vallons-de-l'Erdre";"Mater";"ce.0440863z@ac-nantes.fr";"44540";"Ecole maternelle publique Jules Ferry";"Loire-Atlantique";"Boulevard Jules Ferry, Saint-Mars-La-Jaille";"Public";"47.52736204961893";"-1.1820604536831023"
"Saint-Nazaire";"Elem";"ce.0440880t@ac-nantes.fr";"44600";"Ecole primaire publique Jules Simon";"Loire-Atlantique";"20 Allée André Malraux";"Public";"47.28403028239075";"-2.2585704856741717"
"Sainte-Reine-de-Bretagne";"Elem";"ce.0440915f@ac-nantes.fr";"44160";"Ecole primaire publique René-Guy Cadou";"Loire-Atlantique";"14 Rue René De Châteaubriand";"Public";"47.43986731256162";"-2.19049980132022"
"Vigneux-de-Bretagne";"Elem";"ce.0440972t@ac-nantes.fr";"44360";"Ecole primaire publique Charles Perrault";"Loire-Atlantique";"3 Place Jules Verne, La Paquelais";"Public";"47.33144705594105";"-1.6961699435955908"
"Corcoué-sur-Logne";"Elem";"ce.0442643j@ac-nantes.fr";"44650";"Ecole primaire publique L'Odyssée";"Loire-Atlantique";"3 Lieu-Dit Bagatelle";"Public";"46.96153047009743";"-1.5858101512416818"
"Herbignac";"Elem";"ce.0442773a@ac-nantes.fr";"44410";"Ecole primaire publique Marie Pape-Carpantier";"Loire-Atlantique";"2 Place Olympe De Gouges";"Public";"47.44666430971319";"-2.3239901393661158"
"Saint-Hilaire-de-Clisson";"Elem";"ce.0442847f@ac-nantes.fr";"44190";"Ecole primaire publique Simone Veil";"Loire-Atlantique";"2 Rue Des Ecoles";"Public";"47.0614398900346";"-1.3125294160000782"
"Grandchamp-des-Fontaines";"Mater";"ce.0442934a@ac-nantes.fr";"44119";"Ecole maternelle publique Hippolyte Monnier";"Loire-Atlantique";"5 Bis Route De La Futaie";"Public";"47.36659746913314";"-1.6104009977333518"
"Avrillé";"Elem";"ce.0490065e@ac-nantes.fr";"49240";"Ecole primaire publique Jean Piaget";"Maine-et-Loire";"16 Avenue Des Trois Cormiers";"Public";"47.50565302802878";"-0.5982505494419655"
"Angers";"Mater";"ce.0490095m@ac-nantes.fr";"49100";"Ecole maternelle publique Victor Hugo";"Maine-et-Loire";"26 Rue Victor Hugo";"Public";"47.47880745498154";"-0.5366304706528798"
"Cholet";"Mater";"ce.0490116k@ac-nantes.fr";"49300";"Ecole maternelle publique Le Paradis";"Maine-et-Loire";"43 Rue Du Paradis";"Public";"47.062677342258375";"-0.8732599866072238"
"Feneu";"Elem";"ce.0490246b@ac-nantes.fr";"49460";"Ecole primaire publique L'Eau Vive";"Maine-et-Loire";"Rue Du Bignon";"Public";"47.57101698869324";"-0.595250572842371"
"Trélazé";"Elem";"ce.0490269b@ac-nantes.fr";"49800";"Ecole élémentaire publique Paul Fort";"Maine-et-Loire";"259 Rue Elisée Reclus";"Public";"47.451503369257345";"-0.5075096899106359"
"Bégrolles-en-Mauges";"Elem";"ce.0491518j@ac-nantes.fr";"49122";"Ecole primaire privée Saint Jean-Baptiste";"Maine-et-Loire";"22 Rue Des Landes";"Privé";"47.13857745768865";"-0.9396106008810002"
"Beaupréau-en-Mauges";"Elem";"ce.0491525s@ac-nantes.fr";"49600";"Ecole primaire privée Saint jean";"Maine-et-Loire";"2 Rue Françoise Dolto, Beaupreau";"Privé";"47.20388942647816";"-0.9841357311584767"
"La Plaine";"Elem";"ce.0491542k@ac-nantes.fr";"49360";"Ecole primaire privée François Denechere";"Maine-et-Loire";"13 Rue Pierre Mérand";"Privé";"47.06949120926238";"-0.6324504532593229"
"Angers";"Elem";"ce.0491904d@ac-nantes.fr";"49000";"Ecole primaire publique René Brossard";"Maine-et-Loire";"5 Bis Rue De Géricault";"Public";"47.45901738197047";"-0.5240000615734297"
"Angers";"Elem";"ce.0491906f@ac-nantes.fr";"49000";"Ecole primaire publique Jean Rostand";"Maine-et-Loire";"3 Rue Jean Rostand";"Public";"47.462599881132135";"-0.5982894489329837"
"Beaupréau-en-Mauges";"Elem";"ce.0491909j@ac-nantes.fr";"49600";"Ecole élémentaire publique Jules Ferry";"Maine-et-Loire";"18 Bis Rue De La Sablière, Beaupreau";"Public";"47.20762171323734";"-0.9896994888114667"
"Baugé-en-Anjou";"Elem";"ce.0491912m@ac-nantes.fr";"49150";"Ecole primaire publique Am Stram Gram";"Maine-et-Loire";"8 Grande Rue Grande Rue, Saint Martin D'Arce";"Public";"47.622666755653164";"-0.07102890725967581"
"Saint-Clément-des-Levées";"Elem";"ce.0491949c@ac-nantes.fr";"49350";"Ecole primaire publique Yvonne Lombard";"Maine-et-Loire";"16 Rue Georges Peron";"Public";"47.332301490725854";"-0.1824096980069303"
"Cholet";"Mater";"ce.0491957l@ac-nantes.fr";"49300";"Ecole maternelle publique Molière";"Maine-et-Loire";"5 Rue De Maupassant";"Public";"47.069341997362585";"-0.8780503296331897"
"Montreuil-Juigné";"Elem";"ce.0491959n@ac-nantes.fr";"49460";"Ecole primaire publique Marcel Pagnol";"Maine-et-Loire";"1  Rue De Venise";"Public";"47.52660018295801";"-0.5977104989146497"
"Angers";"Elem";"ce.0492030r@ac-nantes.fr";"49100";"Ecole primaire publique Marie Talet";"Maine-et-Loire";"14 Rue Du Major Allard";"Public";"47.47563770322982";"-0.5424601319062371"
"Angers";"Elem";"ce.0492051n@ac-nantes.fr";"49100";"Ecole élémentaire publique Voltaire";"Maine-et-Loire";"4 Rue De Touraine";"Public";"47.486088023281305";"-0.5322319744300814"
"Durtal";"Elem";"ce.0492052p@ac-nantes.fr";"49430";"Ecole primaire publique René Rondreux";"Maine-et-Loire";"18 Rue De Bellevue, Bp 44";"Public";"47.67246261621411";"-0.2321651547616803"
"Les Cerqueux";"Elem";"ce.0492057v@ac-nantes.fr";"49360";"Ecole primaire privée Notre Dame de la Pierre Bleue";"Maine-et-Loire";"24 Rue Amand Michaud";"Privé";"46.999993257388205";"-0.6441099740092852"
"Ecouflant";"Mater";"ce.0492067f@ac-nantes.fr";"49000";"Ecole maternelle publique Belle-Branche";"Maine-et-Loire";"Promenade De La Vieille Maine";"Public";"47.52885866717397";"-0.5284600802219691"
"Mûrs-Erigné";"Mater";"ce.0492077s@ac-nantes.fr";"49610";"Ecole maternelle publique Charles Perrault";"Maine-et-Loire";"13 Rue De La Clairière";"Public";"47.3973893527536";"-0.5259902783107164"
"Sèvremoine";"Elem";"ce.0492086b@ac-nantes.fr";"49660";"Ecole primaire privée Sacré-Coeur";"Maine-et-Loire";"Espace Saint-Hubert, Torfou";"Privé";"47.036803292332564";"-1.1177496701925889"
"Les Ponts-de-Cé";"Elem";"ce.0492229g@ac-nantes.fr";"49130";"Ecole primaire publique André Malraux";"Maine-et-Loire";"46 Avenue Du 8 Mai 1945";"Public";"47.43720283339779";"-0.5241300106765747"
"Saumur";"Elem";"ce.0492320f@ac-nantes.fr";"49400";"Ecole primaire publique Ile Millocheau";"Maine-et-Loire";"66 Rue Auguste Courtoison";"Public";"47.266512922805376";"-0.07661864086488673"
"Beaupréau-en-Mauges";"Elem";"ce.0492349m@ac-nantes.fr";"49510";"Ecole primaire publique Jean de La Fontaine";"Maine-et-Loire";"Chemin De La Fontaine, Jallais";"Public";"47.195627113283905";"-0.8701004285196141"
"Assé-le-Bérenger";"Elem";"ce.0530098u@ac-nantes.fr";"53600";"Ecole primaire publique Assé-le-Bérenger";"Mayenne";"7 Route Sainte Suzanne";"Public";"48.154758269218185";"-0.32279947575368473"
"Château-Gontier-sur-Mayenne";"Elem";"ce.0530102y@ac-nantes.fr";"53200";"Ecole élémentaire publique";"Mayenne";"Rue Chant D'Oiseau, Aze";"Public";"47.82066457962986";"-0.6843049882307507"
"Beaulieu-sur-Oudon";"Elem";"ce.0530117p@ac-nantes.fr";"53320";"Ecole primaire publique de l'Oudon";"Mayenne";"2 Rue De L'Étang, Le Bourg";"Public";"48.00456497271601";"-0.9961733567458614"
"Beaumont-Pied-de-Boeuf";"Elem";"ce.0530118r@ac-nantes.fr";"53290";"Ecole élémentaire publique";"Mayenne";"4 Route De L'Ecole";"Public";"47.9041743351587";"-0.43337015502399684"
"La Bigottière";"Mater";"ce.0530123w@ac-nantes.fr";"53240";"Ecole maternelle publique";"Mayenne";"11 Rue De L'Ecole";"Public";"48.21788276414737";"-0.7987104842443342"
"Crossac";"Elem";"ce.0440367k@ac-nantes.fr";"44160";"Ecole primaire privée Montfort";"Loire-Atlantique";"2 Rue De La Brière";"Privé";"47.409747056600615";"-2.168439582124459"
"Clisson";"Elem";"ce.0440378x@ac-nantes.fr";"44190";"Ecole primaire privée Sainte-Famille";"Loire-Atlantique";"3 Place De La Trinité";"Privé";"47.08911619258495";"-1.2768405625374697"
"Pornic";"Elem";"ce.0440379y@ac-nantes.fr";"44210";"Ecole primaire privée Sainte Victoire";"Loire-Atlantique";"20 Rue Sainte-Victoire, Le Clion Sur Mer";"Privé";"47.12122080381083";"-2.051630141524756"
"La Chevallerais";"Elem";"ce.0440383c@ac-nantes.fr";"44810";"Ecole primaire privée Saint Aubin";"Loire-Atlantique";"Rue Du Théâtre";"Privé";"47.46914489607457";"-1.6707728662264314"
"Chauvé";"Elem";"ce.0440387g@ac-nantes.fr";"44320";"Ecole primaire privée Saint Joseph";"Loire-Atlantique";"2 Rue D'Arthon";"Privé";"47.150488827220535";"-1.9849118010098286"
"Assérac";"Elem";"ce.0440442s@ac-nantes.fr";"44410";"Ecole primaire publique Jacques Raux";"Loire-Atlantique";"1 Rue Du Pont De Bois";"Public";"47.42701362455582";"-2.3928502510144107"
"Divatte-sur-Loire";"Elem";"ce.0440444u@ac-nantes.fr";"44450";"Ecole primaire publique La Clé des Champs";"Loire-Atlantique";"3 Rue Du Vieux Moulin, Barbechat";"Public";"47.27886868912519";"-1.2868896518145132"
"Batz-sur-Mer";"Elem";"ce.0440446w@ac-nantes.fr";"44740";"Ecole primaire publique Alain Boutle";"Loire-Atlantique";"4 Rue Alain Boutle";"Public";"47.27674999425392";"-2.4747202133710102"
"Bouée";"Elem";"ce.0440468v@ac-nantes.fr";"44260";"Ecole primaire publique Les Courlis";"Loire-Atlantique";"1 Route De Le Violiere";"Public";"47.32114808916152";"-1.9103963248429223"
"Bouguenais";"Elem";"ce.0440469w@ac-nantes.fr";"44340";"Ecole élémentaire publique Chateaubriand";"Loire-Atlantique";"2 Rue Commune De Paris 1871";"Public";"47.178890931389034";"-1.6189174099769046"
"Bouguenais";"Elem";"ce.0440475c@ac-nantes.fr";"44340";"Ecole élémentaire publique Fougan de Mer";"Loire-Atlantique";"1 Rue Georges Guynemer, Les Couets";"Public";"47.185641764682416";"-1.5805896298890139"
"Corsept";"Elem";"ce.0440506l@ac-nantes.fr";"44560";"Ecole primaire publique Camille Corot";"Loire-Atlantique";"12 Rue Des Prés";"Public";"47.27682711884248";"-2.057640168634813"
"Drefféac";"Elem";"ce.0440529l@ac-nantes.fr";"44530";"Ecole primaire publique L'Arbre Enchanté";"Loire-Atlantique";"3 Grande Rue";"Public";"47.47710694601023";"-2.055730199480325"
"Fégréac";"Elem";"ce.0440543b@ac-nantes.fr";"44460";"Ecole primaire publique La Madeleine";"Loire-Atlantique";"23 Rue Des Acacias";"Public";"47.583687230321715";"-2.04385049533137"
"Gétigné";"Elem";"ce.0440551k@ac-nantes.fr";"44190";"Ecole élémentaire publique Cousteau";"Loire-Atlantique";"1 Rue Des Changes";"Public";"47.075790056112666";"-1.2476001075745364"
"Saint-Lyphard";"Elem";"ce.0440564z@ac-nantes.fr";"44410";"Ecole élémentaire publique Jean de la Fontaine";"Loire-Atlantique";"1 Rue Pierre De Coubertin, La Madeleine";"Public";"47.3582809991385";"-2.36753993339103"
"Guérande";"Elem";"ce.0440565a@ac-nantes.fr";"44350";"Ecole primaire publique Jeanne de Navarre";"Loire-Atlantique";"36 Rue Du Ber Saille";"Public";"47.29435246033063";"-2.430419399971979"
"Lavau-sur-Loire";"Elem";"ce.0440580s@ac-nantes.fr";"44260";"Ecole primaire publique Le Granit Bleu";"Loire-Atlantique";"Rue Des Epinettes";"Public";"47.307575793285714";"-1.9681198701204201"
"Maisdon-sur-Sèvre";"Elem";"ce.0440588a@ac-nantes.fr";"44690";"Ecole primaire publique Jules Verne";"Loire-Atlantique";"17 Rue De La Mairie";"Public";"47.09846545148032";"-1.3860798597378985"
"Malville";"Elem";"ce.0440589b@ac-nantes.fr";"44260";"Ecole élémentaire publique L'Orange Bleue";"Loire-Atlantique";"3 Rue Sainte Catherine";"Public";"47.361731080933694";"-1.8547405611985848"
"La Montagne";"Elem";"ce.0440600n@ac-nantes.fr";"44620";"Ecole élémentaire publique Jules Ferry";"Loire-Atlantique";"Rue Jules Ferry";"Public";"47.190272293898204";"-1.6878602147864616"
"Les Moutiers-en-Retz";"Elem";"ce.0440609y@ac-nantes.fr";"44760";"Ecole primaire publique Eric Tabarly";"Loire-Atlantique";"2 Rue Jacques Cartier";"Public";"47.0653137650846";"-1.9998497225986758"
"Nantes";"Elem";"ce.0440613c@ac-nantes.fr";"44100";"Ecole primaire publique Ampère";"Loire-Atlantique";"17 Rue Ampère";"Public";"47.211491378502664";"-1.5847196363270009"
"Nantes";"Elem";"ce.0440620k@ac-nantes.fr";"44100";"Ecole élémentaire publique Jacques Prévert";"Loire-Atlantique";"34 Rue Du Breil";"Public";"47.2296164118259";"-1.5837403699098072"
"Nantes";"Elem";"ce.0440627t@ac-nantes.fr";"44000";"Ecole élémentaire publique Chêne d'Aron";"Loire-Atlantique";"3 Rue De L'Heronnière";"Public";"47.21220563790411";"-1.560909821931182"
"Nantes";"Elem";"ce.0440628u@ac-nantes.fr";"44000";"Ecole élémentaire publique Sully";"Loire-Atlantique";"5 Rue Henri Cochard";"Public";"47.22325170225945";"-1.5494894649404933"
"Nantes";"Elem";"ce.0440633z@ac-nantes.fr";"44100";"Ecole élémentaire publique Les Châtaigniers";"Loire-Atlantique";"164 Rue Du Corps De Garde";"Public";"47.21981728091829";"-1.6020694630595043"
"Nantes";"Elem";"ce.0440649s@ac-nantes.fr";"44000";"Ecole élémentaire publique Jean Jaurès";"Loire-Atlantique";"10 Rue De Sévigné";"Public";"47.21621702648284";"-1.567414039104653"
"Nantes";"Elem";"ce.0440652v@ac-nantes.fr";"44300";"Ecole élémentaire publique Urbain le Verrier";"Loire-Atlantique";"11 Rue Urbain Le Verrier";"Public";"47.24184471271331";"-1.5209205022192074"
"Nantes";"Elem";"ce.0440665j@ac-nantes.fr";"44300";"Ecole primaire publique Charles Lebourg";"Loire-Atlantique";"5 Rue Charles Lebourg";"Public";"47.23416071369772";"-1.5603005851508343"
"Nantes";"Mater";"ce.0440698v@ac-nantes.fr";"44000";"Ecole maternelle publique Louis Guiotton";"Loire-Atlantique";"7 Rue Champenois";"Public";"47.225484434207175";"-1.527589500738502"
"Nantes";"Mater";"ce.0440701y@ac-nantes.fr";"44100";"Ecole maternelle publique La Contrie";"Loire-Atlantique";"40 Rue Jean Bouin";"Public";"47.21531160906286";"-1.6006697923250852"
"Nantes";"Mater";"ce.0440708f@ac-nantes.fr";"44000";"Ecole maternelle publique Frédureau";"Loire-Atlantique";"2 Rue Frédureau";"Public";"47.221012861212124";"-1.5610802390000826"
"Petit-Auverné";"Elem";"ce.0440752d@ac-nantes.fr";"44670";"Ecole élémentaire publique des Aulnes";"Loire-Atlantique";"17 Rue Du Stade";"Public";"47.61057496649743";"-1.2894097223638623"
"Pornic";"Mater";"ce.0440765t@ac-nantes.fr";"44210";"Ecole maternelle publique Kerlor";"Loire-Atlantique";"24 Rue Rostilaw Loukianoff";"Public";"47.11872841359139";"-2.0932911521349946"
"Le Pouliguen";"Mater";"ce.0440775d@ac-nantes.fr";"44510";"Ecole maternelle publique Victor Hugo";"Loire-Atlantique";"24 Boulevard De Civanam";"Public";"47.27474560982011";"-2.4329205005607597"
"Saint-Aignan-Grandlieu";"Elem";"ce.0440814w@ac-nantes.fr";"44860";"Ecole élémentaire publique Jules d'Herbauges";"Loire-Atlantique";"Place Sainte-Amani";"Public";"47.12154284353143";"-1.6378405259947164"
"Saint-Léger-les-Vignes";"Elem";"ce.0440851l@ac-nantes.fr";"44710";"Ecole primaire publique Jacques Brel";"Loire-Atlantique";"Rue De Nantes";"Public";"47.13599963842508";"-1.7295995420522936"
"Saint-Nazaire";"Elem";"ce.0440899n@ac-nantes.fr";"44600";"Ecole primaire publique Waldeck Rousseau";"Loire-Atlantique";"27 Bis Avenue D'Herbins";"Public";"47.29036916971857";"-2.2053398045649835"
"Saint-Nazaire";"Mater";"ce.0440907x@ac-nantes.fr";"44600";"Ecole maternelle publique Ferdinand Buisson";"Loire-Atlantique";"110 Chemin De Porce";"Public";"47.25650070586269";"-2.255909422514501"
"Saint-Nicolas-de-Redon";"Elem";"ce.0440911b@ac-nantes.fr";"44460";"Ecole primaire publique L'Herbinerie";"Loire-Atlantique";"1 Rue De L'Herbinerie";"Public";"47.6421023144402";"-2.0621698804300124"
"Saint-Sébastien-sur-Loire";"Mater";"ce.0440918j@ac-nantes.fr";"44230";"Ecole maternelle publique Centre";"Loire-Atlantique";"8 Rue Du 8 Mai 1945";"Public";"47.20657634463253";"-1.5032305341814522"
"Bouvron";"Elem";"ce.0441075e@ac-nantes.fr";"44130";"Ecole primaire privée Saint Sauveur";"Loire-Atlantique";"12 Avenue Des Ecoliers";"Privé";"47.41593694719468";"-1.8481696409103727"
"Prinquiau";"Elem";"ce.0441307g@ac-nantes.fr";"44260";"Ecole primaire privée Notre-Dame du Sacré-Coeur";"Loire-Atlantique";"2 Rue De La Ramée";"Privé";"47.3619842570091";"-2.0120699851002"
"Corcoué-sur-Logne";"Elem";"ce.0441346z@ac-nantes.fr";"44650";"Ecole primaire privée Saint Yves";"Loire-Atlantique";"Rue Saint-Yves, St Jean De Corcoue";"Privé";"46.96229284503682";"-1.5849870179127543"
"Vair-sur-Loire";"Elem";"ce.0441354h@ac-nantes.fr";"44150";"Ecole primaire privée Saint Joseph";"Loire-Atlantique";"4 Rue De Versailles, Saint-Herblon";"Privé";"47.40749170458093";"-1.094319600864062"
"Nantes";"Elem";"ce.0441488d@ac-nantes.fr";"44000";"Ecole primaire privée Saint Donatien";"Loire-Atlantique";"61 Bis Rue Du Coudray";"Privé";"47.23026622246208";"-1.5432497212164098"
"Saint-Etienne-de-Montluc";"Mater";"ce.0441699h@ac-nantes.fr";"44360";"Ecole maternelle publique La Guerche";"Loire-Atlantique";"Chemin De La Guerche";"Public";"47.28216634733918";"-1.788960119698551"
"Les Sorinières";"Mater";"ce.0441742e@ac-nantes.fr";"44840";"Ecole maternelle publique Le Clos du Moulin";"Loire-Atlantique";"60 Bis Rue Des Sports";"Public";"47.14387693214416";"-1.520163230643485"
"Thouaré-sur-Loire";"Elem";"ce.0441909l@ac-nantes.fr";"44470";"Ecole primaire publique Paul Fort";"Loire-Atlantique";"Rue De Homberg";"Public";"47.26913098644028";"-1.4413395815215062"
"Nantes";"Mater";"ce.0441959r@ac-nantes.fr";"44300";"Ecole maternelle publique La Barberie";"Loire-Atlantique";"25 Avenue De Tahiti";"Public";"47.24413175542496";"-1.5712296922458675"
"Divatte-sur-Loire";"Mater";"ce.0441984t@ac-nantes.fr";"44450";"Ecole maternelle publique Robert Doisneau";"Loire-Atlantique";"4 Rue Des Acacias, La Chapelle-Basse-Mer";"Public";"47.272864455131966";"-1.3353597570714975"
"Petit-Mars";"Elem";"ce.0441989y@ac-nantes.fr";"44390";"Ecole primaire publique Guy de Maupassant";"Loire-Atlantique";"Route De Nort Sur Erdre";"Public";"47.39985776933935";"-1.4555200512166127"
"La Planche";"Elem";"ce.0441996f@ac-nantes.fr";"44140";"Ecole primaire publique Antoine de Saint-Exupéry";"Loire-Atlantique";"2 Bis Rue Du Stade";"Public";"47.01826465695107";"-1.437419912945465"
"Saint-Lyphard";"Mater";"ce.0442030t@ac-nantes.fr";"44410";"Ecole maternelle publique Jean de La Fontaine";"Loire-Atlantique";"7 Rue Des Ecoles, La Madeleine";"Public";"47.357191166777014";"-2.3674002032675583"
"Nantes";"Elem";"ce.0442035y@ac-nantes.fr";"44300";"Ecole élémentaire publique Le Linot";"Loire-Atlantique";"45 Rue Du Port Des Charrettes";"Public";"47.26809083157482";"-1.527519502347513"
"Couffé";"Elem";"ce.0442050p@ac-nantes.fr";"44521";"Ecole primaire publique Hugues Aufray";"Loire-Atlantique";"16 Rue Des Vignes";"Public";"47.39281306867486";"-1.2906605003966152"
"Vay";"Elem";"ce.0442572g@ac-nantes.fr";"44170";"Ecole primaire publique Bois Viaud";"Loire-Atlantique";"7 Ter Route Du Gavre";"Public";"47.55315031887522";"-1.702399550010289"
"Nantes";"Mater";"ce.0441739b@ac-nantes.fr";"44200";"Ecole maternelle publique Louise Michel";"Loire-Atlantique";"21 Rue Paul Ramadier";"Public";"47.20581101848446";"-1.5312504630460555"
"Guérande";"Elem";"ce.0441876a@ac-nantes.fr";"44350";"Ecole primaire publique Le Pradonnais";"Loire-Atlantique";"Avenue Des Sports";"Public";"47.335624963576464";"-2.4253095900176955"
"Nantes";"Mater";"ce.0442047l@ac-nantes.fr";"44000";"Ecole maternelle publique Marie-Anne du Boccage";"Loire-Atlantique";"44 Rue Marie-Anne Du Boccage";"Public";"47.21455222498077";"-1.572860182658211"
"Nantes";"Elem";"ce.0442104y@ac-nantes.fr";"44100";"Ecole primaire privée Diwan";"Loire-Atlantique";"160 Rue Du Corps De Garde";"Privé";"47.219354093168604";"-1.6019702314405084"
"Nantes";"Mater";"ce.0442400v@ac-nantes.fr";"44100";"Ecole maternelle publique Les Réformes";"Loire-Atlantique";"12 Rue Des Réformes";"Public";"47.19967933229809";"-1.5911204854870449"
"Saint-Herblain";"Elem";"ce.0442525f@ac-nantes.fr";"44800";"Ecole primaire publique Françoise Giroud";"Loire-Atlantique";"5 Chemin De La Solvardière";"Public";"47.217295426039186";"-1.6419004965889092"
"Chassillé";"Elem";"ce.0720098r@ac-nantes.fr";"72540";"Ecole primaire publique";"Sarthe";"9 Rue Du Général Leclerc";"Public";"48.02067472049129";"-0.11569456813019038"
"Chaufour-Notre-Dame";"Elem";"ce.0720103w@ac-nantes.fr";"72550";"Ecole primaire publique Jules Ferry";"Sarthe";"13 Rue De La Denisière";"Public";"48.02649412082914";"0.0785813440943377"
"Etival-lès-le-Mans";"Elem";"ce.0720148v@ac-nantes.fr";"72700";"Ecole élémentaire publique";"Sarthe";"Route De Voivres";"Public";"47.954785193783366";"0.08697824751876432"
"Ecorpain";"Elem";"ce.0720150x@ac-nantes.fr";"72120";"Ecole élémentaire publique";"Sarthe";"3 Rue Des Ecoles";"Public";"47.937558659402086";"0.6629394262133645"
"Duneau";"Elem";"ce.0720155c@ac-nantes.fr";"72160";"Ecole élémentaire publique";"Sarthe";"6 Rue De La Mairie";"Public";"48.06928784431555";"0.5186498943322764"
"Dissay-sous-Courcillon";"Elem";"ce.0720164m@ac-nantes.fr";"72500";"Ecole primaire publique YANN ARTHUS-BERTRAND";"Sarthe";"3 Avenue Du Mans";"Public";"47.66507194615587";"0.4712602823666115"
"Mayet";"Mater";"ce.0720213r@ac-nantes.fr";"72360";"Ecole maternelle publique St Exupéry";"Sarthe";"20 Rue Paul Fournier";"Public";"47.75784818845947";"0.2720751830495868"
"Mézières-sur-Ponthouin";"Elem";"ce.0720220y@ac-nantes.fr";"72290";"Ecole élémentaire publique RPI Fernand Vivet";"Sarthe";"14 Rue De La 2Ème Db";"Public";"48.192604096331664";"0.29761559372463664"
"Montfort-le-Gesnois";"Mater";"ce.0720240v@ac-nantes.fr";"72450";"Ecole maternelle publique Pauline Kergomard";"Sarthe";"68 Grande Rue";"Public";"48.04925502539634";"0.4069518467983894"
"Parigné-l'Evêque";"Mater";"ce.0720278l@ac-nantes.fr";"72250";"Ecole maternelle publique Amstramgram";"Sarthe";"Rue De Virrefollet";"Public";"47.937425226537066";"0.36165581676354563"
"Sablé-sur-Sarthe";"Elem";"ce.0720279m@ac-nantes.fr";"72300";"Ecole primaire publique Alain Bourgeteau";"Sarthe";"1 Rue Jean De Bueil";"Public";"47.85510844971261";"-0.35027410284158106"
"Vivoin";"Elem";"ce.0720379w@ac-nantes.fr";"72170";"Ecole primaire publique";"Sarthe";"Place De La Mairie";"Public";"48.233769245542604";"0.15620366241047548"
"Fercé-sur-Sarthe";"Elem";"ce.0720392k@ac-nantes.fr";"72430";"Ecole primaire publique des noisetiers";"Sarthe";"Rue Des Avelines";"Public";"47.89998181539003";"-0.03313845157674716"
"Fillé";"Elem";"ce.0720398s@ac-nantes.fr";"72210";"Ecole primaire publique Rosa Bonheur";"Sarthe";"1 Rue Des Gesleries";"Public";"47.90299063872032";"0.12814653627056805"
"Luché-Pringé";"Elem";"ce.0720468t@ac-nantes.fr";"72800";"Ecole primaire publique Georges Jean";"Sarthe";"Rue Paul Doumer";"Public";"47.703601706157094";"0.07539742777767884"
"Le Mans";"Elem";"ce.0720491t@ac-nantes.fr";"72000";"Ecole élémentaire d'application Suzanne Busson";"Sarthe";"22 Rue Germain Pilon";"Public";"48.012178418218554";"0.20297537214232095"
"Avoise";"Elem";"ce.0720524d@ac-nantes.fr";"72430";"Ecole primaire publique";"Sarthe";"Rue Champ Gaillard";"Public";"47.86380694766666";"-0.20180446882628517"
"Beaumont-Pied-de-Boeuf";"Elem";"ce.0720537t@ac-nantes.fr";"72500";"Ecole élémentaire publique";"Sarthe";"1 Bis Rue De La Tour";"Public";"47.7566807390868";"0.40279047107266"
"Champfleur";"Elem";"ce.0720586w@ac-nantes.fr";"72610";"Ecole primaire publique";"Sarthe";"Rue De La Barre";"Public";"48.38753506668339";"0.12654155867441094"
"Le Mans";"Mater";"ce.0720612z@ac-nantes.fr";"72100";"Ecole maternelle publique Louis Pergaud";"Sarthe";"1  Place Des Cyclamens";"Public";"47.978306127873196";"0.22849044831453508"
"Le Mans";"Mater";"ce.0720616d@ac-nantes.fr";"72000";"Ecole maternelle publique Louise Labé";"Sarthe";"46 Rue De Saint Nazaire";"Public";"48.02019475768252";"0.1788176408338832"
"Saint-Germain-d'Arcé";"Elem";"ce.0720623l@ac-nantes.fr";"72800";"Ecole élémentaire publique";"Sarthe";"4 Impasse Des Pêcheurs";"Public";"47.62620628368651";"0.2908435754444136"
"Saint-Corneille";"Elem";"ce.0720651s@ac-nantes.fr";"72460";"Ecole primaire publique";"Sarthe";"34 Grande Rue";"Public";"48.066528803271204";"0.3435045056470337"
"Le Mans";"Elem";"ce.0720725x@ac-nantes.fr";"72100";"Ecole élémentaire publique Jean Macé";"Sarthe";"24 Rue Jean Macé";"Public";"47.991340051166176";"0.19290366880425103"
"Le Mans";"Elem";"ce.0720733f@ac-nantes.fr";"72000";"Ecole élémentaire publique Rose Valland";"Sarthe";"6 Avenue Greco";"Public";"47.97502736490485";"0.21313658736306137"
"Le Mans";"Elem";"ce.0720737k@ac-nantes.fr";"72000";"Ecole primaire publique Ferdinand Buisson";"Sarthe";"63 Avenue Yzeux";"Public";"48.00560170926656";"0.21619751185005817"
"Saint-Mars-la-Brière";"Mater";"ce.0720746v@ac-nantes.fr";"72470";"Ecole maternelle publique Les Hauts Champs";"Sarthe";"Allée Des Châtaigniers";"Public";"48.02782235778806";"0.3790645102335419"
"Saint-Ouen-de-Mimbré";"Elem";"ce.0720753c@ac-nantes.fr";"72130";"Ecole primaire publique";"Sarthe";"6 Rue Des Ecoles";"Public";"48.29187111667113";"0.048114908381799805"
"Saint-Paterne - Le Chevain";"Elem";"ce.0720757g@ac-nantes.fr";"72610";"Ecole primaire publique Charles Perrault";"Sarthe";"2 Place De L'Eglise, Saint Paterne";"Public";"48.414830079875045";"0.10836649937764534"
"Saint-Vincent-des-Prés";"Elem";"ce.0720777d@ac-nantes.fr";"72600";"Ecole élémentaire publique";"Sarthe";"22 Rue Viventien, Le Bourg";"Public";"48.29474643051629";"0.38467749754580177"
"Savigné-l'Evêque";"Elem";"ce.0720786n@ac-nantes.fr";"72460";"Ecole élémentaire publique Jacques Prévert";"Sarthe";"22 Bis Rue De La Pelouse";"Public";"48.07318958659303";"0.3004125356704501"
"Champagné";"Mater";"ce.0720871f@ac-nantes.fr";"72470";"Ecole maternelle publique Pauline Kergomard";"Sarthe";"Rue Pauline Kergomard";"Public";"48.02217315759719";"0.3283754312214031"
"Villaines-sous-Lucé";"Elem";"ce.0720882t@ac-nantes.fr";"72150";"Ecole primaire publique La craie des champs";"Sarthe";"Rue De Cassière";"Public";"47.86792096297299";"0.4819104317185797"
"Mézières-sous-Lavardin";"Elem";"ce.0720908w@ac-nantes.fr";"72240";"Ecole élémentaire publique";"Sarthe";"4 Chemin De La Fuie";"Public";"48.1542780523945";"0.03099250139832854"
"Marolles-les-Braults";"Elem";"ce.0720909x@ac-nantes.fr";"72260";"Ecole élémentaire publique Le Petit Nicolas";"Sarthe";"9 Impasse Les Etandeaux, Marolles Les Braults";"Public";"48.249091354064454";"0.3107311692320979"
"Beaumont-sur-Dême";"Elem";"ce.0720919h@ac-nantes.fr";"72340";"Ecole primaire publique";"Sarthe";"6 Rue De L'Eglise";"Public";"47.6930099557478";"0.5694524167699514"
"Juigné-sur-Sarthe";"Elem";"ce.0721013k@ac-nantes.fr";"72300";"Ecole primaire publique Les prés hauts";"Sarthe";"25 Rue Haute";"Public";"47.86048276529756";"-0.28763484441963455"
"Sargé-lès-le-Mans";"Elem";"ce.0721015m@ac-nantes.fr";"72190";"Ecole élémentaire publique Maurice Genevoix";"Sarthe";"16 Rue Bel Air";"Public";"48.0348300585262";"0.24122034678262602"
"Le Mans";"Mater";"ce.0721058j@ac-nantes.fr";"72100";"Ecole maternelle publique Arthur Rimbaud";"Sarthe";"2 Rue Du Commandant Delaboudinière";"Public";"47.992540105233445";"0.2185070178351838"
"Saint-Michel-de-Chavaignes";"Elem";"ce.0721064r@ac-nantes.fr";"72440";"Ecole primaire publique Gustave Billard";"Sarthe";"6 Rue Des Ecoles";"Public";"48.01823166907533";"0.5715400194042575"
"Coudrecieux";"Elem";"ce.0721076d@ac-nantes.fr";"72440";"Ecole primaire publique des noisetiers";"Sarthe";"17 Rue De La Mairie";"Public";"47.99286541821105";"0.6313852766938705"
"Le Mans";"Mater";"ce.0721111s@ac-nantes.fr";"72000";"Ecole maternelle privée Sainte Marie";"Sarthe";"2 Rue Pierre Belon";"Privé";"48.007057617578134";"0.20351282254877454"
"Le Mans";"Elem";"ce.0721112t@ac-nantes.fr";"72000";"Ecole primaire privée Saint Benoit-Maupertuis";"Sarthe";"15 Allée Jean Lurçat";"Privé";"47.99623789342081";"0.21571019280322684"
"Connerré";"Elem";"ce.0721133r@ac-nantes.fr";"72160";"Ecole primaire privée Sainte Anne";"Sarthe";"31 Rue Michel Beaufils";"Privé";"48.059042089538856";"0.4945786865296152"
"Vivoin";"Elem";"ce.0721139x@ac-nantes.fr";"72170";"Ecole primaire privée Sacré-Coeur";"Sarthe";"4 Rue De Maresche";"Privé";"48.23347791784223";"0.1555091583117447"
"Vallon-sur-Gée";"Elem";"ce.0721157s@ac-nantes.fr";"72540";"Ecole primaire privée Saint Joseph-Sainte Marie";"Sarthe";"3 Rue De La Juiverie";"Privé";"47.96337031971671";"-0.06390583683769452"
"Le Lude";"Elem";"ce.0721160v@ac-nantes.fr";"72800";"Ecole primaire privée Sainte Anne Notre-Dame";"Sarthe";"26 Grande Rue";"Privé";"47.647279070705736";"0.15577391042469016"
"Fillé";"Elem";"ce.0721183v@ac-nantes.fr";"72210";"Ecole primaire privée Saint Charles";"Sarthe";"19 Rue Du Passeur";"Privé";"47.89824689422408";"0.1265444440100081"
"Roézé-sur-Sarthe";"Elem";"ce.0721184w@ac-nantes.fr";"72210";"Ecole primaire privée Notre-Dame-Saint Martin";"Sarthe";"10 Route De Besnes";"Privé";"47.896581004632154";"0.06765395605653775"
"Clermont-Créans";"Elem";"ce.0721191d@ac-nantes.fr";"72200";"Ecole primaire publique des délices";"Sarthe";"12 Rue Des Délices";"Public";"47.71758085390916";"-0.018451272535386788"
"Mulsanne";"Elem";"ce.0721192e@ac-nantes.fr";"72230";"Ecole primaire publique Flora Tristan";"Sarthe";"6 Boulevard Emile Plet";"Public";"47.917243428118724";"0.24843147757991918"
"Nantes";"Elem";"ce.0440683d@ac-nantes.fr";"44000";"Ecole élémentaire publique Gaston Serpette";"Loire-Atlantique";"46 Rue Du Douet Garnier";"Public";"47.226342186815366";"-1.576509838493324"
"Nantes";"Elem";"ce.0440685f@ac-nantes.fr";"44000";"Ecole primaire publique Villa Maria";"Loire-Atlantique";"12 Rue Villa Maria";"Public";"47.23083764925511";"-1.561469492062739"
"Nantes";"Elem";"ce.0440688j@ac-nantes.fr";"44100";"Ecole élémentaire publique Jean Zay";"Loire-Atlantique";"19 Bis Rue Yves Kartel";"Public";"47.20862424644805";"-1.6072118276916083"
"Nantes";"Mater";"ce.0440712k@ac-nantes.fr";"44100";"Ecole maternelle publique Lamoricière";"Loire-Atlantique";"14 Bis Rue Lamoricière";"Public";"47.21227638611638";"-1.5713695783633703"
"Nantes";"Mater";"ce.0440719t@ac-nantes.fr";"44100";"Ecole maternelle publique Lucie Aubrac";"Loire-Atlantique";"45 Boulevard Jean Moulin";"Public";"47.20784040721314";"-1.5992799432944385"
"Nantes";"Mater";"ce.0440726a@ac-nantes.fr";"44100";"Ecole maternelle publique Jean Zay 2";"Loire-Atlantique";"19 Rue Yves Kartel";"Public";"47.208624154288046";"-1.608029667359223"
"Nort-sur-Erdre";"Mater";"ce.0440730e@ac-nantes.fr";"44390";"Ecole maternelle publique Du Marais";"Loire-Atlantique";"Rue Des Ecoles";"Public";"47.43729021351303";"-1.4969804831517102"
"Noyal-sur-Brutz";"Elem";"ce.0440733h@ac-nantes.fr";"44110";"Ecole primaire publique Charles Perrault";"Loire-Atlantique";"5 Rue Des Troènes";"Public";"47.7756358242299";"-1.3457993157724235"
"La Regrippière";"Elem";"ce.0440781k@ac-nantes.fr";"44330";"Ecole primaire publique Clément Pellerin";"Loire-Atlantique";"2 Ter Rue De L'Ecole";"Public";"47.181927336805295";"-1.1777304931919914"
"Rezé";"Mater";"ce.0440798d@ac-nantes.fr";"44400";"Ecole maternelle publique Simone Veil";"Loire-Atlantique";"129 Rue Maurice Jouaud";"Public";"47.17406092201309";"-1.5532937342755415"
"Saint-Brevin-les-Pins";"Elem";"ce.0440818a@ac-nantes.fr";"44250";"Ecole primaire publique François Dallet - Les Pins";"Loire-Atlantique";"16 Avenue François Mercier";"Public";"47.25213609478521";"-2.1638702111446837"
"Saint-Julien-de-Vouvantes";"Elem";"ce.0440850k@ac-nantes.fr";"44670";"Ecole primaire publique Les Rochettes";"Loire-Atlantique";"12 Rue Des Rochettes";"Public";"47.64036394035835";"-1.2390202650770088"
"Saint-Molf";"Elem";"ce.0440865b@ac-nantes.fr";"44350";"Ecole primaire publique La Roche Blanche";"Loire-Atlantique";"Rue De La Roche Blanche";"Public";"47.393210641710695";"-2.4242500985617768"
"Saint-Nazaire";"Elem";"ce.0440886z@ac-nantes.fr";"44600";"Ecole élémentaire publique Michelet";"Loire-Atlantique";"36 Rue Alphonse Daudet";"Public";"47.25910464354033";"-2.233394608700293"
"Saint-Père-en-Retz";"Elem";"ce.0440913d@ac-nantes.fr";"44320";"Ecole primaire publique Jacques Brel";"Loire-Atlantique";"3 Rue Du Petit Prince";"Public";"47.20985339581227";"-2.0395300863592936"
"Saint-Sébastien-sur-Loire";"Elem";"ce.0440917h@ac-nantes.fr";"44230";"Ecole élémentaire publique Théodore Monod";"Loire-Atlantique";"6 Rue Du 8 Mai 1945";"Public";"47.206649962678185";"-1.503030278123113"
"Les Sorinières";"Elem";"ce.0440936d@ac-nantes.fr";"44840";"Ecole élémentaire publique La Tilleulière";"Loire-Atlantique";"83 Rue Georges Clemenceau";"Public";"47.147693590247236";"-1.530360328247646"
"Trignac";"Elem";"ce.0440953x@ac-nantes.fr";"44570";"Ecole élémentaire publique Léo Lagrange";"Loire-Atlantique";"Rue Léo Lagrange";"Public";"47.300012833709175";"-2.1994494772714863"
"Trignac";"Mater";"ce.0440955z@ac-nantes.fr";"44570";"Ecole maternelle publique Anne Frank";"Loire-Atlantique";"Rue Léo Lagrange Certé";"Public";"47.30020075570303";"-2.19886027062914"
"Vair-sur-Loire";"Elem";"ce.0440995t@ac-nantes.fr";"44150";"Ecole primaire publique Le Chêne Vert";"Loire-Atlantique";"2 Rue De Versailles, Saint-Herblon";"Public";"47.40644397645676";"-1.0946604139403977"
"Pontchâteau";"Elem";"ce.0441037n@ac-nantes.fr";"44160";"Ecole élémentaire publique Charlie Chaplin";"Loire-Atlantique";"Rue Pellé De Queral";"Public";"47.43967045056352";"-2.09523975473884"
"Saint-Julien-de-Concelles";"Elem";"ce.0441040s@ac-nantes.fr";"44450";"Ecole élémentaire publique Le Lys de la Vallée";"Loire-Atlantique";"9 Rue De La Salmonière";"Public";"47.25454366501882";"-1.3897400657711316"
"Rezé";"Elem";"ce.0441048a@ac-nantes.fr";"44400";"Ecole primaire publique Port au Blé";"Loire-Atlantique";"8 Rue Du Port Au Blé";"Public";"47.19061171595637";"-1.554749578802102"
"Loireauxence";"Elem";"ce.0441050c@ac-nantes.fr";"44370";"Ecole primaire privée Saint Jean";"Loire-Atlantique";"57 Rue Des Ecoles, La Chapelle-Saint-Sauveur";"Privé";"47.44201230930856";"-0.9868814075854393"
"Campbon";"Elem";"ce.0441072b@ac-nantes.fr";"44750";"Ecole primaire privée Saint Victor";"Loire-Atlantique";"3 Rue Saint-Victor";"Privé";"47.412080105643135";"-1.966279715497716"
"Bouée";"Elem";"ce.0441082m@ac-nantes.fr";"44260";"Ecole primaire privée Sainte Thérèse";"Loire-Atlantique";"2 Place De L'Eglise";"Privé";"47.319702399723376";"-1.910519945636408"
"Le Bignon";"Elem";"ce.0441089v@ac-nantes.fr";"44140";"Ecole primaire privée Notre-Dame de Lourdes";"Loire-Atlantique";"3 Rue De La Croix";"Privé";"47.09936566420949";"-1.4910194318044545"
"Grand-Auverné";"Elem";"ce.0441136w@ac-nantes.fr";"44520";"Ecole primaire privée Notre-Dame des Anges";"Loire-Atlantique";"15 Rue Bernard Du Treuil";"Privé";"47.59084916399648";"-1.3312203867260974"
"Guenrouet";"Elem";"ce.0441145f@ac-nantes.fr";"44530";"Ecole primaire privée Sainte Marie";"Loire-Atlantique";"23 Rue Des Ecoles";"Privé";"47.518146345428505";"-1.9595399712653943"
"Guérande";"Elem";"ce.0441149k@ac-nantes.fr";"44350";"Ecole primaire privée Sainte Marie";"Loire-Atlantique";"3 Place Chapelle Nd La Blanche";"Privé";"47.32741751049833";"-2.4306794811276453"
"Issé";"Elem";"ce.0441159w@ac-nantes.fr";"44520";"Ecole primaire privée Saint Louis";"Loire-Atlantique";"5 Rue De La Poste";"Privé";"47.62438377792247";"-1.4508498256853632"
"La Planche";"Elem";"ce.0441227v@ac-nantes.fr";"44140";"Ecole primaire privée Sainte Catherine";"Loire-Atlantique";"1 Rue Des Tisserands";"Privé";"47.01739107678756";"-1.437320366719388"
"Piriac-sur-Mer";"Elem";"ce.0441231z@ac-nantes.fr";"44420";"Ecole primaire privée Notre-Dame du Rosaire";"Loire-Atlantique";"3 Bis Rue Du Calvaire";"Privé";"47.379426284446964";"-2.5451906886322253"
"Nozay";"Elem";"ce.0441252x@ac-nantes.fr";"44170";"Ecole primaire privée Sainte Marie";"Loire-Atlantique";"2 Rue De L'Eglise";"Privé";"47.56533189105659";"-1.6242094938694653"
"La Roche-Blanche";"Elem";"ce.0441292r@ac-nantes.fr";"44522";"Ecole primaire privée Sainte Marie";"Loire-Atlantique";"221 Rue Des Marronniers";"Privé";"47.4393066908794";"-1.1426504911479398"
"Remouillé";"Elem";"ce.0441300z@ac-nantes.fr";"44140";"Ecole primaire privée Saint Pierre";"Loire-Atlantique";"2 Place De La Bosselle";"Privé";"47.056486054529614";"-1.3764160115782171"
"La Regrippière";"Elem";"ce.0441303c@ac-nantes.fr";"44330";"Ecole primaire privée Le Sacré-Coeur";"Loire-Atlantique";"10 Rue Du Vignoble";"Privé";"47.18010010308875";"-1.1781994611210092"
"Saint-Gildas-des-Bois";"Elem";"ce.0441358m@ac-nantes.fr";"44530";"Ecole primaire privée Saint Joseph";"Loire-Atlantique";"37 Rue Gabriel Deshayes";"Privé";"47.5155590728138";"-2.041268479505288"
"La Turballe";"Elem";"ce.0441365v@ac-nantes.fr";"44420";"Ecole primaire privée Sainte Marie de l'Océan";"Loire-Atlantique";"4 Rue Alphonse Daudet";"Privé";"47.34908090542168";"-2.5095100432379884"
"Sion-les-Mines";"Elem";"ce.0441387u@ac-nantes.fr";"44590";"Ecole primaire privée Saint Joseph";"Loire-Atlantique";"2 Rue Des Mues";"Privé";"47.73592275463297";"-1.5947504503810666"
"Saint-Vincent-des-Landes";"Elem";"ce.0441394b@ac-nantes.fr";"44590";"Ecole primaire privée Notre-Dame";"Loire-Atlantique";"12 Route D'Isse";"Privé";"47.654926675476126";"-1.4934700933443428"
"Saint-Sébastien-sur-Loire";"Elem";"ce.0441399g@ac-nantes.fr";"44230";"Ecole primaire privée Sainte Bernadette";"Loire-Atlantique";"3 Rue Robert Douineau, Le Douet";"Privé";"47.19285540758571";"-1.517990468027776"
"Saint-Sébastien-sur-Loire";"Elem";"ce.0441402k@ac-nantes.fr";"44230";"Ecole primaire privée Sainte Thérèse";"Loire-Atlantique";"15 Rue Jean-Baptiste Robert";"Privé";"47.209452844647274";"-1.5059196359842317"
"Vieillevigne";"Elem";"ce.0441451n@ac-nantes.fr";"44116";"Ecole primaire privée Sainte Jeanne d'Arc";"Loire-Atlantique";"12 Avenue De Nantes";"Privé";"46.97343734353353";"-1.4348594189346437"
"Vertou";"Mater";"ce.0441454s@ac-nantes.fr";"44120";"Ecole maternelle privée Saint Martin";"Loire-Atlantique";"15 Avenue De Morges";"Privé";"47.16712096940241";"-1.4713049747170373"
"Nantes";"Elem";"ce.0441471k@ac-nantes.fr";"44300";"Ecole primaire privée Notre-Dame de Lourdes";"Loire-Atlantique";"3 Rue Jean-Baptiste Olivaux";"Privé";"47.25121611511503";"-1.5753396876287453"
"Nantes";"Elem";"ce.0441494k@ac-nantes.fr";"44000";"Ecole primaire privée Notre-Dame de Toutes Aides";"Loire-Atlantique";"8 Rue Denis Papin";"Privé";"47.2235110953817";"-1.5220597440100478"
"Loireauxence";"Elem";"ce.0441535e@ac-nantes.fr";"44370";"Ecole élémentaire publique René-Guy Cadou";"Loire-Atlantique";"71 Rue Pierre De Coubertin, Varades";"Public";"47.39016258488704";"-1.0310503082270344"
"Vallet";"Elem";"ce.0441557d@ac-nantes.fr";"44330";"Ecole élémentaire publique Paul Eluard";"Loire-Atlantique";"46 Rue François Luneau";"Public";"47.16342616335474";"-1.2683699936232755"
"Sainte-Luce-sur-Loire";"Elem";"ce.0441560g@ac-nantes.fr";"44980";"Ecole primaire publique Félix Tessier";"Loire-Atlantique";"40 Rue Olympe De Gouges";"Public";"47.255248195322125";"-1.462799880460825"
"Grandchamp-des-Fontaines";"Elem";"ce.0441573w@ac-nantes.fr";"44119";"Ecole primaire publique Robert Desnos";"Loire-Atlantique";"12 Rue Des Cent Sillons";"Public";"47.368834246288124";"-1.6088002265362975"
"Nantes";"Mater";"ce.0441600a@ac-nantes.fr";"44000";"Ecole maternelle publique Stalingrad";"Loire-Atlantique";"6 Allée Du Bourg Fumé";"Public";"47.219661641625166";"-1.5373606010851688"
"Le Cellier";"Elem";"ce.0441605f@ac-nantes.fr";"44850";"Ecole élémentaire publique Les Lonnières";"Loire-Atlantique";"6 Allée William Turner";"Public";"47.324662898215266";"-1.3471232377176672"
"Les Sorinières";"Mater";"ce.0441647b@ac-nantes.fr";"44840";"Ecole maternelle publique La Tilleulière";"Loire-Atlantique";"1 Rue Des Ecoles";"Public";"47.14657080714152";"-1.5285897896080303"
"Nantes";"Mater";"ce.0441665w@ac-nantes.fr";"44300";"Ecole maternelle publique La Bottière";"Loire-Atlantique";"14 Rue De La Bottière";"Public";"47.237426764660235";"-1.5224301106302784"
"Saint-Herblain";"Elem";"ce.0441671c@ac-nantes.fr";"44800";"Ecole élémentaire publique Beauregard";"Loire-Atlantique";"22 Avenue Beauregard";"Public";"47.21212327514168";"-1.6599497672642927"
"Vieillevigne";"Elem";"ce.0441683r@ac-nantes.fr";"44116";"Ecole primaire publique Paul-Emile Victor";"Loire-Atlantique";"8 Boulevard De L'Atlantique";"Public";"46.96831707643778";"-1.4373896981680245"
"Ancenis-Saint-Géréon";"Elem";"ce.0441689x@ac-nantes.fr";"44150";"Ecole élémentaire publique Madame de Sévigné";"Loire-Atlantique";"Boulevard Sévigné, Ancenis";"Public";"47.377447898828834";"-1.1815983793173244"
"Saint-Brevin-les-Pins";"Mater";"ce.0441698g@ac-nantes.fr";"44250";"Ecole maternelle publique Max Jacob";"Loire-Atlantique";"38 Avenue Poincaré, Mindin";"Public";"47.26494971446671";"-2.165430334805314"
"Saint-Herblain";"Mater";"ce.0441700j@ac-nantes.fr";"44800";"Ecole maternelle publique Beauregard";"Loire-Atlantique";"22 Avenue Beauregard";"Public";"47.21155732952872";"-1.6588193948934524"
"Le Loroux-Bottereau";"Mater";"ce.0441842n@ac-nantes.fr";"44430";"Ecole maternelle publique Maxime Marchand";"Loire-Atlantique";"330 Rue D'Anjou";"Public";"47.23664635478741";"-1.3390495759947965"
"Bouaye";"Mater";"ce.0441865n@ac-nantes.fr";"44830";"Ecole maternelle publique Maryse Bastie";"Loire-Atlantique";"12 Rue Du Moulin";"Public";"47.14557326171248";"-1.691179679527183"
"Saint-Sébastien-sur-Loire";"Elem";"ce.0442314b@ac-nantes.fr";"44230";"Ecole élémentaire publique Jean de La Fontaine";"Loire-Atlantique";"17 Rue De La Pyramide";"Public";"47.20694339209773";"-1.4913006098517352"
"Angers";"Mater";"ce.0490144r@ac-nantes.fr";"49100";"Ecole maternelle publique Isoret";"Maine-et-Loire";"25 Square De L'Isoret";"Public";"47.47462911988488";"-0.5223105437563406"
"Beaulieu-sur-Layon";"Elem";"ce.0490147u@ac-nantes.fr";"49750";"Ecole primaire publique Louis Froger";"Maine-et-Loire";"23 Rue De Bel Air";"Public";"47.31264810521928";"-0.5926498274418532"
"Angers";"Elem";"ce.0490201c@ac-nantes.fr";"49100";"Ecole primaire publique Joseph Cussonneau";"Maine-et-Loire";"15 Rue Des Cordeliers";"Public";"47.472356719414115";"-0.5497994352745563"
"Longuenée-en-Anjou";"Elem";"ce.0490222a@ac-nantes.fr";"49770";"Ecole primaire publique du Brionneau";"Maine-et-Loire";"Rue De La Mairie, La Meignanne";"Public";"47.51888202986105";"-0.6704196563919927"
"Beaufort-en-Anjou";"Elem";"ce.0490324l@ac-nantes.fr";"49250";"Ecole primaire publique du Château";"Maine-et-Loire";"Place Du Château, Beaufort-En-Vallee";"Public";"47.43964849854086";"-0.21890963977098432"
"Les Bois d'Anjou";"Elem";"ce.0490326n@ac-nantes.fr";"49250";"Ecole primaire publique du Tertre";"Maine-et-Loire";"1 A Rue De L'Union, Brion";"Public";"47.4432626987208";"-0.1581799486849245"
"Chaudefonds-sur-Layon";"Elem";"ce.0490336z@ac-nantes.fr";"49290";"Ecole primaire publique La Source";"Maine-et-Loire";"5 Rue De La Poste";"Public";"47.326132096831856";"-0.7058301547060295"
"Saint-Germain-des-Prés";"Elem";"ce.0490344h@ac-nantes.fr";"49170";"Ecole primaire publique Boris Vian";"Maine-et-Loire";"2 Rue Saint Charles";"Public";"47.41002279101462";"-0.8337299125622183"
"Chemillé-en-Anjou";"Elem";"ce.0490395n@ac-nantes.fr";"49120";"Ecole élémentaire publique Georges Brassens";"Maine-et-Loire";"10 Rue De La Source, Chemille";"Public";"47.21330180378704";"-0.7287700173637087"
"Beaupréau-en-Mauges";"Elem";"ce.0490402w@ac-nantes.fr";"49450";"Ecole primaire publique Françoise Dolto";"Maine-et-Loire";"29 Rue Du Moulin Victor, Villedieu-La-Blouere";"Public";"47.14962001478756";"-1.0624109527374557"
"Sèvremoine";"Elem";"ce.0490404y@ac-nantes.fr";"49230";"Ecole primaire publique Saint Exupéry";"Maine-et-Loire";"1  Rue Du Fief Prieur, Saint-Crespin-Sur-Moine";"Public";"47.09961471295977";"-1.19202940493836"
"Doué-en-Anjou";"Elem";"ce.0490441n@ac-nantes.fr";"49700";"Ecole primaire publique Quartier Douces";"Maine-et-Loire";"16 Rue Victor Journeau, Doue-La-Fontaine";"Public";"47.18597395911142";"-0.2624301466692169"
"Dénezé-sous-Doué";"Elem";"ce.0490445t@ac-nantes.fr";"49700";"Ecole primaire publique Les Blés d'Or";"Maine-et-Loire";"1 Rue Principale";"Public";"47.245907045536626";"-0.2760201306183948"
"Doué-en-Anjou";"Elem";"ce.0490451z@ac-nantes.fr";"49700";"Ecole élémentaire publique des Hirondelles";"Maine-et-Loire";"5 Rue De La Mairie, Les Verchers-Sur-Layon";"Public";"47.154149392709726";"-0.29761957677799283"
"Montreuil-Bellay";"Elem";"ce.0490463m@ac-nantes.fr";"49260";"Ecole primaire publique Méron";"Maine-et-Loire";"289 Rue De L'Ecole, Quartier De Meron";"Public";"47.134938616960966";"-0.10873046326892456"
"Noyant-Villages";"Elem";"ce.0490499b@ac-nantes.fr";"49490";"Ecole élémentaire publique de Broc";"Maine-et-Loire";"61 Rue De Maulne, Broc";"Public";"47.57989972308371";"0.16745988936377246"
"Longué-Jumelles";"Elem";"ce.0490508l@ac-nantes.fr";"49160";"Ecole élémentaire publique Raymond Renard";"Maine-et-Loire";"Rue Du Collège";"Public";"47.37578869901049";"-0.11203031718596532"
"Gennes-Val-de-Loire";"Elem";"ce.0490532m@ac-nantes.fr";"49320";"Ecole primaire publique de Grézillé";"Maine-et-Loire";"3 Rue De La Mairie, Grezille";"Public";"47.32684530660654";"-0.3466201704296329"
"Tuffalun";"Mater";"ce.0490534p@ac-nantes.fr";"49700";"Ecole maternelle publique Hervé Yves";"Maine-et-Loire";"11 Rue De L'Aubance, Louerre";"Public";"47.29529644080755";"-0.3247697775719269"
"Saumur";"Elem";"ce.0490543z@ac-nantes.fr";"49400";"Ecole élémentaire publique Louis Pergaud";"Maine-et-Loire";"Avenue De La Croix De Guerre, St Lambert Des Levees";"Public";"47.27506800719625";"-0.0800196206318094"
"Varennes-sur-Loire";"Elem";"ce.0490553k@ac-nantes.fr";"49730";"Ecole primaire publique Urbain Fardeau";"Maine-et-Loire";"Rue Du Haut Bourg";"Public";"47.237731148558325";"0.05056940028443722"
"Les Hauts-d'Anjou";"Elem";"ce.0490561u@ac-nantes.fr";"49330";"Ecole primaire publique Kirikou";"Maine-et-Loire";"Route De Chemiré, Brissarthe";"Public";"47.70100370044988";"-0.44981989710673076"
"Bellevigne-les-Châteaux";"Elem";"ce.0490610x@ac-nantes.fr";"49400";"Ecole primaire publique Louis Robineau";"Maine-et-Loire";"Rue Des Ecoles, Chace";"Public";"47.215675182634655";"-0.07261777296964776"
"Thorigné-d'Anjou";"Elem";"ce.0490615c@ac-nantes.fr";"49220";"Ecole primaire publique Eric Tabarly";"Maine-et-Loire";"7 Rue De L'Abbaye";"Public";"47.63700745038641";"-0.6626604741370897"
"Longuenée-en-Anjou";"Elem";"ce.0490629t@ac-nantes.fr";"49770";"Ecole primaire publique Le Petit Prince";"Maine-et-Loire";"9 Rue Langlois Berthelot, Le Plessis Mace";"Public";"47.54312684405883";"-0.6743596286209346"
"Cantenay-Epinard";"Elem";"ce.0490640e@ac-nantes.fr";"49460";"Ecole primaire publique Les Basses Vallées";"Maine-et-Loire";"13 Bis Rue Président Lelièvre";"Public";"47.53332942019316";"-0.5679102532336464"
"Etriché";"Elem";"ce.0490645k@ac-nantes.fr";"49330";"Ecole primaire publique Alphonse Daudet";"Maine-et-Loire";"6 Rue De La Vieille Cure";"Public";"47.649498241742144";"-0.44525964105906796"
"Brissac Loire Aubance";"Elem";"ce.0490656x@ac-nantes.fr";"49250";"Ecole primaire publique La Capucine";"Maine-et-Loire";"1 Rue De Tarencay, Saulge-L'Hopital";"Public";"47.295710969193124";"-0.38322938312451427"
"Rochefort-sur-Loire";"Elem";"ce.0490662d@ac-nantes.fr";"49190";"Ecole primaire publique Jean Bouhier";"Maine-et-Loire";"Place De La Mairie";"Public";"47.357658142818224";"-0.6581200547291467"
"Mauges-sur-Loire";"Elem";"ce.0490667j@ac-nantes.fr";"49410";"Ecole primaire publique du jardin extraordinaire";"Maine-et-Loire";"1 Rue De La Mairie, Beausse";"Public";"47.320872742597956";"-0.9256295826369311"
"Trémentines";"Elem";"ce.0490675t@ac-nantes.fr";"49340";"Ecole élémentaire publique Saint-Exupéry";"Maine-et-Loire";"Place De L'Eglise";"Public";"47.135477813653736";"-0.8262805693758055"
"Vezins";"Elem";"ce.0490676u@ac-nantes.fr";"49340";"Ecole primaire publique de L'Evre";"Maine-et-Loire";"Place Flandre Et Dunkerque";"Public";"47.121131122008876";"-0.7132894135796402"
"Noyant-Villages";"Elem";"ce.0490725x@ac-nantes.fr";"49490";"Ecole primaire publique Les Champs Dorés";"Maine-et-Loire";"Place De L'Eglise, Lasse";"Public";"47.54046521840699";"0.03690438561397986"
"Erdre-en-Anjou";"Elem";"ce.0490757g@ac-nantes.fr";"49220";"Ecole primaire publique Robert Doisneau";"Maine-et-Loire";"14 Place Saint-Paul, Gene";"Public";"47.630905423866096";"-0.8022399915367675"
"Montreuil-sur-Maine";"Elem";"ce.0490758h@ac-nantes.fr";"49220";"Ecole primaire publique Les Queniaux de Montreuil";"Maine-et-Loire";"33 Rue Des Hauts De Mayenne";"Public";"47.651409407873594";"-0.699640676258801"
"Armaillé";"Elem";"ce.0490759j@ac-nantes.fr";"49420";"Ecole primaire publique Les Lavandières";"Maine-et-Loire";"8 Rue De La Mairie";"Public";"47.71429177320513";"-1.130139704463311"
"Ombrée d'Anjou";"Elem";"ce.0490763n@ac-nantes.fr";"49420";"Ecole primaire publique de La Verzée";"Maine-et-Loire";"12 Rue Du Coulais, Le Tremblay";"Public";"47.67685535060626";"-1.01827054804432"
"Ombrée d'Anjou";"Elem";"ce.0490764p@ac-nantes.fr";"49420";"Ecole primaire publique Les Eperviers";"Maine-et-Loire";"3 Place De L'Eglise, La Previere";"Public";"47.717020635222624";"-1.180000147219909"
"Brissac Loire Aubance";"Mater";"ce.0490930v@ac-nantes.fr";"49320";"Ecole maternelle publique Les Jardins";"Maine-et-Loire";"Rue De L'Aubance, Brissac Quince";"Public";"47.354637293844284";"-0.4475699135562263"
"Avrillé";"Elem";"ce.0490935a@ac-nantes.fr";"49240";"Ecole primaire publique Le Bois du Roy";"Maine-et-Loire";"Allée Georges Brassens";"Public";"47.49392233554275";"-0.5902604592074848"
"Cholet";"Mater";"ce.0490988h@ac-nantes.fr";"49300";"Ecole maternelle publique Les Richardières";"Maine-et-Loire";"8 Rue Jean-Jacques Rousseau";"Public";"47.04254291934123";"-0.884060352371639"
"Gennes-Val-de-Loire";"Elem";"ce.0491052c@ac-nantes.fr";"49350";"Ecole élémentaire publique La Sansonnière";"Maine-et-Loire";"La Sansonniere, St Georges-Des-Sept-Voies";"Public";"47.358570381945995";"-0.30012448858994467"
"Longué-Jumelles";"Elem";"ce.0491055f@ac-nantes.fr";"49160";"Ecole primaire publique Félix Landreau";"Maine-et-Loire";"Chemin Du Tourniquet";"Public";"47.43634534473691";"-0.10423968283954632"
"Tuffalun";"Elem";"ce.0491142a@ac-nantes.fr";"49700";"Ecole primaire privée Notre-Dame";"Maine-et-Loire";"6 Route De Saune, Ambillou-Chateau";"Privé";"47.263742203569784";"-0.3427101388189417"
"Mazé-Milon";"Elem";"ce.0491147f@ac-nantes.fr";"49630";"Ecole primaire privée Sainte Marie";"Maine-et-Loire";"Chemin Du Bois, Maze";"Privé";"47.46041089870999";"-0.2709094549795515"
"Baugé-en-Anjou";"Elem";"ce.0491157s@ac-nantes.fr";"49150";"Ecole primaire privée Saint Joseph";"Maine-et-Loire";"23 Ter Square Saint Joseph, Bauge-En-Anjou";"Privé";"47.53857317621258";"-0.09696218302908952"
"Montreuil-Bellay";"Elem";"ce.0491177n@ac-nantes.fr";"49260";"Ecole primaire privée Sainte Anne";"Maine-et-Loire";"76 Rue Du Docteur Gaudrez";"Privé";"47.13161428206486";"-0.1546993836753839"
"Montrevault-sur-Evre";"Elem";"ce.0491193f@ac-nantes.fr";"49110";"Ecole primaire privée La Source";"Maine-et-Loire";"3 Bis Allée De L'Ecusson, St-Pierre-Montlimart";"Privé";"47.26956764788936";"-1.031409557541464"
"Montrevault-sur-Evre";"Elem";"ce.0491202r@ac-nantes.fr";"49110";"Ecole primaire privée Saint Joseph";"Maine-et-Loire";"11 Rue De L'Evre, Saint-Remy-En-Mauges";"Privé";"47.274361202478055";"-1.0750616171769758"
"Montrevault-sur-Evre";"Elem";"ce.0491203s@ac-nantes.fr";"49110";"Ecole primaire privée Jeanne d'Arc";"Maine-et-Loire";"17 Avenue Du Plessis, Chaudron-En-Mauges";"Privé";"47.289503169198284";"-0.9843202568898378"
"Angers";"Elem";"ce.0491210z@ac-nantes.fr";"49100";"Ecole primaire privée Sacré-Coeur La Salle";"Maine-et-Loire";"10  Rue Millet";"Privé";"47.472135110149395";"-0.5557305549788739"
"Ingrandes-le-Fresne-sur-Loire";"Elem";"ce.0491225r@ac-nantes.fr";"49123";"Ecole primaire privée Jean-Michel Langevin";"Maine-et-Loire";"3 Rue Claudius Petit, Ingrandes";"Privé";"47.406729617004764";"-0.9221094119917538"
"Champtocé-sur-Loire";"Elem";"ce.0491227t@ac-nantes.fr";"49123";"Ecole primaire privée";"Maine-et-Loire";"4 Rue Des Grands Jardins";"Privé";"47.41456724669319";"-0.8625506685554537"
"Mauges-sur-Loire";"Elem";"ce.0491236c@ac-nantes.fr";"49290";"Ecole primaire privée Saint Victor";"Maine-et-Loire";"2 Chemin Fontaine, Saint-Laurent-De-La-Plain";"Privé";"47.316173158279724";"-0.8050796405841744"
"Mauges-sur-Loire";"Elem";"ce.0491240g@ac-nantes.fr";"49410";"Ecole primaire privée Saint Joseph";"Maine-et-Loire";"27 Rue De La Chapelle, Le Mesnil-En-Vallee";"Privé";"47.3210152269363";"-0.9217893525275468"
"Val d'Erdre-Auxence";"Elem";"ce.0491254x@ac-nantes.fr";"49370";"Ecole primaire privée Noël Pinot";"Maine-et-Loire";"1 Square Stephane Grappelli, Le Louroux Beconnais";"Privé";"47.521934231688235";"-0.8822296839662768"
"Sèvremoine";"Elem";"ce.0491266k@ac-nantes.fr";"49450";"Ecole primaire privée Saint-Pierre des jardins";"Maine-et-Loire";"7 Rue De La Chevallerie, La Renaudiere";"Privé";"47.11997518291367";"-1.0578698615722417"
"Sèvremoine";"Elem";"ce.0491271r@ac-nantes.fr";"49450";"Ecole élémentaire privée Joseph Wresinski";"Maine-et-Loire";"3 Rue D'Anjou, Saint-Macaire-En-Mauges";"Privé";"47.122941219693466";"-1.0567105293017682"
"Orée d'Anjou";"Elem";"ce.0491284e@ac-nantes.fr";"49270";"Ecole primaire privée Arc en Ciel";"Maine-et-Loire";"14 Chemin Des Moutons, Saint-Sauveur-De-Landemon";"Privé";"47.28632782767386";"-1.2558502887254999"
"Beaupréau-en-Mauges";"Elem";"ce.0491303a@ac-nantes.fr";"49510";"Ecole primaire privée Saint Michel";"Maine-et-Loire";"16 Rue Foulques Nerra, La Poiteviniere";"Privé";"47.22971593841454";"-0.9017605304349313"
"Le May-sur-Evre";"Elem";"ce.0491306d@ac-nantes.fr";"49122";"Ecole primaire privée Notre-Dame";"Maine-et-Loire";"57 Rue Saint Louis";"Privé";"47.13383598516896";"-0.8924794570555938"
"Ombrée d'Anjou";"Elem";"ce.0491342t@ac-nantes.fr";"49420";"Ecole primaire privée Saint François";"Maine-et-Loire";"20 Rue De La Planche, Combree";"Privé";"47.705144450780224";"-1.0337046965062815"
"Denée";"Elem";"ce.0491364s@ac-nantes.fr";"49190";"Ecole primaire privée Sainte Marie";"Maine-et-Loire";"12 Rue Du Colonel";"Privé";"47.37639929109061";"-0.606120407914753"
"Rives-du-Loir-en-Anjou";"Elem";"ce.0491376e@ac-nantes.fr";"49140";"Ecole primaire privée";"Maine-et-Loire";"5 Place De La Mairie, Soucelles";"Privé";"47.56827248169023";"-0.4193902657892658"
"Tiercé";"Elem";"ce.0491381k@ac-nantes.fr";"49125";"Ecole primaire privée Notre-Dame";"Maine-et-Loire";"21 Rue D'Anjou";"Privé";"47.61596431366083";"-0.46878057269476137"
"Etriché";"Elem";"ce.0491390v@ac-nantes.fr";"49330";"Ecole primaire privée Les Templiers";"Maine-et-Loire";"5 Rue De La Templerie";"Privé";"47.650774264752535";"-0.4424394064385393"
"Montreuil-Juigné";"Elem";"ce.0491398d@ac-nantes.fr";"49460";"Ecole primaire privée Notre-Dame";"Maine-et-Loire";"10 Rue Pierre Mendès France";"Privé";"47.529390160488056";"-0.6108394539303668"
"Terranjou";"Elem";"ce.0491426j@ac-nantes.fr";"49380";"Ecole primaire privée Saint Germain";"Maine-et-Loire";"4 Ter Rue Nationale, Chavagnes";"Privé";"47.27017931266374";"-0.4530894464957395"
"Beaulieu-sur-Layon";"Elem";"ce.0491432r@ac-nantes.fr";"49750";"Ecole primaire privée Saint Louis";"Maine-et-Loire";"12 Ter Rue Du Moulin Des Cinq";"Privé";"47.310368069759";"-0.5929259653489592"
"Nuaillé";"Elem";"ce.0491470g@ac-nantes.fr";"49340";"Ecole primaire privée Ange Gardien";"Maine-et-Loire";"14 Rue Germaine De Terves";"Privé";"47.09613519100562";"-0.7964695438600701"
"Chemillé-en-Anjou";"Elem";"ce.0491482v@ac-nantes.fr";"49120";"Ecole primaire privée Saint Vincent";"Maine-et-Loire";"14 Rue Du Bas Parc, La Tourlandry";"Privé";"47.144763876427845";"-0.6965243988174672"
"Chemillé-en-Anjou";"Elem";"ce.0491487a@ac-nantes.fr";"49120";"Ecole primaire privée Saint Joseph";"Maine-et-Loire";"2 Rue Du Commerce, Sainte-Christine";"Privé";"47.286197454447326";"-0.8487699491060874"
"Chemillé-en-Anjou";"Elem";"ce.0491494h@ac-nantes.fr";"49120";"Ecole primaire privée Sainte Léonie";"Maine-et-Loire";"3 Rue De L'Abbé Bousseau, La Chapelle Rousselin";"Privé";"47.21229596005301";"-0.7968903028811808"
"Angers";"Elem";"ce.0491503t@ac-nantes.fr";"49000";"Ecole primaire privée Curé d'Ars";"Maine-et-Loire";"32 Rue Bourg La Croix";"Privé";"47.45254721468327";"-0.5256504543482623"
"Cléré-sur-Layon";"Elem";"ce.0491532z@ac-nantes.fr";"49560";"Ecole élémentaire privée Saint Francaire";"Maine-et-Loire";"1 Place De L'Eglise";"Privé";"47.09179043548752";"-0.42196160330796323"
"Lys-Haut-Layon";"Elem";"ce.0491539g@ac-nantes.fr";"49310";"Ecole primaire privée Notre Dame";"Maine-et-Loire";"Place René Cassin, Vihiers";"Privé";"47.123445985589846";"-0.5520298119909142"
"Cholet";"Elem";"ce.0491556a@ac-nantes.fr";"49300";"Ecole primaire privée Saint Jean - Sainte Famille";"Maine-et-Loire";"10 Rue Marc Sangnier";"Privé";"47.066944459190026";"-0.8864094513579528"
"Toutlemonde";"Elem";"ce.0491562g@ac-nantes.fr";"49360";"Ecole primaire privée Louis Ferrand";"Maine-et-Loire";"11 Rue Marthe Formon";"Privé";"47.056825658417075";"-0.7669000759053011"
"Les Ponts-de-Cé";"Elem";"ce.0491582d@ac-nantes.fr";"49130";"Ecole primaire privée Saint Maurille";"Maine-et-Loire";"Rue De La Grasserie";"Privé";"47.416086714189916";"-0.5254090281968258"
"Mauges-sur-Loire";"Elem";"ce.0491586h@ac-nantes.fr";"49410";"Ecole primaire privée Saint Jean";"Maine-et-Loire";"59 Place De L'Abbé Meffray, Le Marillais";"Privé";"47.35862109333073";"-1.0729499773590405"
"Vernoil-le-Fourrier";"Elem";"ce.0491615p@ac-nantes.fr";"49390";"Ecole primaire publique Odette Blanchet";"Maine-et-Loire";"Rue De La Chambardelière";"Public";"47.38488591430951";"0.07647066249430333"
"Angers";"Mater";"ce.0491616r@ac-nantes.fr";"49000";"Ecole maternelle publique Claude Monet";"Maine-et-Loire";"15 Boulevard D'Arbrissel";"Public";"47.44362460593221";"-0.5601195111771952"
"Doué-en-Anjou";"Elem";"ce.0491628d@ac-nantes.fr";"49700";"Ecole primaire publique Saint-Exupéry - Petit Prince";"Maine-et-Loire";"2 Rue André Gide, Doue-La-Fontaine";"Public";"47.196441630452156";"-0.2854299870526068"
"Vernantes";"Elem";"ce.0491631g@ac-nantes.fr";"49390";"Ecole primaire publique Eugène Livet";"Maine-et-Loire";"2 Route De Blou";"Public";"47.39322665657238";"0.047959597323075066"
"Saumur";"Elem";"ce.0491652e@ac-nantes.fr";"49400";"Ecole primaire publique Les Hautes Vignes";"Maine-et-Loire";"Rue Francois Bedouet";"Public";"47.26059594773348";"-0.10425022011504108"
"Bouillé-Ménard";"Elem";"ce.0491656j@ac-nantes.fr";"49520";"Ecole primaire publique Alfred Clément";"Maine-et-Loire";"9 Route De Chatelais";"Public";"47.74282861564438";"-0.966320244299155"
"Lys-Haut-Layon";"Elem";"ce.0491683n@ac-nantes.fr";"49310";"Ecole primaire publique Camille Claudel";"Maine-et-Loire";"19 Rue Champ De Foire Des Champs, Vihiers";"Public";"47.14116968682642";"-0.5357499737125841"
"Cholet";"Elem";"ce.0491719c@ac-nantes.fr";"49300";"Ecole élémentaire publique Les Turbaudières";"Maine-et-Loire";"1 Rue Des Orfevres";"Public";"47.0475986215093";"-0.898910009193374"
"Angers";"Elem";"ce.0491738y@ac-nantes.fr";"49100";"Ecole élémentaire publique Isoret";"Maine-et-Loire";"25 Square De L'Isoret";"Public";"47.473968828100006";"-0.5228996747311574"
"Bouchemaine";"Elem";"ce.0491744e@ac-nantes.fr";"49080";"Ecole primaire publique Le Château";"Maine-et-Loire";"1  Route Des Petroles";"Public";"47.41917945024449";"-0.6124396827554464"
"Montreuil-Juigné";"Elem";"ce.0491749k@ac-nantes.fr";"49460";"Ecole élémentaire publique Jean Madeleine";"Maine-et-Loire";"10 Rue Du 18 Juin";"Public";"47.530135689744874";"-0.6183803222071489"
"Trélazé";"Mater";"ce.0491751m@ac-nantes.fr";"49800";"Ecole maternelle publique Jacques Prévert";"Maine-et-Loire";"25 Rue Edouard Branly";"Public";"47.44674306511864";"-0.46653739317363857"
"Angers";"Elem";"ce.0491760x@ac-nantes.fr";"49000";"Ecole primaire publique Gérard Philipe";"Maine-et-Loire";"60 Rue Des Petites Pannes";"Public";"47.48856350044091";"-0.5673394911146707"
"Nuaillé";"Elem";"ce.0491777r@ac-nantes.fr";"49340";"Ecole primaire publique La Vallonnerie";"Maine-et-Loire";"Rue De La Borderie";"Public";"47.09413097778371";"-0.7911598262385913"
"Saint-Christophe-du-Bois";"Elem";"ce.0491779t@ac-nantes.fr";"49280";"Ecole primaire publique Victor Schoelcher";"Maine-et-Loire";"10 Rue De La Chapelle";"Public";"47.02760779478725";"-0.9425201831905465"
"Ecouflant";"Elem";"ce.0491790e@ac-nantes.fr";"49000";"Ecole primaire publique George Sand";"Maine-et-Loire";"54 Rue Colonel Léon Faye";"Public";"47.492698385546";"-0.5123105300724468"
"Angers";"Elem";"ce.0491791f@ac-nantes.fr";"49000";"Ecole élémentaire publique Alfred Clément";"Maine-et-Loire";"32 Rue De La Madeleine";"Public";"47.464008794607416";"-0.5443106156120413"
"Cholet";"Elem";"ce.0491847s@ac-nantes.fr";"49300";"Ecole primaire publique Marie Curie";"Maine-et-Loire";"40 Rue Marceau";"Public";"47.063436970356385";"-0.8892500592355672"
"Montrevault-sur-Evre";"Elem";"ce.0491856b@ac-nantes.fr";"49110";"Ecole primaire publique Le Petit Anjou";"Maine-et-Loire";"24 Rue Foch, Montrevault";"Public";"47.25992980566032";"-1.045939978610042"
"Mouliherne";"Elem";"ce.0491874w@ac-nantes.fr";"49390";"Ecole primaire publique Pomme de reinette";"Maine-et-Loire";"Place De L'Ecole";"Public";"47.46628997160658";"0.013240423637392211"
"Bellevigne-en-Layon";"Elem";"ce.0491879b@ac-nantes.fr";"49380";"Ecole primaire publique Jules Spal";"Maine-et-Loire";"5 Boulevard De La République, Thouarce";"Public";"47.26901741442062";"-0.5034405578594092"
"Cholet";"Mater";"ce.0491885h@ac-nantes.fr";"49300";"Ecole maternelle publique Chambord";"Maine-et-Loire";"Rue De Fontevrault";"Public";"47.051810204303166";"-0.8970106486863857"
"Bouchemaine";"Elem";"direction@louisetzeliemartin.org";"49080";"Ecole primaire privée louis et zélie martin";"Maine-et-Loire";"20 Route D'Angers";"Privé";"47.453994192421376";"-0.5969801637970316"
"Beaucouzé";"Elem";"ce.0492513r@ac-nantes.fr";"49070";"Ecole primaire publique Emilie Oberkampf";"Maine-et-Loire";"3 Rue De La Houssaye";"Public";"47.47618984129823";"-0.6398919967146796"
"Val-du-Maine";"Elem";"ce.0530107d@ac-nantes.fr";"53340";"Ecole primaire publique";"Mayenne";"12 Rue De Commere";"Public";"47.93111366091799";"-0.4162994149446837"
"Bouère";"Elem";"ce.0530129c@ac-nantes.fr";"53290";"Ecole primaire publique Les Tilleuls";"Mayenne";"8 Place Du Souvenir";"Public";"47.864285476316944";"-0.4778599614346711"
"Brée";"Elem";"ce.0530137l@ac-nantes.fr";"53150";"Ecole primaire publique";"Mayenne";"2 Route De Saint-Ouen Des Vallons";"Public";"48.15595071326531";"-0.528957115914723"
"La Brûlatte";"Mater";"ce.0530139n@ac-nantes.fr";"53410";"Ecole maternelle publique";"Mayenne";"Le Bourg";"Public";"48.08576111025564";"-0.9521798914127404"
"Chailland";"Elem";"ce.0530141r@ac-nantes.fr";"53420";"Ecole primaire publique";"Mayenne";"15 Rue De Saint Hilaire";"Public";"48.225066639710136";"-0.8746805627529722"
"Evron";"Elem";"ce.0530167u@ac-nantes.fr";"53600";"Ecole primaire publique";"Mayenne";"1 Bis Rue Des Vignes, Chatres La Foret";"Public";"48.13427570877863";"-0.4317561444653132"
"Evron";"Elem";"ce.0530208n@ac-nantes.fr";"53600";"Ecole primaire publique Jean Monnet";"Mayenne";"13 Avenue Des Sports";"Public";"48.15242599827844";"-0.4027306266799255"
"Le Genest-Saint-Isle";"Elem";"ce.0530218z@ac-nantes.fr";"53940";"Ecole élémentaire publique";"Mayenne";"3 Rue Albert Jacquard";"Public";"48.10029911690272";"-0.8858734312166212"
"L'Huisserie";"Elem";"ce.0530242a@ac-nantes.fr";"53970";"Ecole primaire publique";"Mayenne";"11 Rue Des Camelias";"Public";"48.02280967093571";"-0.7655001236355743"
"Izé";"Elem";"ce.0530244c@ac-nantes.fr";"53160";"Ecole primaire publique";"Mayenne";"12 Rue De Bretagne";"Public";"48.23038729178616";"-0.3102949323647856"
"Juvigné";"Elem";"ce.0530250j@ac-nantes.fr";"53380";"Ecole primaire publique";"Mayenne";"1 Bis Rue Principale";"Public";"48.22999295604988";"-1.03483038479501"
"Landivy";"Elem";"ce.0530252l@ac-nantes.fr";"53190";"Ecole primaire publique françois vannier";"Mayenne";"2 Rue Grande Rue";"Public";"48.48106777085986";"-1.0356306393240946"
"Laval";"Elem";"ce.0530263y@ac-nantes.fr";"53000";"Ecole élémentaire publique eugène hairy";"Mayenne";"9 Rue De Clermont";"Public";"48.068411764929145";"-0.7811303995546793"
"Laval";"Mater";"ce.0530275l@ac-nantes.fr";"53000";"Ecole maternelle publique Pauline Kergomard";"Mayenne";"62 Rue De Nantes";"Public";"48.067630913206635";"-0.7807304806273655"
"Laval";"Elem";"ce.0530283v@ac-nantes.fr";"53000";"Ecole élémentaire publique Alain Michelet";"Mayenne";"27 Rue De L'Abbé Angot";"Public";"48.068069425412915";"-0.7670801465939876"
"Laval";"Elem";"ce.0530285x@ac-nantes.fr";"53000";"Ecole élémentaire publique La Senelle";"Mayenne";"16 Impasse De La Senelle";"Public";"48.0704530975729";"-0.7550705225363212"
"Laval";"Elem";"ce.0530286y@ac-nantes.fr";"53000";"Ecole élémentaire publique Jacques Prévert";"Mayenne";"33 Rue Magenta";"Public";"48.07579829805679";"-0.7665701146620617"
"Laval";"Mater";"ce.0530291d@ac-nantes.fr";"53000";"Ecole maternelle publique Jacques Prévert";"Mayenne";"35 Rue Magenta";"Public";"48.07546495365178";"-0.7665705670852064"
"Laval";"Mater";"ce.0530294g@ac-nantes.fr";"53000";"Ecole maternelle publique Elisabeth et Robert badinter";"Mayenne";"11  Boulevard Murat";"Public";"48.06265346513685";"-0.7541297157604177"
"Loiron-Ruillé";"Elem";"ce.0530303s@ac-nantes.fr";"53320";"Ecole primaire publique Jean Moulin";"Mayenne";"4 Rue Jean Moulin, Loiron";"Public";"48.06066619814441";"-0.9382403200240781"
"Montreuil-Poulay";"Elem";"ce.0530339f@ac-nantes.fr";"53640";"Ecole primaire publique Lucie Aubrac";"Mayenne";"437 Rue Des Artisans";"Public";"48.38165006374558";"-0.5256300778946676"
"Parné-sur-Roc";"Elem";"ce.0530353w@ac-nantes.fr";"53260";"Ecole primaire publique";"Mayenne";"35 Grande Rue";"Public";"48.0069623237407";"-0.670570368365027"
"Pommerieux";"Elem";"ce.0530358b@ac-nantes.fr";"53400";"Ecole primaire publique Prodhomme Arthur";"Mayenne";"10 Rue Des Magnolias";"Public";"47.82510194200104";"-0.897319552518498"
"Saint-Denis-d'Anjou";"Mater";"ce.0530396t@ac-nantes.fr";"53290";"Ecole maternelle publique";"Mayenne";"Place De L'Europe";"Public";"47.79065100740107";"-0.4417100635013136"
"Saint-Fraimbault-de-Prières";"Elem";"ce.0530401y@ac-nantes.fr";"53300";"Ecole primaire publique Henri Des";"Mayenne";"Le Bourg";"Public";"48.35006527671641";"-0.5817197714234402"
"Saint-Georges-Buttavent";"Elem";"ce.0530406d@ac-nantes.fr";"53100";"Ecole primaire publique Robert Doisneau";"Mayenne";"2 Rue Des Ecoles";"Public";"48.31168508349873";"-0.6936198054118468"
"Blandouet-Saint Jean";"Elem";"ce.0530418s@ac-nantes.fr";"53270";"Ecole primaire publique";"Mayenne";"3 Route De Thorigne, Saint-Jean-Sur-Erve";"Public";"48.032725137487375";"-0.38610992763206053"
"Saint-Loup-du-Dorat";"Elem";"ce.0530424y@ac-nantes.fr";"53290";"Ecole primaire publique George Sand";"Mayenne";"3 Rue Principale";"Public";"47.88891311633279";"-0.41498941743806367"
"Saint-Ouën-des-Toits";"Elem";"ce.0530434j@ac-nantes.fr";"53410";"Ecole primaire publique bilingue Henri Chantrel";"Mayenne";"19 Rue Du Maine";"Public";"48.13786681692626";"-0.9057801700183821"
"Port-Brillet";"Elem";"ce.0530515x@ac-nantes.fr";"53410";"Ecole élémentaire publique Le Chat Perché";"Mayenne";"Rue Jean Raty";"Public";"48.11197803075593";"-0.9704496603416393"
"Bazougers";"Elem";"ce.0530522e@ac-nantes.fr";"53170";"Ecole primaire publique";"Mayenne";"Place Simone Veil";"Public";"48.01877572351492";"-0.5841636361399777"
"Senonnes";"Elem";"ce.0530524g@ac-nantes.fr";"53390";"Ecole primaire privée Notre-Dame de Pontmain";"Mayenne";"2 Rue De L'Hippodrome";"Privé";"47.79914800153039";"-1.2013094121073322"
"Villaines-la-Juhel";"Elem";"ce.0530529m@ac-nantes.fr";"53700";"Ecole primaire privée Saint Nicolas";"Mayenne";"Rue Des Guillardières";"Privé";"48.34439211629209";"-0.27875031780425186"
"Villiers-Charlemagne";"Elem";"ce.0530531p@ac-nantes.fr";"53170";"Ecole primaire privée Sainte Marie";"Mayenne";"5 Rue De La Tour D'Auvergne";"Privé";"47.92144146181668";"-0.6753165540435355"
"Laval";"Elem";"ce.0530550k@ac-nantes.fr";"53000";"Ecole primaire privée Saint Pierre";"Mayenne";"15 Rue Du Stade";"Privé";"48.07705863470782";"-0.763640528670064"
"Levaré";"Elem";"ce.0530552m@ac-nantes.fr";"53120";"Ecole primaire privée Sainte Jeanne d'Arc";"Mayenne";"14 Rue Des Ecoles";"Privé";"48.41818474862543";"-0.9107806140558912"
"Loiron-Ruillé";"Elem";"ce.0530555r@ac-nantes.fr";"53320";"Ecole primaire privée Saint Joseph";"Mayenne";"19 Rue D'Anjou, Loiron";"Privé";"48.05724386800271";"-0.9354494320170738"
"Mayenne";"Elem";"ce.0530563z@ac-nantes.fr";"53100";"Ecole primaire privée Saint Martin";"Mayenne";"7 Rue De La Davière";"Privé";"48.30306106559312";"-0.6100393333850513"
"Montigné-le-Brillant";"Elem";"ce.0530576n@ac-nantes.fr";"53970";"Ecole primaire privée Sacré-Coeur";"Mayenne";"12 Bis Rue Des Ecoles";"Privé";"48.006896423330666";"-0.816140622269477"
"Evron";"Elem";"ce.0530605v@ac-nantes.fr";"53600";"Ecole primaire privée Saint Joseph";"Mayenne";"9 Rue De Beauvais";"Privé";"48.154545734992865";"-0.4034002509554913"
"Le Genest-Saint-Isle";"Elem";"ce.0530612c@ac-nantes.fr";"53940";"Ecole primaire privée Saint François d'Assisse";"Mayenne";"7 Route De La Lucette";"Privé";"48.0972760675276";"-0.8887512639875637"
"Gennes-Longuefuye";"Elem";"ce.0530613d@ac-nantes.fr";"53200";"Ecole primaire privée Sainte Marie";"Mayenne";"2 Rue Du Maine, Gennes Sur Glaize";"Privé";"47.854591082223436";"-0.6081733186603497"
"Grazay";"Elem";"ce.0530617h@ac-nantes.fr";"53440";"Ecole primaire privée Sacré-Coeur";"Mayenne";"6 Route De Jublains, Le Bourg";"Privé";"48.289360616673044";"-0.4811377718284475"
"Grez-en-Bouère";"Elem";"ce.0530618j@ac-nantes.fr";"53290";"Ecole primaire privée Saint Jean-Baptiste";"Mayenne";"1 Route De Ruillé";"Privé";"47.87798388067337";"-0.5281750497382706"
"L'Huisserie";"Elem";"ce.0530622n@ac-nantes.fr";"53970";"Ecole primaire privée Sainte Marie";"Mayenne";"Chemin De La Perrine";"Privé";"48.02338719557598";"-0.7621206719712341"
"Origné";"Elem";"ce.0530637e@ac-nantes.fr";"53360";"Ecole primaire privée Sainte Jeanne d'Arc";"Mayenne";"5 Chemin De La Benatre";"Privé";"47.95305533626653";"-0.7288097623531351"
"Renazé";"Elem";"ce.0530648s@ac-nantes.fr";"53800";"Ecole primaire privée Saint Joseph";"Mayenne";"2 Bis Rue Du 8 Mai 1945";"Privé";"47.79360315462937";"-1.0578695221331662"
"Saint-Denis-de-Gastines";"Elem";"ce.0530658c@ac-nantes.fr";"53500";"Ecole primaire privée Saint Joseph";"Mayenne";"4 Rue Jeanne D'Arc";"Privé";"48.342417661358006";"-0.8548201465381606"
"Astillé";"Elem";"ce.0530696u@ac-nantes.fr";"53230";"Ecole primaire privée Saint Joseph";"Mayenne";"10 Rue De La Mairie";"Privé";"47.9634371197942";"-0.8530199843508263"
"Bonchamp-lès-Laval";"Elem";"ce.0530707f@ac-nantes.fr";"53960";"Ecole primaire privée Nazareth";"Mayenne";"13 Place De L'Eglise";"Privé";"48.07462059868825";"-0.6976597258529874"
"Le Bourgneuf-la-Forêt";"Elem";"ce.0530710j@ac-nantes.fr";"53410";"Ecole primaire privée Saint Joseph";"Mayenne";"34 Rue Du Trianon";"Privé";"48.16558616298655";"-0.9693094682202396"
"Carelles";"Elem";"ce.0530715p@ac-nantes.fr";"53120";"Ecole élémentaire privée Saint Joseph";"Mayenne";"14 Rue De La Croix";"Privé";"48.38321393422147";"-0.9049504439518444"
"Champéon";"Elem";"ce.0530718t@ac-nantes.fr";"53640";"Ecole primaire privée Sacré-Coeur";"Mayenne";"2 Rue De La Vallée";"Privé";"48.368025298663106";"-0.5192399163823682"
"Champgenéteux";"Elem";"ce.0530719u@ac-nantes.fr";"53160";"Ecole primaire privée Sacré-Coeur";"Mayenne";"13 Rue Des Rosiers";"Privé";"48.291192048472325";"-0.36073952720859975"
"Château-Gontier-sur-Mayenne";"Elem";"ce.0530734k@ac-nantes.fr";"53200";"Ecole primaire privée Sainte Ursule";"Mayenne";"4 Rue De La Petite Noé, Chateau Gontier";"Privé";"47.82873059742354";"-0.694194094326794"
"Bierné-les-Villages";"Elem";"ce.0530738p@ac-nantes.fr";"53290";"Ecole primaire publique Marcel Aymé";"Mayenne";"1 Rue Du Prieure, Bierne";"Public";"47.81045572686052";"-0.542645274758276"
"Villiers-Charlemagne";"Elem";"ce.0530745x@ac-nantes.fr";"53170";"Ecole primaire publique Lemesle Louis";"Mayenne";"2 Rue Sourdille De La Valette";"Public";"47.920467257877654";"-0.6761604461520623"
"Grez-en-Bouère";"Elem";"ce.0530747z@ac-nantes.fr";"53290";"Ecole primaire publique Alfred Levrot";"Mayenne";"11 Impasse Des Ecoles";"Public";"47.874654249078546";"-0.5232297096307278"
"Laval";"Elem";"ce.0530748a@ac-nantes.fr";"53000";"Ecole primaire publique Charles Perrault";"Mayenne";"17 Place Pasteur";"Public";"48.066432999319225";"-0.7862993681037967"
"Meslay-du-Maine";"Mater";"ce.0530749b@ac-nantes.fr";"53170";"Ecole maternelle publique Annie Fratellini";"Mayenne";"9 Rue De La Gare";"Public";"47.94959834218504";"-0.557240096729389"
"Prée-d'Anjou";"Elem";"ce.0530753f@ac-nantes.fr";"53200";"Ecole primaire privée Saint Julien";"Mayenne";"6 Rue De Normandie";"Privé";"47.843032592782535";"-0.8181599958635325"
"Argentré";"Elem";"ce.0530756j@ac-nantes.fr";"53210";"Ecole primaire privée Saint Cyr";"Mayenne";"2 Route De Louvigne";"Privé";"48.07853931482396";"-0.6372404440134403"
"Saint-Pierre-la-Cour";"Elem";"ce.0530771a@ac-nantes.fr";"53410";"Ecole primaire privée Notre-Dame";"Mayenne";"21 Rue De Normandie";"Privé";"48.11576728787362";"-1.0291901611330543"
"Laval";"Elem";"ce.0530783n@ac-nantes.fr";"53000";"Ecole élémentaire publique Louis Pergaud";"Mayenne";"19 Rue De L'Ecole";"Public";"48.05917445035234";"-0.7645302861263293"
"Château-Gontier-sur-Mayenne";"Mater";"ce.0530808r@ac-nantes.fr";"53200";"Ecole maternelle publique";"Mayenne";"Rue Chant D'Oiseau, Aze";"Public";"47.82066457962986";"-0.6843049882307507"
"Saint-Jean-sur-Mayenne";"Elem";"ce.0530912d@ac-nantes.fr";"53240";"Ecole primaire publique Elise Freinet";"Mayenne";"4 Allée Du Roquet";"Public";"48.13360043779007";"-0.7526386533048162"
"La Barre-de-Monts";"Elem";"ce.0850206m@ac-nantes.fr";"85550";"Ecole primaire publique La Porte des Iles";"Vendée";"4 Chemin Du Querruy";"Public";"46.8858322577592";"-2.1183796658208287"
"Benet";"Elem";"ce.0850218a@ac-nantes.fr";"85490";"Ecole élémentaire publique Les Champs du Bois";"Vendée";"22 Rue Paul Tallineau";"Public";"46.3709307844505";"-0.5830406207809292"
"Le Bernard";"Elem";"ce.0850222e@ac-nantes.fr";"85560";"Ecole primaire publique Les Dolmens";"Vendée";"58 Rue De La Frébouchère";"Public";"46.44105978606956";"-1.4682769159118771"
"Bourneau";"Elem";"ce.0850234t@ac-nantes.fr";"85200";"Ecole primaire publique A L'Orée des Bois";"Vendée";"34 Rue Des Artisans";"Public";"46.5384775944051";"-0.8190338919160879"
"La Caillère-Saint-Hilaire";"Elem";"ce.0850243c@ac-nantes.fr";"85410";"Ecole primaire publique Les P'tits Marrons";"Vendée";"24 Rue De La Raffinerie";"Public";"46.619056977259106";"-0.9092351873530686"
"Cheffois";"Elem";"ce.0850283w@ac-nantes.fr";"85390";"Ecole primaire publique des Tilleuls";"Vendée";"80 Rue Des Hêtres";"Public";"46.66469507827087";"-0.789885969583962"
"Coëx";"Elem";"ce.0850286z@ac-nantes.fr";"85220";"Ecole primaire publique Jules Verne";"Vendée";"13 Rue Des Tisserands";"Public";"46.69919776507759";"-1.7618985170536239"
"Les Herbiers";"Mater";"ce.0850336d@ac-nantes.fr";"85500";"Ecole maternelle publique Françoise Dolto";"Vendée";"24 Rue Saint Blaise";"Public";"46.87245479749954";"-1.012813437861346"
"L'Ile-d'Elle";"Elem";"ce.0850338f@ac-nantes.fr";"85770";"Ecole primaire publique Jacques Prévert";"Vendée";"3 Place De La Liberté";"Public";"46.32991907836893";"-0.9477215099333158"
"L'Ile-d'Olonne";"Elem";"ce.0850340h@ac-nantes.fr";"85340";"Ecole primaire publique Les Salines";"Vendée";"Rue De La Salorge";"Public";"46.562072170208765";"-1.7827683580003588"
"Landeronde";"Elem";"ce.0850353x@ac-nantes.fr";"85150";"Ecole primaire publique Il était une fois";"Vendée";"9 Rue Bonne Lande";"Public";"46.658988108519864";"-1.5736440876523372"
"Montournais";"Elem";"ce.0850386h@ac-nantes.fr";"85700";"Ecole primaire publique Georges Brassens";"Vendée";"4 Bis Rue De Plaisance";"Public";"46.7424216561032";"-0.7654602350047306"
"Montreuil";"Mater";"ce.0850387j@ac-nantes.fr";"85200";"Ecole maternelle publique Le Champ de la Lampe";"Vendée";"11 Rue François Gauvin";"Public";"46.407619232333076";"-0.8355569771331908"
"Mortagne-sur-Sèvre";"Elem";"ce.0850391n@ac-nantes.fr";"85290";"Ecole primaire publique d'Evrunes";"Vendée";"21 Rue Du Centre";"Public";"47.00100787252197";"-0.9740284230160722"
"Mouchamps";"Elem";"ce.0850393r@ac-nantes.fr";"85640";"Ecole primaire publique René Guilbaud";"Vendée";"18 Rue Du Beignon";"Public";"46.78072145465658";"-1.0638057055963699"
"L'Orbrie";"Elem";"ce.0850419u@ac-nantes.fr";"85200";"Ecole primaire publique du Parc";"Vendée";"7 Chemin De La Noue";"Public";"46.488141943402255";"-0.7859205815066805"
"Triaize";"Elem";"ce.0850439r@ac-nantes.fr";"85580";"Ecole primaire publique Les Trois Iles";"Vendée";"5 Place Georges Clemenceau";"Public";"46.393940716338875";"-1.2017385882242955"
"Saint-Gilles-Croix-de-Vie";"Mater";"ce.0850517a@ac-nantes.fr";"85800";"Ecole maternelle publique Edmond Bocquier";"Vendée";"10 Rue Du 8 Mai";"Public";"46.69358932924384";"-1.9305618889553364"
"Saint-Juire-Champgillon";"Mater";"ce.0850546g@ac-nantes.fr";"85210";"Ecole maternelle publique Les Minots";"Vendée";"10 Rue De Bizet";"Public";"46.581237679403685";"-1.027714390551603"
"Saint-Martin-des-Noyers";"Elem";"ce.0850553p@ac-nantes.fr";"85140";"Ecole primaire publique Anselme Roy";"Vendée";"135 Rue Des Ormeaux";"Public";"46.718847485960076";"-1.1758484665078082"
"Saint-Pierre-du-Chemin";"Elem";"ce.0850569g@ac-nantes.fr";"85120";"Ecole primaire publique des Tuileries";"Vendée";"45 Rue Des Tuileries";"Public";"46.69536596235312";"-0.6974746416340153"
"Saint-Pierre-le-Vieux";"Elem";"ce.0850571j@ac-nantes.fr";"85420";"Ecole primaire publique du Marais Mouillé";"Vendée";"11 Rue Edouard Savineau";"Public";"46.40578828103347";"-0.7629135538370728"
"Rives-du-Fougerais";"Elem";"ce.0850575n@ac-nantes.fr";"85410";"Ecole primaire publique des Prés Verts";"Vendée";"Lieu-Dit La Motte Logis, Saint-Sulpice-En-Pareds";"Public";"46.604150745423894";"-0.8355800846626782"
"Talmont-Saint-Hilaire";"Elem";"ce.0850590e@ac-nantes.fr";"85440";"Ecole élémentaire publique du Payré";"Vendée";"1 Rue Des Ecoliers";"Public";"46.46601277104648";"-1.6233045105740542"
"Tiffauges";"Elem";"ce.0850598n@ac-nantes.fr";"85130";"Ecole primaire publique Jacques-Yves Cousteau";"Vendée";"3 Rue Des Ecoles";"Public";"47.01195014400132";"-1.1124405206017856"
"Champagné-les-Marais";"Elem";"ce.0850613e@ac-nantes.fr";"85450";"Ecole primaire publique Jean Macé";"Vendée";"8 Rue Pierre Mendès France";"Public";"46.38234864132944";"-1.123839031441722"
"Fontenay-le-Comte";"Elem";"ce.0850617j@ac-nantes.fr";"85200";"Ecole primaire publique Bouron-Massé";"Vendée";"55 Boulevard Président G. Pompidou";"Public";"46.45348205830552";"-0.80558653097781"
"La Guérinière";"Elem";"ce.0850618k@ac-nantes.fr";"85680";"Ecole primaire publique Pierre Loti";"Vendée";"5 Place Des Pinsonnières";"Public";"46.96891368277392";"-2.2348654874224843"
"Saint-Gilles-Croix-de-Vie";"Mater";"ce.0850625t@ac-nantes.fr";"85800";"Ecole maternelle publique Les Salines";"Vendée";"1 Rue Des Paludiers";"Public";"46.70252416616953";"-1.9459603890533221"
"Saint-Jean-de-Monts";"Elem";"ce.0850629x@ac-nantes.fr";"85160";"Ecole primaire publique de la Plage";"Vendée";"Rue Des Moulins";"Public";"46.78854542148281";"-2.0733275507566904"
"Les Sables-d'Olonne";"Elem";"ce.0850650v@ac-nantes.fr";"85100";"Ecole primaire privée saint-nicolas";"Vendée";"7 Bis Rue Des Muriers";"Privé";"46.49992606324893";"-1.8000464788148571"
"Saint-Christophe-du-Ligneron";"Elem";"ce.0850661g@ac-nantes.fr";"85670";"Ecole primaire privée sainte-marie";"Vendée";"32 Rue De L'Ermitage";"Privé";"46.82623335974026";"-1.7615400994706922"
"Sainte-Gemme-la-Plaine";"Elem";"ce.0850679b@ac-nantes.fr";"85400";"Ecole primaire privée saint-charles";"Vendée";"4 Rue De La Pêcharderie";"Privé";"46.48251598600904";"-1.1155253814251307"
"Saint-Georges-de-Pointindoux";"Elem";"ce.0850683f@ac-nantes.fr";"85150";"Ecole primaire privée notre dame de l'auzance";"Vendée";"4 Rue De L'Auzance";"Privé";"46.64339293388091";"-1.6212254073299803"
"Saint-Germain-de-Prinçay";"Elem";"ce.0850685h@ac-nantes.fr";"85110";"Ecole primaire privée saint-michel";"Vendée";"37 Rue Marchegay";"Privé";"46.721971867035975";"-1.023667336851168"
"Saint-Gervais";"Elem";"ce.0850686j@ac-nantes.fr";"85230";"Ecole primaire privée notre dame de bordevert";"Vendée";"1 Place De L'Eglise";"Privé";"46.90157143837547";"-2.0004104949731576"
"Saint-Vincent-sur-Graon";"Elem";"ce.0850710k@ac-nantes.fr";"85540";"Ecole primaire privée saint-joseph";"Vendée";"5 Rue Du Château D'Eau";"Privé";"46.51658868667892";"-1.3864985011648279"
"Sigournais";"Elem";"ce.0850715r@ac-nantes.fr";"85110";"Ecole primaire privée le donjon";"Vendée";"12 Rue Du Donjon";"Privé";"46.70830195728365";"-0.9847553611124523"
"La Tranche-sur-Mer";"Elem";"ce.0850729f@ac-nantes.fr";"85360";"Ecole primaire privée notre-dame";"Vendée";"2 Rue Du Clos";"Privé";"46.34616991664715";"-1.43880074807293"
"Chanverrie";"Elem";"ce.0850742v@ac-nantes.fr";"85130";"Ecole primaire privée Sapinaud";"Vendée";"1 Rue Des Ecoles, La Verrie";"Privé";"46.95953993275399";"-0.9979149304121351"
"Pouzauges";"Elem";"ce.0850772c@ac-nantes.fr";"85700";"école primaire privée Notre Dame du Donjon";"Vendée";"30 Rue Du Vieux Château";"Privé";"46.78441905495879";"-0.8385015171047361"
"La Rabatelière";"Elem";"ce.0850775f@ac-nantes.fr";"85250";"école primaire privée notre-dame de la salette";"Vendée";"9 Bis Rue Du Couvent";"Privé";"46.8619871641966";"-1.256832604623566"
"La Réorthe";"Elem";"ce.0850778j@ac-nantes.fr";"85210";"école primaire privée jeanne d'arc";"Vendée";"19 Rue Du Stade";"Privé";"46.607740620192715";"-1.0476215788514214"
"Rocheservière";"Elem";"ce.0850780l@ac-nantes.fr";"85620";"école primaire privée la source";"Vendée";"Rue De La Belle Croix";"Privé";"46.94050864456333";"-1.5114669235236036"
"Rochetrejoux";"Elem";"ce.0850795c@ac-nantes.fr";"85510";"école primaire privée le vieux tilleul";"Vendée";"5 Passage Du Théâtre";"Privé";"46.789558464809744";"-0.9960005530323531"
"Saint-Mars-la-Réorthe";"Elem";"ce.0850824j@ac-nantes.fr";"85590";"école primaire privée saint médard";"Vendée";"2 Rue Du Pouet";"Privé";"46.86062094791909";"-0.9246403878424833"
"Saint-Martin-des-Tilleuls";"Elem";"ce.0850830r@ac-nantes.fr";"85130";"école primaire privée saint louis";"Vendée";"6 Bis Rue Des Rosiers";"Privé";"46.97442913414308";"-1.049077980033385"
"Saint-Maurice-le-Girard";"Elem";"ce.0850839a@ac-nantes.fr";"85390";"école primaire privée sacré coeur";"Vendée";"10 Rue Des Ecoliers";"Privé";"46.644732455671054";"-0.8063842653186011"
"Saint-Michel-en-l'Herm";"Elem";"ce.0850843e@ac-nantes.fr";"85580";"école primaire privée sainte marie l'abbaye";"Vendée";"9 Bis Rue Des Grands Murs";"Privé";"46.35214094286399";"-1.2505369222560725"
"Essarts-en-Bocage";"Elem";"ce.0850872l@ac-nantes.fr";"85140";"école primaire privée notre dame";"Vendée";"8 Rue Arsène Mignen, Les Essarts";"Privé";"46.772868096169006";"-1.229279511801009"
"Le Fenouiller";"Elem";"ce.0850877s@ac-nantes.fr";"85800";"école primaire privée sainte marie";"Vendée";"2 Rue Du Petit Puits";"Privé";"46.71937139585218";"-1.9003661140622772"
"Fontenay-le-Comte";"Elem";"ce.0850887c@ac-nantes.fr";"85200";"école primaire privée Sainte Trinité";"Vendée";"3 Rue De Grissais, Bp 307";"Privé";"46.46515782296783";"-0.8173226699808656"
"La Gaubretière";"Elem";"ce.0850898p@ac-nantes.fr";"85130";"école primaire privée sainte marie";"Vendée";"1 Rue Des Grands Champs";"Privé";"46.94163371406745";"-1.0625019934602908"
"La Bretonnière-la-Claye";"Elem";"ce.0850905x@ac-nantes.fr";"85320";"école primaire privée saint joseph";"Vendée";"12 Rue De La Gare";"Privé";"46.48006744779433";"-1.2532270159296528"
"La Bruffière";"Elem";"ce.0850911d@ac-nantes.fr";"85530";"école primaire privée sacré coeur";"Vendée";"2 Rue Des Salles";"Privé";"47.01546882757699";"-1.1949882862856518"
"La Chaize-le-Vicomte";"Elem";"ce.0850920n@ac-nantes.fr";"85310";"école primaire privée saint joseph";"Vendée";"57 Rue Des Frères Payraudeau";"Privé";"46.671530092924165";"-1.2914769464732816"
"La Chapelle-Hermier";"Elem";"ce.0850934d@ac-nantes.fr";"85220";"école primaire privée saint pierre";"Vendée";"26 Rue Georges Clemenceau";"Privé";"46.686753638752805";"-1.7211773012638236"
"La Chapelle-Palluau";"Elem";"ce.0850935e@ac-nantes.fr";"85670";"école primaire privée saint joseph";"Vendée";"3 Rue De L'Ecole";"Privé";"46.784572461654406";"-1.621132261582459"
"La Châtaigneraie";"Elem";"ce.0850938h@ac-nantes.fr";"85120";"école primaire privée sainte marie";"Vendée";"6 Rue Des Niardieres";"Privé";"46.646787364190814";"-0.7382249303001831"
"Sèvremont";"Elem";"ce.0850946s@ac-nantes.fr";"85700";"école primaire privée saint joseph";"Vendée";"7 Rue Des Crayons, Les Chatelliers-Chateaumu";"Privé";"46.85209965593887";"-0.8219764621491348"
"Chavagnes-en-Paillers";"Elem";"ce.0850950w@ac-nantes.fr";"85250";"école primaire privée nazareth";"Vendée";"256 Rue Du Général De Gaulle";"Privé";"46.8906558363639";"-1.2516224081933773"
"Chavagnes-les-Redoux";"Elem";"ce.0850951x@ac-nantes.fr";"85390";"école primaire privée Claire et François d'Assise";"Vendée";"53 Rue Des Vieux Métiers";"Privé";"46.714207906025194";"-0.918313822223891"
"Bazoges-en-Paillers";"Elem";"ce.0850973w@ac-nantes.fr";"85130";"Ecole primaire privée Saint Pierre";"Vendée";"15 Rue D'Anjou";"Privé";"46.908224215775064";"-1.132052801296692"
"Beaufou";"Elem";"ce.0850977a@ac-nantes.fr";"85170";"Ecole primaire privée";"Vendée";"3 Rue Jousbert De La Cour";"Privé";"46.82363492131426";"-1.5290135056515342"
"Benet";"Elem";"ce.0850988m@ac-nantes.fr";"85490";"Ecole primaire privée Sainte Mathilde";"Vendée";"8 Place Du Croissant";"Privé";"46.366352635851925";"-0.5978057688828101"
