"commune";"type_ecole";"mail";"code_postal";"nom_etablissement";"departement";"adresse";"statut";"latitude";"longitude"
"Entremont-le-Vieux";"Elem";"ce.0730098k@ac-grenoble.fr";"73670";"Ecole primaire";"Savoie";"1190 Route Du Granier, Le Bourg";"Public";"45.452061893185466";"5.883890018041727"
"Cognin";"Mater";"ce.0730122l@ac-grenoble.fr";"73160";"Ecole maternelle Pasteur";"Savoie";"2 Rue Des Ecoles";"Public";"45.56196481134014";"5.897670213511792"
"Motz";"Elem";"ce.0730169m@ac-grenoble.fr";"73310";"Ecole élémentaire Motz";"Savoie";"Lieu-Dit Chef Lieu";"Public";"45.91950364402236";"5.847989963498421"
"Serrières-en-Chautagne";"Elem";"ce.0730170n@ac-grenoble.fr";"73310";"Ecole élémentaire";"Savoie";"Lieu-Dit La Lechere";"Public";"45.88678007417496";"5.842370225080763"
"Vions";"Elem";"ce.0730173s@ac-grenoble.fr";"73310";"Ecole élémentaire";"Savoie";"Lieu-Dit Chef Lieu";"Public";"45.82454988620683";"5.806429956213466"
"Billième";"Elem";"ce.0730191l@ac-grenoble.fr";"73170";"Ecole élémentaire publique";"Savoie";"631 Route De La Charvaz";"Public";"45.71977815433913";"5.8131996932653855"
"Méry";"Elem";"ce.0730235j@ac-grenoble.fr";"73420";"Ecole primaire";"Savoie";"Rue De L'Eglise";"Public";"45.643032382083376";"5.9354698978736495"
"Trévignin";"Elem";"ce.0730244u@ac-grenoble.fr";"73100";"Ecole primaire publique";"Savoie";"Lieu-Dit Chef-Lieu";"Public";"45.70775748535629";"5.956300163473311"
"Châteauneuf";"Elem";"ce.0730289t@ac-grenoble.fr";"73390";"Ecole élémentaire Maltaverne";"Savoie";"Lieu-Dit 215 Route Royale, Maltaverne";"Public";"45.54487812710526";"6.182100309256441"
"Arith";"Elem";"ce.0730301f@ac-grenoble.fr";"73340";"Ecole élémentaire";"Savoie";"Lieu-Dit Bourchigny Haut";"Public";"45.714984187285346";"6.087440588357766"
"Planaise";"Elem";"ce.0730325g@ac-grenoble.fr";"73800";"Ecole primaire";"Savoie";"Lieu-Dit Le Turchet, Chef Lieu";"Public";"45.5054373673409";"6.092690553550571"
"Césarches";"Elem";"ce.0730398l@ac-grenoble.fr";"73200";"Ecole élémentaire";"Savoie";"Lieu-Dit La Bruyère";"Public";"45.700016601919366";"6.41051034669346"
"Albertville";"Elem";"ce.0730413c@ac-grenoble.fr";"73200";"Ecole primaire Pargoud";"Savoie";"3 Rue Pargoud";"Public";"45.675341256496395";"6.391499437388562"
"Rognaix";"Elem";"ce.0730419j@ac-grenoble.fr";"73730";"Ecole élémentaire";"Savoie";"447 Rue De La Mairie, La Ville";"Public";"45.583447082446334";"6.447665070950753"
"Verrens-Arvey";"Elem";"ce.0730466k@ac-grenoble.fr";"73460";"Ecole primaire";"Savoie";"Lieu-Dit Chef Lieu";"Public";"45.65430274466868";"6.317150358762843"
"Bessans";"Elem";"ce.0730468m@ac-grenoble.fr";"73480";"Ecole élémentaire Félicie Pautas";"Savoie";"Place De La Mairie";"Public";"45.320579692194585";"6.993589570975467"
"Val-Cenis";"Elem";"ce.0730473t@ac-grenoble.fr";"73500";"Ecole élémentaire";"Savoie";"Place Des Archers, Lanslevillard";"Public";"45.289570821526084";"6.910580622900731"
"Val-Cenis";"Elem";"ce.0730474u@ac-grenoble.fr";"73480";"Ecole élémentaire";"Savoie";"Place De La Mairie, Sollieres Sardiere";"Public";"45.26378497590786";"6.807829660996678"
"Aussois";"Elem";"ce.0730482c@ac-grenoble.fr";"73500";"Ecole primaire";"Savoie";"4 Place Des Chantres";"Public";"45.22743074045385";"6.741040105488268"
"Saint-Colomban-des-Villards";"Elem";"ce.0730553e@ac-grenoble.fr";"73130";"Ecole élémentaire";"Savoie";"Lieu-Dit Le Hameau Lachenal";"Public";"45.30178948709907";"6.239270171492611"
"Saint François Longchamp";"Elem";"ce.0730556h@ac-grenoble.fr";"73130";"Ecole élémentaire Le Planet";"Savoie";"Lieu-Dit Le Planet";"Public";"45.40962539837997";"6.34823983482324"
"Feissons-sur-Salins";"Elem";"ce.0730568w@ac-grenoble.fr";"73350";"Ecole élémentaire";"Savoie";"Lieu-Dit Chef Lieu";"Public";"45.47073738060625";"6.561099942061959"
"Ugine";"Mater";"ce.0730621d@ac-grenoble.fr";"73400";"Ecole maternelle André Pringolliet";"Savoie";"1019 Avenue André Pringolliet";"Public";"45.74970486305812";"6.417150473314051"
"Saint-Nicolas-la-Chapelle";"Elem";"ce.0730642b@ac-grenoble.fr";"73590";"Ecole élémentaire";"Savoie";"Lieu-Dit Chef Lieu";"Public";"45.808913958506096";"6.501630396944328"
"La Plagne Tarentaise";"Elem";"ce.0730647g@ac-grenoble.fr";"73210";"Ecole élémentaire Montchavin";"Savoie";"6 Chemin Du Paradisio, Bellentre";"Public";"45.559578803093174";"6.7364799472549075"
"Aime-la-Plagne";"Elem";"ce.0730652m@ac-grenoble.fr";"73210";"Ecole élémentaire";"Savoie";"Place Chef-Lieu, Granier";"Public";"45.55597385046414";"6.65212007925546"
"Les Chapelles";"Elem";"ce.0730668e@ac-grenoble.fr";"73700";"Ecole primaire";"Savoie";"501 Route De Mont Carmel";"Public";"45.58879043475655";"6.728202900199381"
"Bourg-Saint-Maurice";"Elem";"ce.0730671h@ac-grenoble.fr";"73700";"Ecole primaire Hauteville gondon";"Savoie";"Lieu-Dit Hauteville Gondon";"Public";"45.60529898466726";"6.763570417666454"
"La Plagne Tarentaise";"Elem";"ce.0730708y@ac-grenoble.fr";"73210";"Ecole élémentaire";"Savoie";"Lieu-Dit Valezan";"Public";"45.57432219272181";"6.691220511921659"
"Villargondran";"Elem";"ce.0730730x@ac-grenoble.fr";"73300";"Ecole primaire Les Resses";"Savoie";"Lieu-Dit Les Nouvelles Resses";"Public";"45.26197834394012";"6.380390554122102"
"Saint-Michel-de-Maurienne";"Mater";"ce.0730732z@ac-grenoble.fr";"73140";"Ecole maternelle Le Centre";"Savoie";"4 Rue Des Ecoles";"Public";"45.21865603864742";"6.472519861874692"
"Chambéry";"Mater";"ce.0730826b@ac-grenoble.fr";"73000";"Ecole maternelle de Chantemerle";"Savoie";"142 Chemin Des Gentianes";"Public";"45.58198244099832";"5.9183195278079515"
"Chambéry";"Mater";"ce.0730830f@ac-grenoble.fr";"73000";"Ecole maternelle des Combes";"Savoie";"20 Rue Du Pré De L'Ane";"Public";"45.59141742408528";"5.916839893614342"
"Chambéry";"Elem";"ce.0730843v@ac-grenoble.fr";"73000";"Ecole primaire privée catholique le Bocage";"Savoie";"76 Rue Plaisance";"Privé";"45.56395587978706";"5.928269533116059"
"Chambéry";"Mater";"ce.0730861p@ac-grenoble.fr";"73000";"Ecole maternelle la Grenouillère";"Savoie";"814 Rue Du Pré De L'Ane";"Public";"45.5979902604787";"5.914709831335463"
"Saint-Alban-Leysse";"Elem";"ce.0730921e@ac-grenoble.fr";"73230";"Ecole primaire privée Notre-Dame de la Salette";"Savoie";"119 Impasse De La Salette";"Privé";"45.58289185383885";"5.960589776027876"
"Aime-la-Plagne";"Elem";"ce.0730945f@ac-grenoble.fr";"73210";"Ecole primaire privée le Pavillon";"Savoie";"455 Rue Du Prince";"Privé";"45.55666714075213";"6.646179855911997"
"Albertville";"Mater";"ce.0730953p@ac-grenoble.fr";"73200";"Ecole maternelle Saint Sigismond";"Savoie";"156 Rue Suarez";"Public";"45.67451749213966";"6.378279602316271"
"Chambéry";"Mater";"ce.0730956t@ac-grenoble.fr";"73000";"Ecole maternelle la Pommeraie";"Savoie";"294 Rue De Champagne";"Public";"45.59078329290839";"5.914850544401422"
"La Motte-Servolex";"Elem";"ce.0730969g@ac-grenoble.fr";"73290";"Ecole élémentaire Lamartine";"Savoie";"150 Avenue Charles Albert";"Public";"45.597995158074895";"5.8712705599639605"
"Jongieux";"Elem";"ce.0730972k@ac-grenoble.fr";"73170";"Ecole élémentaire";"Savoie";"940 Route De La Charvaz, Aimavigne";"Public";"45.74068902199274";"5.797450010296571"
"Curienne";"Elem";"ce.0730973l@ac-grenoble.fr";"73190";"Ecole élémentaire";"Savoie";"Lieu-Dit Chef Lieu";"Public";"45.56672501229235";"6.008159539603373"
"Saint-Pierre-d'Entremont";"Elem";"ce.0730974m@ac-grenoble.fr";"73670";"Ecole primaire";"Savoie";"Lieu-Dit Le Bourg";"Public";"45.417322616105004";"5.854460045047751"
"La Plagne Tarentaise";"Elem";"ce.0730975n@ac-grenoble.fr";"73210";"Ecole primaire Le Villard";"Savoie";"Route Le Villard, La Cote D Aime";"Public";"45.55714787558723";"6.686930479633694"
"Val-Cenis";"Mater";"ce.0730979t@ac-grenoble.fr";"73500";"Ecole maternelle TERMIGNON";"Savoie";"Lieu-Dit Chef Lieu";"Public";"45.27659301703007";"6.817110525455069"
"Apremont";"Elem";"ce.0730992g@ac-grenoble.fr";"73190";"Ecole primaire";"Savoie";"Lieu-Dit Le Gaz";"Public";"45.51296919296602";"5.958420238402895"
"Entrelacs";"Elem";"ce.0731015g@ac-grenoble.fr";"73410";"Ecole primaire publique Les Allobroges";"Savoie";"360 Rue Du 8 Mai 1945";"Public";"45.78920176952032";"5.94440400204502"
"Le Bourget-du-Lac";"Elem";"ce.0731018k@ac-grenoble.fr";"73370";"Ecole élémentaire le Chat perché";"Savoie";"Rue Des Ecoles";"Public";"45.64852481389966";"5.858880405045805"
"Saint-André";"Mater";"ce.0731023r@ac-grenoble.fr";"73500";"Ecole maternelle La Praz";"Savoie";"Lieu-Dit La Praz";"Public";"45.204761228186776";"6.5880397198381395"
"La Bridoire";"Elem";"ce.0731035d@ac-grenoble.fr";"73520";"Ecole primaire";"Savoie";"115 Route De L'Ecole, Le Village";"Public";"45.525367821567706";"5.742229824626606"
"Montmélian";"Mater";"ce.0731048t@ac-grenoble.fr";"73800";"Ecole maternelle Jean Rostand";"Savoie";"Rue Edouard Daladier";"Public";"45.50303385058624";"6.056510178608468"
"Val-d'Isère";"Mater";"ce.0731051w@ac-grenoble.fr";"73150";"Ecole maternelle Samivel";"Savoie";"Route De La Balme";"Public";"45.45204894019113";"6.972860598803401"
"Séez";"Mater";"ce.0731070s@ac-grenoble.fr";"73700";"Ecole maternelle les petits pas";"Savoie";"278 Route Du Petit Saint-Bernard";"Public";"45.62083088111892";"6.803679744136699"
"Tignes";"Mater";"ce.0731074w@ac-grenoble.fr";"73320";"Ecole maternelle Michel Barrault";"Savoie";"Montée Du Rosset, Le Lac";"Public";"45.468660373225234";"6.910270357390631"
"Chambéry";"Elem";"ce.0731083f@ac-grenoble.fr";"73000";"Ecole élémentaire publique Simone Veil";"Savoie";"Rue Greyfié De Bellecombe";"Public";"45.571331669279985";"5.930779969807746"
"Grand-Aigueblanche";"Elem";"ce.0731104d@ac-grenoble.fr";"73260";"Ecole élémentaire Bellecombe Tarentaise";"Savoie";"410 Place Saint-Marcel, Aigueblanche";"Public";"45.505022934983295";"6.497627633708341"
"Val-d'Arc";"Mater";"ce.0731108h@ac-grenoble.fr";"73220";"Ecole maternelle du Parc";"Savoie";"Château Rochette, Aiguebelle";"Public";"45.54585788710771";"6.299532169344153"
"Saint-Marcel";"Elem";"ce.0731141u@ac-grenoble.fr";"73600";"Ecole primaire publique du Chat Perché";"Savoie";"Place Du 8 Mai 1945, Pombliere";"Public";"45.49876070929557";"6.559159424213506"
"La Motte-Servolex";"Elem";"ce.0731147a@ac-grenoble.fr";"73290";"Ecole élémentaire du Picolet";"Savoie";"117 Chemin Du Picolet";"Public";"45.595269918587704";"5.873719490066581"
"Courchevel";"Mater";"ce.0731154h@ac-grenoble.fr";"73120";"Ecole maternelle Le Praz";"Savoie";"Le Praz";"Public";"45.432374470979504";"6.623120254457701"
"Voglans";"Mater";"ce.0731157l@ac-grenoble.fr";"73420";"Ecole maternelle";"Savoie";"Chemin De Sonnaz";"Public";"45.63099875753137";"5.8984699666316285"
"Chambéry";"Elem";"ce.0731160p@ac-grenoble.fr";"73000";"Ecole primaire Jacques Prévert";"Savoie";"200 Allée Jacques Prévert, Bissy";"Public";"45.57908492420654";"5.886130161021024"
"Barberaz";"Elem";"ce.0731161r@ac-grenoble.fr";"73000";"Ecole élémentaire de la Concorde";"Savoie";"10 Rue De La Concorde";"Public";"45.567688744146594";"5.949129489864924"
"Mercury";"Mater";"ce.0731208s@ac-grenoble.fr";"73200";"Ecole maternelle Joseph Trolliet";"Savoie";"980 Route De Chevron";"Public";"45.67378074425866";"6.336560109602016"
"Bozel";"Mater";"ce.0731212w@ac-grenoble.fr";"73350";"Ecole maternelle";"Savoie";"58 Rue Des Ecoles";"Public";"45.44361131288954";"6.650379434046457"
"La Ravoire";"Elem";"ce.0731219d@ac-grenoble.fr";"73490";"Ecole élémentaire Pré hibou";"Savoie";"Rue Du Pré Hibou";"Public";"45.561439450319384";"5.9611605959606475"
"La Ravoire";"Elem";"ce.0731221f@ac-grenoble.fr";"73490";"Ecole primaire Vallon fleuri";"Savoie";"Rue Richelieu";"Public";"45.55608382610338";"5.967730456277859"
"Hauteluce";"Elem";"ce.0731242d@ac-grenoble.fr";"73620";"Ecole primaire";"Savoie";"Lieu-Dit Chef-Lieu";"Public";"45.750531751142084";"6.585500115392441"
"Aix-les-Bains";"Elem";"ce.0731243e@ac-grenoble.fr";"73100";"Ecole élémentaire Marlioz";"Savoie";"74 Boulevard De La Roche Du Roi";"Public";"45.67444943112934";"5.913509940326696"
"Notre-Dame-des-Millières";"Elem";"ce.0731262a@ac-grenoble.fr";"73460";"Ecole primaire";"Savoie";"Lieu-Dit Chef-Lieu";"Public";"45.62594628321181";"6.343739416052747"
"Saint-Pierre-de-Curtille";"Elem";"ce.0731263b@ac-grenoble.fr";"73310";"Ecole élémentaire";"Savoie";"Lieu-Dit Chef-Lieu";"Public";"45.776911046089914";"5.8116698158281705"
"Aix-les-Bains";"Elem";"ce.0731281w@ac-grenoble.fr";"73100";"Ecole élémentaire Choudy";"Savoie";"78 Boulevard Pierpont Morgan";"Public";"45.69581678298229";"5.8961600610376985"
"Val-d'Isère";"Elem";"ce.0731283y@ac-grenoble.fr";"73150";"Ecole élémentaire";"Savoie";"Route De La Balme";"Public";"45.45097863438217";"6.97410982399108"
"Novalaise";"Elem";"ce.0731311d@ac-grenoble.fr";"73470";"ECOLE PRIMAIRE PUBLIQUE";"Savoie";"30 Route Du Bief Du Moulin";"Public";"45.596341650546435";"5.773460355204257"
"Aime-la-Plagne";"Elem";"ce.0731313f@ac-grenoble.fr";"73210";"Ecole élémentaire Pierre Borrione";"Savoie";"271 Rue Du Prince";"Public";"45.55685444603993";"6.646879946437576"
"Val-d'Arc";"Elem";"ce.0731314g@ac-grenoble.fr";"73220";"Ecole primaire";"Savoie";"Place De La Mairie, Randens";"Public";"45.544142882798376";"6.310187415124669"
"Courchevel";"Elem";"ce.0731328x@ac-grenoble.fr";"73120";"Ecole élémentaire Le Praz";"Savoie";"Le Praz";"Public";"45.432374470979504";"6.623120254457701"
"Grignon";"Elem";"ce.0731329y@ac-grenoble.fr";"73200";"Ecole élémentaire";"Savoie";"90 Rue Des Ecoles";"Public";"45.64798240999064";"6.371929643719074"
"Saint-Michel-de-Maurienne";"Elem";"ce.0731330z@ac-grenoble.fr";"73140";"Ecole élémentaire";"Savoie";"Avenue De La République";"Public";"45.21754570037878";"6.473329360323371"
"Tours-en-Savoie";"Elem";"ce.0731345r@ac-grenoble.fr";"73790";"Ecole primaire";"Savoie";"50 Montée Des Ecoles";"Public";"45.656228753271";"6.4360701759197125"
"Villaroger";"Elem";"ce.0731346s@ac-grenoble.fr";"73640";"Ecole élémentaire La Gurraz";"Savoie";"Lieu-Dit La Gurraz";"Public";"45.59098926760593";"6.874519574805523"
"Valmeinier";"Elem";"ce.0731350w@ac-grenoble.fr";"73450";"Ecole primaire";"Savoie";"Lieu-Dit Entre Deux Villes, 1067 Rue Du Gros Crey";"Public";"45.18548402895788";"6.4811104630717935"
"La Plagne Tarentaise";"Elem";"ce.0731358e@ac-grenoble.fr";"73210";"Ecole primaire Albert Perrière";"Savoie";"Rue Albert Perriere Macot";"Public";"45.552419647396675";"6.675519968396444"
"Saint-Jean-de-Maurienne";"Elem";"ce.0731366n@ac-grenoble.fr";"73300";"Ecole élémentaire Les Clapeys";"Savoie";"Avenue Samuel Pasquier";"Public";"45.272323703403885";"6.342279414234805"
"Modane";"Elem";"ce.0731401b@ac-grenoble.fr";"73500";"Ecole élémentaire Jules Ferry";"Savoie";"105 Rue Des Ecoles";"Public";"45.20005679353";"6.670130124619962"
"Montagny";"Elem";"ce.0731430h@ac-grenoble.fr";"73350";"Ecole primaire Pierre Béroud";"Savoie";"Lieu-Dit Chef-Lieu";"Public";"45.45597531881639";"6.591090380771275"
"Challes-les-Eaux";"Elem";"ecoledes4saisons@steiner-waldorf.org";"73190";"Ecole primaire privée";"Savoie";"441  Chemin Des Baraques";"Privé";"45.5399056995361";"5.977419422607133"
"Le Reposoir";"Elem";"ce.0740167e@ac-grenoble.fr";"74950";"Ecole primaire publique Pralong LE REPOSOIR";"Haute-Savoie";"48 Chemin De Fréchet, Pralong";"Public";"46.01104686782061";"6.534399786932554"
"Scionzier";"Mater";"ce.0740172k@ac-grenoble.fr";"74950";"Ecole maternelle publique Du Cretet SCIONZIER";"Haute-Savoie";"2 Rue Du Crétet";"Public";"46.05671183844271";"6.552409801103809"
"La Vernaz";"Elem";"ce.0740174m@ac-grenoble.fr";"74200";"Ecole primaire publique LA VERNAZ";"Haute-Savoie";"Chef Lieu";"Public";"46.316697999107284";"6.59503004361948"
"Boëge";"Elem";"ce.0740177r@ac-grenoble.fr";"74420";"Ecole élémentaire publique BOEGE";"Haute-Savoie";"46 Rue De La Menoge";"Public";"46.20756542600084";"6.405889701783961"
"Fessy";"Elem";"ce.0740221n@ac-grenoble.fr";"74890";"Ecole élémentaire publique Bernard Lacroix FESSY";"Haute-Savoie";"236 Rue De L'Eglise";"Public";"46.27641068287296";"6.413866399678754"
"Bernex";"Elem";"ce.0740239h@ac-grenoble.fr";"74500";"Ecole primaire publique BERNEX";"Haute-Savoie";"688 Route Du Télésiège, Langin";"Public";"46.35706784948133";"6.6836802199603245"
"Annecy";"Elem";"ce.0740297w@ac-grenoble.fr";"74000";"Ecole primaire privée La Salle Sainte Marie ANNECY";"Haute-Savoie";"34 Rue Des Alpins";"Privé";"45.91335505936708";"6.125140299985938"
"Marnaz";"Mater";"ce.0740365v@ac-grenoble.fr";"74460";"Ecole maternelle publique MARNAZ";"Haute-Savoie";"13 Avenue De La Libération";"Public";"46.06095744258402";"6.526660645497798"
"Nancy-sur-Cluses";"Elem";"ce.0740366w@ac-grenoble.fr";"74300";"Ecole élémentaire publique NANCY SUR CLUSES";"Haute-Savoie";"219 Rue De La Mairie";"Public";"46.042474796959915";"6.580685178073192"
"Val de Chaise";"Elem";"ce.0740380l@ac-grenoble.fr";"74210";"Ecole primaire publique Marlens VAL-DE-CHAISE";"Haute-Savoie";"Rue De La République";"Public";"45.76627818308713";"6.3470596635765215"
"Annecy";"Elem";"ce.0740408s@ac-grenoble.fr";"74600";"Ecole primaire publique Balmont Seynod ANNECY";"Haute-Savoie";"49 Route De Balmont, Seynod";"Public";"45.832574276515935";"6.0566096904256295"
"Chapeiry";"Elem";"ce.0740410u@ac-grenoble.fr";"74540";"Ecole primaire publique CHAPEIRY";"Haute-Savoie";"49 Chemin Des Ecoliers";"Public";"45.84505886993178";"6.034394655798923"
"Gruffy";"Elem";"ce.0740413x@ac-grenoble.fr";"74540";"Ecole élémentaire publique Georges Duffaud GRUFFY";"Haute-Savoie";"Chef Lieu";"Public";"45.78832093133512";"6.056269811313611"
"Mûres";"Elem";"ce.0740415z@ac-grenoble.fr";"74540";"Ecole élémentaire publique Jacques Prévert MURES";"Haute-Savoie";"Chef Lieu";"Public";"45.80560908238515";"6.03881025794474"
"Saint-Sylvestre";"Elem";"ce.0740417b@ac-grenoble.fr";"74540";"Ecole élémentaire publique ST SYLVESTRE";"Haute-Savoie";"Chef Lieu";"Public";"45.8368534443479";"6.019079730911385"
"Viuz-la-Chiésaz";"Elem";"ce.0740418c@ac-grenoble.fr";"74540";"Ecole primaire publique VIUZ-LA-CHIESAZ";"Haute-Savoie";"Chef Lieu";"Public";"45.81013703148693";"6.061829582967798"
"Argonay";"Elem";"ce.0740430r@ac-grenoble.fr";"74370";"Ecole élémentaire publique ARGONAY";"Haute-Savoie";"90 Route De L'Avenir";"Public";"45.94110223815958";"6.144710474143851"
"Epagny Metz-Tessy";"Elem";"ce.0740442d@ac-grenoble.fr";"74330";"Ecole primaire publique La Tuilerie Epagny EPAGNY-METZ TESSY";"Haute-Savoie";"Rue De La Tuilerie, Epagny";"Public";"45.93694991999271";"6.087709883286603"
"Menthon-Saint-Bernard";"Elem";"ce.0740444f@ac-grenoble.fr";"74290";"Ecole primaire publique Clos Chevalier MENTHON ST BERNARD";"Haute-Savoie";"170 Route Des Côtes";"Public";"45.86187663152148";"6.20040000428147"
"Chavanod";"Elem";"ce.0740488d@ac-grenoble.fr";"74650";"Ecole primaire publique CHAVANOD";"Haute-Savoie";"43 Route Du Crêt D'Esty";"Public";"45.88396208420827";"6.0516204967715"
"Annecy";"Mater";"ce.0740491g@ac-grenoble.fr";"74960";"Ecole maternelle publique l'Arlequin Cran-Gevrier ANNECY";"Haute-Savoie";"8 Rue Claudius Chappaz, Cran Gevrier";"Public";"45.9085987770833";"6.108099506776833"
"Annemasse";"Mater";"ce.0740529y@ac-grenoble.fr";"74100";"ECOLE MATERNELLE PUBLIQUE";"Haute-Savoie";"14 Rue Du18 Août";"Public";"46.1943334626215";"6.250440198661808"
"Ville-la-Grand";"Mater";"ce.0740557d@ac-grenoble.fr";"74100";"Ecole maternelle publique Les Pottières VILLE-LA-GRAND";"Haute-Savoie";"3 Rue De La Pottière";"Public";"46.199104018040664";"6.257513783303045"
"Bonneville";"Mater";"ce.0740573w@ac-grenoble.fr";"74130";"Ecole maternelle publique Bois Jolivet BONNEVILLE";"Haute-Savoie";"469 Rue D'Andey";"Public";"46.078311729275484";"6.403069780389789"
"Bonneville";"Elem";"ce.0740577a@ac-grenoble.fr";"74130";"Ecole primaire publique Pontchy Dessy BONNEVILLE";"Haute-Savoie";"515 Avenue De Pontchy";"Public";"46.06791407130211";"6.406249456670778"
"Saint-Gervais-les-Bains";"Elem";"ce.0740611m@ac-grenoble.fr";"74170";"Ecole primaire publique Le Fayet ST GERVAIS LES BAINS";"Haute-Savoie";"422 Avenue De Genève, Le Fayet";"Public";"45.905294406413915";"6.699029458854217"
"Passy";"Elem";"ce.0740622z@ac-grenoble.fr";"74190";"Ecole primaire publique L'Abbaye PASSY";"Haute-Savoie";"62 Rue Du Lycée, Le Fayet";"Public";"45.90626011132462";"6.706810004027907"
"Viuz-en-Sallaz";"Elem";"ce.0740651f@ac-grenoble.fr";"74250";"Ecole élémentaire publique Boisinges VIUZ-EN-SALLAZ";"Haute-Savoie";"20 Allée Des Ecoliers, Boisinges";"Public";"46.15136522886293";"6.382280015644982"
"Pers-Jussy";"Elem";"ce.0740658n@ac-grenoble.fr";"74930";"Ecole élémentaire publique Les Roguets PERS JUSSY";"Haute-Savoie";"2715 Route De La Chapelle Rambaud, Les Roguets";"Public";"46.0908236820586";"6.249159815067708"
"La Roche-sur-Foron";"Elem";"ce.0740661s@ac-grenoble.fr";"74800";"Ecole élémentaire publique Mallinjoud LA ROCHE SUR FORON";"Haute-Savoie";"49 Rue De La Gare";"Public";"46.06617845962382";"6.306719389489497"
"La Roche-sur-Foron";"Mater";"ce.0740662t@ac-grenoble.fr";"74800";"Ecole maternelle publique Vaulet LA ROCHE SUR FORON";"Haute-Savoie";"123 Rue Bernard Vaulet";"Public";"46.064986785463454";"6.3065401902804235"
"Rumilly";"Mater";"ce.0740686u@ac-grenoble.fr";"74150";"Ecole maternelle publique Centre RUMILLY";"Haute-Savoie";"2 Rue Pierre Salteur";"Public";"45.86653919202944";"5.945409774154705"
"Boussy";"Elem";"ce.0740690y@ac-grenoble.fr";"74150";"Ecole élémentaire publique BOUSSY";"Haute-Savoie";"Chef Lieu";"Public";"45.85604188775247";"5.98328956472805"
"Saint-Julien-en-Genevois";"Elem";"ce.0740706r@ac-grenoble.fr";"74160";"Ecole élémentaire publique Thairy ST JULIEN EN GENEVOIS";"Haute-Savoie";"33 Rue Louis Martel";"Public";"46.143184718263846";"6.062929834327879"
"Chênex";"Elem";"ce.0740715a@ac-grenoble.fr";"74520";"Ecole primaire publique CHENEX";"Haute-Savoie";"87 Route De L'Eglise";"Public";"46.104722831588695";"5.9938895892898465"
"Collonges-sous-Salève";"Elem";"ce.0740717c@ac-grenoble.fr";"74160";"Ecole primaire publique Charles Perrault COLLONGES SOUS SALEVE";"Haute-Savoie";"Route De Bossey";"Public";"46.14168769337153";"6.146609556503412"
"Feigères";"Elem";"ce.0740722h@ac-grenoble.fr";"74160";"Ecole primaire publique Edouard Vuagnat FEIGERES";"Haute-Savoie";"250 Chemin De L'Ecole";"Public";"46.11012494277074";"6.077570037697407"
"Savigny";"Elem";"ce.0740727n@ac-grenoble.fr";"74520";"Ecole primaire publique SAVIGNY";"Haute-Savoie";"Chef Lieu";"Public";"46.06840279442711";"5.960759994596214"
"Combloux";"Elem";"ce.0740739b@ac-grenoble.fr";"74920";"Ecole primaire publique COMBLOUX";"Haute-Savoie";"132 Route De La Mairie";"Public";"45.896909326086394";"6.641670323298448"
"Morillon";"Elem";"ce.0740759y@ac-grenoble.fr";"74440";"Ecole primaire publique Annie Bettex MORILLON";"Haute-Savoie";"5 Place De La Mairie, Chef Lieu";"Public";"46.08344046312567";"6.676441600476376"
"Mieussy";"Elem";"ce.0740785b@ac-grenoble.fr";"74440";"Ecole primaire publique Justinien Raymond MIEUSSY";"Haute-Savoie";"200 Rue Des Ecoles";"Public";"46.13248692991784";"6.524489681200496"
"Thonon-les-Bains";"Mater";"ce.0740806z@ac-grenoble.fr";"74200";"Ecole maternelle publique La Source THONON-LES-BAINS";"Haute-Savoie";"Avenue De Senevulaz";"Public";"46.35779290450504";"6.470399871956718"
"Thônes";"Elem";"ce.0740833d@ac-grenoble.fr";"74230";"Ecole élémentaire publique De Glapigny THONES";"Haute-Savoie";"Route De Glapigny";"Public";"45.89202238643155";"6.3488799493706995"
"Thônes";"Elem";"ce.0740835f@ac-grenoble.fr";"74230";"Ecole élémentaire publique De La Vacherie THONES";"Haute-Savoie";"4 Rue Du Père François Avrillon, La Vacherie";"Public";"45.900423260787235";"6.3491594914087335"
"Le Grand-Bornand";"Elem";"ce.0740841m@ac-grenoble.fr";"74450";"Ecole primaire publique LA PLACE LE GRAND BORNAND";"Haute-Savoie";"20 Impasse Du Bargy, Le Chinaillon";"Public";"45.96630509543173";"6.443779409967395"
"Serraval";"Elem";"ce.0740843p@ac-grenoble.fr";"74230";"Ecole primaire publique SERRAVAL";"Haute-Savoie";"Chef Lieu";"Public";"45.80141688711985";"6.339859595552586"
"Allinges";"Elem";"ce.0740862k@ac-grenoble.fr";"74200";"Ecole primaire publique Joseph Dessaix ALLINGES";"Haute-Savoie";"80 Rue Des Marmousets";"Public";"46.34077927176288";"6.480119999392436"
"Cervens";"Elem";"ce.0740868s@ac-grenoble.fr";"74550";"Ecole élémentaire publique Albert Boccagny CERVENS";"Haute-Savoie";"Chef Lieu";"Public";"46.284746057380616";"6.438570080589419"
"Lullin";"Elem";"ce.0740870u@ac-grenoble.fr";"74470";"Ecole élémentaire publique LULLIN";"Haute-Savoie";"Chef Lieu";"Public";"46.28447407802493";"6.522160104625752"
"Reyvroz";"Elem";"ce.0740880e@ac-grenoble.fr";"74200";"Ecole élémentaire publique REYVROZ";"Haute-Savoie";"1173 Route De Thonon";"Public";"46.324494617802124";"6.565194400879355"
"Groisy";"Elem";"ce.0740899a@ac-grenoble.fr";"74570";"Ecole primaire publique Le Chamois  GROISY";"Haute-Savoie";"233 Chemin De Belle-Vue";"Public";"46.018508642182745";"6.169740507635783"
"Villaz";"Elem";"ce.0740904f@ac-grenoble.fr";"74370";"Ecole primaire publique VILLAZ";"Haute-Savoie";"79 Avenue De Bonatrait";"Public";"45.9513966871479";"6.1911893410315635"
"Douvaine";"Elem";"ce.0740939u@ac-grenoble.fr";"74140";"Ecole élémentaire publique DOUVAINE";"Haute-Savoie";"Chemin De Voinier";"Public";"46.30417570598841";"6.304000004543689"
"Thonon-les-Bains";"Elem";"ce.0740943y@ac-grenoble.fr";"74200";"Ecole primaire publique Jules Ferry THONON-LES-BAINS";"Haute-Savoie";"20 Boulevard Jules Ferry";"Public";"46.37322764314099";"6.484369924745381"
"Annecy";"Elem";"ce.0740944z@ac-grenoble.fr";"74000";"Ecole primaire privée Les Tilleuls ANNECY";"Haute-Savoie";"60 Avenue Gambetta";"Privé";"45.9110677129471";"6.134779819503226"
"Annemasse";"Elem";"ce.0741007t@ac-grenoble.fr";"74100";"Ecole primaire privée La Chamarette ANNEMASSE";"Haute-Savoie";"1 Impasse De La Chamarette";"Privé";"46.18911577555011";"6.2325397402188925"
"Abondance";"Elem";"ce.0741013z@ac-grenoble.fr";"74360";"Ecole primaire privée Saint Maurice ABONDANCE";"Haute-Savoie";"32 Route De Charmy L'Adroit";"Privé";"46.27838178876747";"6.722600169976729"
"Evian-les-Bains";"Elem";"ce.0741024l@ac-grenoble.fr";"74500";"Ecole primaire privée Saint Bruno EVIAN";"Haute-Savoie";"6 Avenue Des Vallées";"Privé";"46.399345773165656";"6.585409810070841"
"Samoëns";"Elem";"ce.0741056w@ac-grenoble.fr";"74340";"Ecole primaire privée de l'Assomption SAMOENS";"Haute-Savoie";"27 Chemin De La Cour, Le Bourg";"Privé";"46.082735704330695";"6.725899723423407"
"Evian-les-Bains";"Elem";"ce.0741077u@ac-grenoble.fr";"74500";"Ecole élémentaire publique Centre EVIAN LES BAINS";"Haute-Savoie";"Rue Commandant Madelaine";"Public";"46.399918091648196";"6.589710522677191"
"Poisy";"Elem";"ce.0741083a@ac-grenoble.fr";"74330";"Ecole primaire publique Chef Lieu POISY";"Haute-Savoie";"86 Route D'Annecy";"Public";"45.92097973520754";"6.06237029876103"
"Annecy";"Elem";"ce.0741109d@ac-grenoble.fr";"74600";"Ecole primaire publique Barral Seynod ANNECY";"Haute-Savoie";"Rue De L'Orme, Seynod";"Public";"45.89136064950109";"6.11232957462918"
"Reignier-Esery";"Elem";"ce.0741135g@ac-grenoble.fr";"74930";"Ecole primaire publique La Rose des Vents REIGNIER";"Haute-Savoie";"213 Rue Des Perce Neige";"Public";"46.137941866715025";"6.276820430177849"
"Sevrier";"Elem";"ce.0741149x@ac-grenoble.fr";"74320";"Ecole primaire publique Henri Gour SEVRIER";"Haute-Savoie";"2000 Route D'Albertville";"Public";"45.865186807313";"6.1392505887079265"
"Etrembières";"Elem";"ce.0741162l@ac-grenoble.fr";"74100";"Ecole primaire publique Jean-Jacques Rousseau ETREMBIERES";"Haute-Savoie";"197 Rue Des Chamois";"Public";"46.16368171530054";"6.187680588213049"
"Thonon-les-Bains";"Elem";"ce.0741190s@ac-grenoble.fr";"74200";"Ecole élémentaire publique Le Chatelard THONON-LES-BAINS";"Haute-Savoie";"Avenue Du Chatelard";"Public";"46.37266821064466";"6.494990048253277"
"Annemasse";"Elem";"ce.0741265y@ac-grenoble.fr";"74100";"Ecole primaire publique Bois Livron ANNEMASSE";"Haute-Savoie";"2 Rue Albert Curioz";"Public";"46.18560234318145";"6.246620105464431"
"La Balme-de-Sillingy";"Mater";"ce.0741266z@ac-grenoble.fr";"74330";"Ecole maternelle publique Le Marais LA BALME DE SILLINGY";"Haute-Savoie";"Rue Collé Umberto, Chef Lieu";"Public";"45.9610456637993";"6.039410122215591"
"Saint-Pierre-en-Faucigny";"Elem";"ce.0741303p@ac-grenoble.fr";"74800";"Ecole primaire publique du Centre ST-PIERRE-EN-FAUCIGNY";"Haute-Savoie";"55 Rue De L'Espérance";"Public";"46.06071241343359";"6.36788041776707"
"Gruffy";"Mater";"ce.0741347m@ac-grenoble.fr";"74540";"Ecole maternelle publique Intercommunale GRUFFY";"Haute-Savoie";"Chef Lieu";"Public";"45.78897713209182";"6.0565302700880626"
"Chens-sur-Léman";"Elem";"ce.0741367j@ac-grenoble.fr";"74140";"Ecole primaire publique Le Vernet CHENS SUR LEMAN";"Haute-Savoie";"1033 Rue Du Léman";"Public";"46.32512342386194";"6.267799633703457"
"Ayse";"Mater";"ce.0741372p@ac-grenoble.fr";"74130";"Ecole maternelle publique Clos Chaboud AYSE";"Haute-Savoie";"129 Route De Chez Jeandet";"Public";"46.082854126105914";"6.4432405011740235"
"Alby-sur-Chéran";"Mater";"ce.0741382a@ac-grenoble.fr";"74540";"ECOLE MATERNELLE PUBLIQUE ALBY SUR CHERAN";"Haute-Savoie";"18 Chemin Du Champ Du Poirier";"Public";"45.8175501869076";"6.0147540679254305"
"Annecy";"Elem";"ce.0741383b@ac-grenoble.fr";"74000";"Ecole primaire publique Novel ANNECY";"Haute-Savoie";"70 Ter Avenue De France, Annecy";"Public";"45.91632080496949";"6.134780503674252"
"Saint-Julien-en-Genevois";"Elem";"ce.0741459j@ac-grenoble.fr";"74160";"Ecole primaire publique Puy St Martin ST JULIEN EN GENEVOIS";"Haute-Savoie";"14 Avenue Napoléon Iii";"Public";"46.14729214022716";"6.090769410240757"
"Vailly";"Mater";"ce.0741464p@ac-grenoble.fr";"74470";"Ecole maternelle publique Du Val d'Hermone VAILLY";"Haute-Savoie";"893 Route Du Val D'Hermone, Pimberty";"Public";"46.29750792801505";"6.531790324278186"
"Evian-les-Bains";"Elem";"ce.0741506k@ac-grenoble.fr";"74500";"Ecole primaire publique Les Hauts d'Evian EVIAN LES BAINS";"Haute-Savoie";"Route De L'X, Chez Bruchon";"Public";"46.38969391495293";"6.577939647227512"
"Saint-Eustache";"Mater";"ce.0741537u@ac-grenoble.fr";"74410";"Ecole maternelle publique ST EUSTACHE";"Haute-Savoie";"Chef Lieu";"Public";"45.79606674866519";"6.148840077991222"
"Beaumont";"Mater";"ce.0741563x@ac-grenoble.fr";"74160";"Ecole maternelle publique Beaupre BEAUMONT";"Haute-Savoie";"135 Rue De Beaupré";"Public";"46.096672242282935";"6.100273879022947"
"Annemasse";"Elem";"ce.0741697t@ac-grenoble.fr";"74100";"Ecole primaire publique St Exupery ANNEMASSE";"Haute-Savoie";"Rue Naly";"Public";"46.194655937055494";"6.230090563027266"
"Cranves-Sales";"Elem";"ce.0741749z@ac-grenoble.fr";"74380";"Ecole primaire publique Les Sources CRANVES SALES";"Haute-Savoie";"751 Route Des Picolettes";"Public";"46.190640262724145";"6.288930607034925"
"Excenevex";"Elem";"ce.0741763p@ac-grenoble.fr";"74140";"Ecole élémentaire publique Marcel Forax EXCENEVEX";"Haute-Savoie";"104 Rue Des Ecoles";"Public";"46.35442643407264";"6.352729929009134"
"Thonon-les-Bains";"Elem";"ce.0741773a@ac-grenoble.fr";"74200";"Ecole élémentaire privée The international school of Haute-Savoie";"Haute-Savoie";"40 Bis Avenue Des Vallées";"Privé";"46.370851119446485";"6.487866930501039"
"Meyzieu";"Elem";"ce.0694273v@ac-lyon.fr";"69330";"Ecole primaire Apprentis'sages";"Rhône";"5 Chemin Du Gravier Blanc";"Privé";"45.78366535430877";"5.004747180777189"
"Saint-Cyr-au-Mont-d'Or";"Elem";"ce.0694318u@ac-lyon.fr";"69450";"Ecole primaire privée L'Envolée";"Rhône";"611 Route Du Mont Thou";"Privé";"45.83121425787424";"4.806918158227055"
"Saint-Georges-de-Reneins";"Elem";"ce.0694247@ac-lyon.fr";"69830";"Ecole primaire Ozanam du Beaujolais - Val de Saône";"Rhône";"180 Place De L'Eglise";"Privé";"46.06363605656409";"4.723898233403298"
"Montrottier";"Elem";"ce.0691906x@ac-lyon.fr";"69770";"Ecole primaire privée Saint Joseph";"Rhône";"Rue De La Dime";"Privé";"45.79136332995762";"4.46693759183847"
"Soucieu-en-Jarrest";"Elem";"ce.0691923r@ac-lyon.fr";"69510";"Ecole primaire privée Saint Julien";"Rhône";"3 Rue Abbé Deflotrière";"Privé";"45.68058107585644";"4.704333265721149"
"Lyon 5e  Arrondissement";"Elem";"ce.0691963j@ac-lyon.fr";"69322";"Ecole primaire privée Notre Dame des Minimes";"Rhône";"63 Rue Des Aqueducs";"Privé";"45.75922870196038";"4.790170116679849"
"Lyon 5e  Arrondissement";"Elem";"ce.0691964k@ac-lyon.fr";"69322";"Ecole primaire privée La Favorite";"Rhône";"25 Avenue Du Point Du Jour";"Privé";"45.756048721855876";"4.805285360473799"
"Lyon 8e  Arrondissement";"Elem";"ce.0691970s@ac-lyon.fr";"69008";"Ecole primaire privée Pierre Termier";"Rhône";"20 Rue Des Alouettes";"Privé";"45.74145377007498";"4.872802131574731"
"Lyon 4e  Arrondissement";"Elem";"ce.0691995u@ac-lyon.fr";"69004";"Ecole primaire privée Charles Demia";"Rhône";"112 Rue Hénon";"Privé";"45.77969209767815";"4.817835486613939"
"Lyon 6e  Arrondissement";"Elem";"ce.0692003c@ac-lyon.fr";"69006";"Ecole primaire privée Notre Dame de Bellecombe";"Rhône";"64 Rue D'Inkermann";"Privé";"45.76602028667251";"4.865754517878065"
"Vindry-sur-Turdine";"Elem";"ce.0692081m@ac-lyon.fr";"69490";"Ecole primaire privée Sainte Eva";"Rhône";"Place De L'Eglise, Les Olmes";"Privé";"45.90327849518181";"4.491870378371758"
"Saint-Vincent-de-Reins";"Elem";"ce.0692087u@ac-lyon.fr";"69240";"Ecole primaire privée Champagnat";"Rhône";"2 Chemin De Champagnat";"Privé";"46.07440832914876";"4.3896506943444695"
"Tassin-la-Demi-Lune";"Elem";"ce.0692123h@ac-lyon.fr";"69160";"Ecole primaire privée Saint Claude";"Rhône";"62 Avenue Du 8 Mai 1945";"Privé";"45.76102004247998";"4.76128955986341"
"Thurins";"Elem";"ce.0692124j@ac-lyon.fr";"69510";"Ecole primaire privée Les Chemins de Saint Jacques";"Rhône";"8 Route D'Yzeron";"Privé";"45.68293293788111";"4.638341629788015"
"Villeurbanne";"Elem";"ce.0692133u@ac-lyon.fr";"69100";"Ecole primaire privée Mère Teresa";"Rhône";"37 Rue Gervais Bussière";"Privé";"45.77374385127976";"4.8699064912450245"
"Collonges-au-Mont-d'Or";"Elem";"ce.0692140b@ac-lyon.fr";"69660";"Ecole primaire privée Jeanne d'Arc";"Rhône";"2 Allée Du Colombier, Bp 55";"Privé";"45.824114281448836";"4.840686164556944"
"Feyzin";"Elem";"ce.0692177s@ac-lyon.fr";"69320";"Ecole primaire privée Saint Roch";"Rhône";"6 Rue De La Garenne";"Privé";"45.66760601864764";"4.85647108998435"
"Saint-Symphorien-d'Ozon";"Elem";"ce.0692331j@ac-lyon.fr";"69360";"Ecole primaire privée Saint Claude La Colombière";"Rhône";"1 Rue Du Parc";"Privé";"45.635456604707294";"4.8536074564380645"
"Le Bouchet-Saint-Nicolas";"Elem";"ce.0430226m@ac-clermont.fr";"43510";"Ecole élémentaire";"Haute-Loire";"Le Bourg";"Public";"44.890262463436976";"3.790110129224277"
"Séneujols";"Elem";"ce.0430258x@ac-clermont.fr";"43510";"Ecole Elémentaire";"Haute-Loire";"Le Bourg";"Public";"44.95810885909074";"3.7834396091138607"
"Lélex";"Elem";"ce.0010106k@ac-lyon.fr";"01410";"Ecole élémentaire";"Ain";"111 Rue Des Lapidaires";"Public";"46.30306820759449";"5.940690673007854"
"Saint-Genis-Pouilly";"Elem";"ce.0010116w@ac-lyon.fr";"01630";"Ecole primaire Prégnin";"Ain";"61 Rue Du Fierney";"Public";"46.266838624857314";"6.037470248860145"
"Crozet";"Elem";"ce.0010131m@ac-lyon.fr";"01170";"Ecole primaire Les Chardons Bleus";"Ain";"Chemin Du Croux";"Public";"46.278569427087014";"6.015485608582719"
"Martignat";"Elem";"ce.0010139w@ac-lyon.fr";"01100";"ECOLE ELEMENTAIRE PUBLIQUE";"Ain";"Rue Des Ecoles";"Public";"46.208321588057046";"5.6116301678020335"
"Oyonnax";"Elem";"ce.0010141y@ac-lyon.fr";"01100";"Ecole primaire";"Ain";"Rue Louis Pergaud, Veyziat";"Public";"46.268199401130644";"5.629199740491587"
"Charix";"Elem";"ce.0010145c@ac-lyon.fr";"01130";"Ecole élémentaire";"Ain";"Village Village D'En Bas";"Public";"46.182862614475376";"5.685279558845827"
"Béard-Géovreissiat";"Elem";"ce.0010146d@ac-lyon.fr";"01460";"Ecole primaire";"Ain";"16 Impasse De L'Ecole";"Public";"46.188703238072726";"5.546619443035713"
"Les Neyrolles";"Elem";"ce.0010154m@ac-lyon.fr";"01130";"Ecole primaire";"Ain";"Rue De La Devy";"Public";"46.140929646335586";"5.63288061189032"
"Oyonnax";"Elem";"ce.0010158s@ac-lyon.fr";"01100";"Ecole primaire";"Ain";"87 Rue De Geilles";"Public";"46.24171906030472";"5.66711708510412"
"Oyonnax";"Elem";"ce.0010183u@ac-lyon.fr";"01100";"Ecole élémentaire Pasteur Sud";"Ain";"8 Rue Molière";"Public";"46.25860761574815";"5.649089520835831"
"Oyonnax";"Mater";"ce.0010187y@ac-lyon.fr";"01100";"Ecole maternelle Simone Veil";"Ain";"9 Rue Du Maquis";"Public";"46.2616554202291";"5.660030507703662"
"Oyonnax";"Mater";"ce.0010188z@ac-lyon.fr";"01100";"Ecole maternelle Centre";"Ain";"17 Rue Michelet";"Public";"46.25965169020715";"5.654780147141328"
"Bourg-en-Bresse";"Elem";"ce.0010193e@ac-lyon.fr";"01000";"Ecole primaire Lazare Carnot";"Ain";"1 Rue Viala";"Public";"46.20019012307069";"5.231090036354298"
"Plateau d'Hauteville";"Elem";"ce.0010207v@ac-lyon.fr";"01110";"Ecole élémentaire de Thézillieu";"Ain";"Route De L'Eglise, Thezillieu";"Public";"45.97723865238977";"5.603417786838033"
"Artemare";"Elem";"ce.0010228t@ac-lyon.fr";"01510";"Ecole élémentaire";"Ain";"Rue Des Ecoles";"Public";"45.8753510882782";"5.694700038890823"
"Trévoux";"Elem";"ce.0010239e@ac-lyon.fr";"01600";"Ecole élémentaire Béluizon";"Ain";"730 Chemin Des Corbettes";"Public";"45.947622413760044";"4.76601381152571"
"Trévoux";"Elem";"ce.0010240f@ac-lyon.fr";"01600";"GROUPE SCOLAIRE DU FIL D'OR";"Ain";"170 Avenue  Guigue";"Public";"45.93820118449117";"4.791323617698652"
"Villars-les-Dombes";"Elem";"ce.0010259b@ac-lyon.fr";"01330";"ECOLE SIMONE VEIL";"Ain";"Place De Verdun";"Public";"46.00064801716953";"5.029359789917609"
"Monthieux";"Elem";"ce.0010264g@ac-lyon.fr";"01390";"Ecole primaire";"Ain";"Village";"Public";"45.956730660370546";"4.940089646674852"
"Bourg-en-Bresse";"Elem";"ce.0010270n@ac-lyon.fr";"01000";"Ecole primaire privée Notre-Dame";"Ain";"8 Rue De Varenne";"Privé";"46.20344014055524";"5.228069598662691"
"Chevry";"Elem";"ce.0010297t@ac-lyon.fr";"01170";"Ecole primaire privée Sainte Marie";"Ain";"Route De Saint Maurice";"Privé";"46.28205088190026";"6.043709835717848"
"Dagneux";"Elem";"ce.0010299v@ac-lyon.fr";"01120";"Ecole primaire privée Saint Louis";"Ain";"Rue Du Pensionnat";"Privé";"45.851435159436306";"5.06793999670826"
"Perrex";"Elem";"ce.0010312j@ac-lyon.fr";"01540";"Ecole primaire";"Ain";"67 Grande Rue";"Public";"46.24400169897304";"4.979589766030886"
"Pont-de-Veyle";"Elem";"ce.0010329c@ac-lyon.fr";"01290";"Ecole primaire";"Ain";"10 Rue De Jouvancy";"Public";"46.26088316882192";"4.882248049251974"
"Laiz";"Elem";"ce.0010339n@ac-lyon.fr";"01290";"Ecole primaire";"Ain";"Le Bourg";"Public";"46.24799268738165";"4.890619401259847"
"Tramoyes";"Elem";"ce.0010384m@ac-lyon.fr";"01390";"Ecole primaire Robert Doisneau";"Ain";"59 Rue Du Marquis De Sallmard";"Public";"45.874967908082155";"4.964100636968224"
"Bâgé-le-Châtel";"Elem";"ce.0010386p@ac-lyon.fr";"01380";"Ecole primaire";"Ain";"La Gripiniere";"Public";"46.310333327097496";"4.929630054426719"
"Saint-Jean-de-Thurigneux";"Elem";"ce.0010389t@ac-lyon.fr";"01390";"Ecole primaire";"Ain";"Le Village";"Public";"45.95139585267249";"4.882240543024966"
"Chézery-Forens";"Elem";"ce.0010390u@ac-lyon.fr";"01410";"Ecole primaire";"Ain";"Chef Lieu";"Public";"46.22304663016469";"5.868299630114306"
"Pougny";"Elem";"ce.0010400e@ac-lyon.fr";"01550";"Ecole primaire";"Ain";"130 Rue Mairie";"Public";"46.13937511911978";"5.952180519701442"
"Condamine";"Elem";"ce.0010406l@ac-lyon.fr";"01430";"ECOLE ELEMENTAIRE PUBLIQUE";"Ain";"3 Rue De La Croix - Rousse";"Public";"46.107131596831735";"5.5507139079260766"
"Haut Valromey";"Elem";"ce.0010409p@ac-lyon.fr";"01260";"Ecole primaire";"Ain";"10 Rue De La Croix, Hotonnes";"Public";"45.99725321301951";"5.692658558500406"
"Châtillon-la-Palud";"Elem";"ce.0010457s@ac-lyon.fr";"01320";"Ecole primaire La Pépinière";"Ain";"244 Route De Gévrieux, Chatillon Le Bas";"Public";"45.97280384494577";"5.2549339041279515"
"Lagnieu";"Elem";"ce.0010466b@ac-lyon.fr";"01150";"Ecole élémentaire Les Charmettes";"Ain";"161 Rue Des Charmettes";"Public";"45.90578510831716";"5.345550282327128"
"Lagnieu";"Mater";"ce.0010467c@ac-lyon.fr";"01150";"Ecole maternelle Centre";"Ain";"12 Rue Des Ecoles";"Public";"45.9048650117024";"5.347040301167275"
"Ambutrix";"Elem";"ce.0010469e@ac-lyon.fr";"01500";"Ecole primaire";"Ain";"9 Rue De Ternant";"Public";"45.93907570833771";"5.339109542141703"
"Montluel";"Elem";"ce.0010491d@ac-lyon.fr";"01120";"Ecole élémentaire Alphonse Daudet";"Ain";"Route De Jailleux";"Public";"45.85422815879162";"5.056660362383368"
"Montluel";"Mater";"ce.0010494g@ac-lyon.fr";"01120";"Ecole Maternelle";"Ain";"88 Chemin De L'École, Jailleux";"Public";"45.87302238088565";"5.042754374661602"
"La Boisse";"Elem";"ce.0010505u@ac-lyon.fr";"01120";"ECOLE ELEMENTAIRE BRUNET";"Ain";"277 Rue Joseph Guinet";"Public";"45.842755201106435";"5.035398310389859"
"Faramans";"Elem";"ce.0010513c@ac-lyon.fr";"01800";"ECOLE MARLIEN";"Ain";"Le Bourg";"Public";"45.90483512799882";"5.125820209691626"
"Villieu-Loyes-Mollon";"Mater";"ce.0010518h@ac-lyon.fr";"01800";"Ecole maternelle publique du Toison";"Ain";"Rue Des Ecoles, Loyes";"Public";"45.92168829642578";"5.225039464711293"
"Meximieux";"Elem";"ce.0010521l@ac-lyon.fr";"01800";"Ecole élémentaire Le Ménel";"Ain";"1254 Rue Docteur Berthier";"Public";"45.91167400423659";"5.191754684841479"
"Pérouges";"Elem";"ce.0010527t@ac-lyon.fr";"01800";"Ecole élémentaire";"Ain";"253 Route De Péage";"Public";"45.899451638460064";"5.180981528655882"
"Billiat";"Elem";"ce.0010590l@ac-lyon.fr";"01200";"Ecole primaire";"Ain";"Place De La Mairie";"Public";"46.07847039974457";"5.78392025934602"
"Saint-Germain-de-Joux";"Elem";"ce.0010602z@ac-lyon.fr";"01130";"Ecole primaire";"Ain";"Chef Lieu";"Public";"46.17849285855625";"5.737869544780199"
"Valserhône";"Elem";"ce.0010605c@ac-lyon.fr";"01200";"Ecole primaire";"Ain";"510 Rue Du Mont Blanc, Chatillon En Michaille";"Public";"46.11250565315069";"5.783372604425534"
"Belley";"Mater";"ce.0010608f@ac-lyon.fr";"01300";"Ecole maternelle";"Ain";"4 Rue Des Cordeliers";"Public";"45.75930380106959";"5.686699857019948"
"Brégnier-Cordon";"Elem";"ce.0010613l@ac-lyon.fr";"01300";"Ecole primaire du Lynx";"Ain";"812 Rue De La Mairie, Bregnier Village";"Public";"45.647439483302406";"5.619852753705396"
"Cressin-Rochefort";"Elem";"ce.0010616p@ac-lyon.fr";"01350";"ECOLE ELEMENTAIRE PUBLIQUE";"Ain";"Place Mairie";"Public";"45.78438584318793";"5.76528019784755"
"Massignieu-de-Rives";"Elem";"ce.0010620u@ac-lyon.fr";"01300";"Ecole primaire";"Ain";"Place De La Fontaine";"Public";"45.75430006937662";"5.767079893268013"
"L'Abergement-Clémenciat";"Elem";"ce.0010670y@ac-lyon.fr";"01400";"Ecole primaire";"Ain";"80 Route De La Fontaine, Au Pont Du Village";"Public";"46.150675701924484";"4.919992224653276"
"Biziat";"Elem";"ce.0010671z@ac-lyon.fr";"01290";"Ecole élémentaire";"Ain";"A Route Des Rutets, Le Bourg";"Public";"46.20127624841826";"4.939419922729102"
"Saint-André-le-Bouchoux";"Mater";"ce.0010682l@ac-lyon.fr";"01240";"Ecole maternelle";"Ain";"Le Village";"Public";"46.117046827590706";"5.07821032594493"
"Béréziat";"Elem";"ce.0010709r@ac-lyon.fr";"01340";"Ecole élémentaire";"Ain";"58 Place De L'École, Le Bourg";"Public";"46.36746804508038";"5.046615496412656"
"Curtafond";"Elem";"ce.0010714w@ac-lyon.fr";"01310";"Ecole élémentaire";"Ain";"Le Village";"Public";"46.27022724485295";"5.090649688636098"
"Bresse Vallons";"Elem";"ce.0010715x@ac-lyon.fr";"01340";"Ecole primaire";"Ain";"5 Place De L'Ecole, Etrez";"Public";"46.334416363991565";"5.184983067708321"
"Boz";"Elem";"ce.0010732r@ac-lyon.fr";"01190";"Ecole élémentaire";"Ain";"30 Rue De L'École, Mortelle";"Public";"46.4062293058681";"4.912676956075191"
"Drom";"Elem";"ce.0010750k@ac-lyon.fr";"01250";"Ecole élémentaire";"Ain";"Le Village";"Public";"46.21802531427693";"5.366770252209155"
"Jasseron";"Elem";"ce.0010753n@ac-lyon.fr";"01250";"Ecole primaire";"Ain";"Le Village";"Public";"46.211169606861986";"5.324230241061516"
"Revonnas";"Elem";"ce.0010755r@ac-lyon.fr";"01250";"Ecole primaire";"Ain";"Chemin Des Ecoliers";"Public";"46.16325767604628";"5.326730053866111"
"Simandre-sur-Suran";"Elem";"ce.0010758u@ac-lyon.fr";"01250";"Ecole primaire";"Ain";"Chemin De La Grand Fin";"Public";"46.22665247096468";"5.415989732592493"
"Montagnat";"Elem";"ce.0010763z@ac-lyon.fr";"01250";"Ecole primaire";"Ain";"1655 Route Du Village";"Public";"46.17018785836742";"5.2842093666780565"
"Bourg-en-Bresse";"Elem";"ce.0010803t@ac-lyon.fr";"01000";"Ecole primaire Louis Parant";"Ain";"10 Rue Des Blanchisseries";"Public";"46.212645392502026";"5.223720457780236"
"Gex";"Elem";"ce.0010830x@ac-lyon.fr";"01170";"Ecole primaire privée Jeanne d'Arc";"Ain";"273 Rue De Genève";"Privé";"46.33126766932458";"6.0611696454805415"
"Marboz";"Elem";"ce.0010838f@ac-lyon.fr";"01851";"Ecole primaire privée Saint Joseph";"Ain";"182 Avenue De Bourgogne";"Privé";"46.34110137645154";"5.256779875575392"
"Miribel";"Elem";"ce.0010841j@ac-lyon.fr";"01701";"Ecole primaire privée Saint Joseph";"Ain";"27 Rue Henri Grobon";"Privé";"45.82493247544917";"4.9508700473020255"
"Montluel";"Elem";"ce.0010842k@ac-lyon.fr";"01120";"Ecole primaire privée Saint Vincent de Paul";"Ain";"310 Grande Rue";"Privé";"45.85078085126467";"5.054479677205846"
"Valserhône";"Elem";"ce.0010879a@ac-lyon.fr";"01200";"Ecole primaire Les Montagniers";"Ain";"2 Rue Marius Marinet, Bellegarde Sur Valserine";"Public";"46.12153398693063";"5.8136761773737025"
"Blyes";"Elem";"ce.0010881c@ac-lyon.fr";"01150";"Ecole primaire";"Ain";"99 Chemin De Ruvaison";"Public";"45.84690683915404";"5.252136684345671"
"Bellignat";"Elem";"ce.0010922x@ac-lyon.fr";"01100";"Ecole élémentaire Les Sources";"Ain";"Rue Des Ecoles, Bp 104";"Public";"46.24108613095444";"5.631270380373915"
"Injoux-Génissiat";"Elem";"ce.0010961p@ac-lyon.fr";"01200";"Ecole primaire des Balmettes";"Ain";"3 Rue Des Ecoles, Genissiat";"Public";"46.05107972388358";"5.803430138515738"
"Saint-Denis-lès-Bourg";"Mater";"ce.0010969y@ac-lyon.fr";"01000";"Ecole maternelle Les Vavres";"Ain";"71 Chemin Des Lazaristes";"Public";"46.204569788131515";"5.207379828330938"
"Bourg-en-Bresse";"Elem";"ce.0010972b@ac-lyon.fr";"01000";"Ecole primaire Les Dîmes";"Ain";"7 Rue Du Revermont";"Public";"46.209212118220876";"5.243540184215356"
"Belley";"Mater";"ce.0010991x@ac-lyon.fr";"01300";"Ecole maternelle La Rodette";"Ain";"Chemin De La Rodette";"Public";"45.751950293031726";"5.689549655227676"
"Saint-Etienne-sur-Chalaronne";"Elem";"ce.0011014x@ac-lyon.fr";"01140";"Ecole primaire";"Ain";"7 Rue Dombes";"Public";"46.14803665785119";"4.867029683723009"
"Miribel";"Elem";"ce.0011028m@ac-lyon.fr";"01700";"Ecole primaire Groupe scolaire du Centre";"Ain";"Place De L'Hôtel De Ville";"Public";"45.822670193508706";"4.952199544231597"
"Loyettes";"Elem";"ce.0011030p@ac-lyon.fr";"01360";"GROUPE SCOLAIRE SAINT-EXUPERY";"Ain";"348 Rue Du Carillon";"Public";"45.779983003670615";"5.207517401441272"
"Gex";"Mater";"ce.0011038y@ac-lyon.fr";"01170";"Ecole maternelle Parozet";"Ain";"Rue De L'Oudar";"Public";"46.338625605024724";"6.067299973800585"
"Artemare";"Mater";"ce.0011076p@ac-lyon.fr";"01510";"Ecole maternelle";"Ain";"5 Rue Des Ecoles";"Public";"45.87541517902828";"5.694090450056569"
"Valserhône";"Elem";"ce.0011087b@ac-lyon.fr";"01200";"Ecole primaire Arlod";"Ain";"287 Rue Centrale, Bellegarde Sur Valserine";"Public";"46.09773545469876";"5.815662374501891"
"Dagneux";"Elem";"ce.0011089d@ac-lyon.fr";"01120";"Ecole élémentaire";"Ain";"Place Des Tilleuls";"Public";"45.85149522570463";"5.07605954514203"
"Leyment";"Elem";"ce.0011099p@ac-lyon.fr";"01150";"ECOLE DU MUGUET";"Ain";"159 Rue De L'Ecole";"Public";"45.9242833876953";"5.2957401690191555"
"Divonne-les-Bains";"Elem";"ce.0011107y@ac-lyon.fr";"01220";"Ecole élémentaire Centre";"Ain";"133 Rue Du Mont Blanc";"Public";"46.35607704904168";"6.143779960097426"
"Saint-Trivier-sur-Moignans";"Elem";"ce.0011127v@ac-lyon.fr";"01990";"Ecole primaire";"Ain";"Rue De La République";"Public";"46.07216989920564";"4.897379461096807"
"Bourg-en-Bresse";"Elem";"ce.0011148t@ac-lyon.fr";"01000";"Ecole primaire Charles Péguy";"Ain";"12 Rue Henri Dunant";"Public";"46.21222924610888";"5.229009562900993"
"Ceyzériat";"Elem";"ce.0011177z@ac-lyon.fr";"01250";"ECOLE ELEMENTAIRE DU VALLON";"Ain";"31 Rue A. Dumas";"Public";"46.178698625158404";"5.319727165726759"
"Valserhône";"Elem";"ce.0011208h@ac-lyon.fr";"01200";"Ecole primaire Le Grand Clos";"Ain";"Rue Corneille, Bellegarde Sur Valserine";"Public";"46.114328741126656";"5.820080361282118"
"Meximieux";"Elem";"ce.0011217t@ac-lyon.fr";"01800";"Ecole élémentaire La Bovagne";"Ain";"Rue De Beauvallon";"Public";"45.91325041821383";"5.198070210427138"
"Francheleins";"Elem";"ce.0011219v@ac-lyon.fr";"01090";"Ecole primaire";"Ain";"Place De La Mairie";"Public";"46.071762614993496";"4.811664094879992"
"Villieu-Loyes-Mollon";"Elem";"ce.0011221x@ac-lyon.fr";"01800";"Ecole élémentaire";"Ain";"Rue Des Écoles";"Public";"45.938511393957064";"5.21066916091299"
"Viriat";"Elem";"ce.0011229f@ac-lyon.fr";"01440";"Ecole élementaire";"Ain";"96 Rue Des Greffets";"Public";"46.253011126974144";"5.214986457954233"
"Buellas";"Elem";"ce.0011232j@ac-lyon.fr";"01310";"Ecole primaire Les Condamines";"Ain";"1 Place De Catalina, Le Bourg";"Public";"46.20897519592533";"5.142560336320116"
"Trévoux";"Elem";"ce.0011238r@ac-lyon.fr";"01600";"Ecole primaire privée La Sidoine";"Ain";"12 Rue De La Sidoine";"Privé";"45.937265883760425";"4.78479060074555"
"Jassans-Riottier";"Elem";"ce.0011248b@ac-lyon.fr";"01480";"Ecole élémentaire Champ Bouvier";"Ain";"Allée Du Marmont";"Public";"45.987065058229646";"4.762010212839218"
"Ambérieu-en-Bugey";"Elem";"ce.0011265v@ac-lyon.fr";"01500";"Ecole élémentaire Jean Jaurès";"Ain";"48 Rue Jean Jaurès";"Public";"45.957072250950134";"5.343662590009417"
"Champagne-en-Valromey";"Elem";"ce.0011282n@ac-lyon.fr";"01260";"Ecole primaire privée Montessori";"Ain";"104 Route Du Col De Richemont";"Privé";"45.90662788652833";"5.682469783349949"
"Saint-Maurice-de-Gourdans";"Elem";"ce.0011314y@ac-lyon.fr";"01800";"Ecole primaire";"Ain";"10 Route De La Charriere";"Public";"45.82232787031305";"5.194770078139342"
"Saint-Didier-d'Aussiat";"Elem";"ce.0011318c@ac-lyon.fr";"01340";"Ecole primaire Le Bocage";"Ain";"Le Village";"Public";"46.30784261472959";"5.061780391390044"
"Cessy";"Elem";"ce.0011340b@ac-lyon.fr";"01170";"Ecole élémentaire";"Ain";"215 Rue Joseph Léger";"Public";"46.31770922488045";"6.069999906525468"
"Bourg-en-Bresse";"Elem";"ce.0011368g@ac-lyon.fr";"01000";"Ecole primaire Le Peloux";"Ain";"106 Passage  De L'École Du Peloux";"Public";"46.19585396685439";"5.212396814466754"
"Ferney-Voltaire";"Elem";"ce.0011397n@ac-lyon.fr";"01210";"ECOLE PRIMAIRE  PRIVEE LES PETITS POLYGLOTTES";"Ain";"15 Chemin De Vireloup, Le Keynes";"Privé";"46.2586354704904";"6.119999949796574"
"Saint-Martinien";"Elem";"ce.0030165n@ac-clermont.fr";"03380";"Ecole élémentaire publique";"Allier";"7 Rue Ecole";"Public";"46.33530919903828";"2.4715694722529893"
"Saint-Loup";"Elem";"ce.0030170u@ac-clermont.fr";"03150";"Ecole primaire publique Les Petits Loups";"Allier";"Route Nationale 7";"Public";"46.349629959480794";"3.3790005681289466"
"Saint-Hilaire";"Elem";"ce.0030178c@ac-clermont.fr";"03440";"Ecole Primaire Publique";"Allier";"6  Route, Le Bourg";"Public";"46.496869879918364";"2.993299358935727"
"Saint-Gérand-de-Vaux";"Mater";"ce.0030187m@ac-clermont.fr";"03340";"Ecole maternelle publique";"Allier";"7 Place Mairie";"Public";"46.38036024157316";"3.3999404743691093"
"Saint-Genest";"Mater";"ce.0030188n@ac-clermont.fr";"03310";"Ecole maternelle publique";"Allier";"Le Bourg";"Public";"46.26416426936615";"2.593140026279055"
"Saulzet";"Elem";"ce.0030205g@ac-clermont.fr";"03800";"Ecole élémentaire";"Allier";"2 Rue De L'Ecole";"Public";"46.1374111897305";"3.2176215944859954"
"Teillet-Argenty";"Elem";"ce.0030218w@ac-clermont.fr";"03410";"Ecole Primaire";"Allier";"23 Grand'Rue";"Public";"46.26772799466961";"2.531210213409439"
"Terjat";"Elem";"ce.0030220y@ac-clermont.fr";"03420";"Ecole élémentaire";"Allier";"Le Bourg";"Public";"46.20402534372275";"2.618479630546683"
"La Petite-Marche";"Mater";"ce.0030258p@ac-clermont.fr";"03420";"Ecole maternelle";"Allier";"Le Bourg";"Public";"46.19256069808545";"2.571340163509483"
"Le Pin";"Mater";"ce.0030261t@ac-clermont.fr";"03130";"Ecole maternelle Le Jardin des Mots";"Allier";"11 Rue Ecoles";"Public";"46.411181912155186";"3.8958793685179782"
"Pouzy-Mésangy";"Elem";"ce.0030263v@ac-clermont.fr";"03320";"Ecole Primaire";"Allier";"Le Bourg";"Public";"46.70842026481762";"3.0036297418936098"
"Quinssaines";"Elem";"ce.0030267z@ac-clermont.fr";"03380";"Ecole Primaire";"Allier";"Route Saint-Martinien";"Public";"46.331320026993176";"2.4984795177387307"
"Rongères";"Elem";"ce.0030270c@ac-clermont.fr";"03150";"Ecole Primaire";"Allier";"2 Place Tilleuls";"Public";"46.2953040409612";"3.4481403362845087"
"Saint-Bonnet-de-Rochefort";"Elem";"ce.0030276j@ac-clermont.fr";"03800";"Ecole Primaire";"Allier";"35 Avenue Mairie";"Public";"46.148565177713444";"3.137120437363754"
"Montvicq";"Elem";"ce.0030312y@ac-clermont.fr";"03170";"Ecole Primaire";"Allier";"Rue De La Gare";"Public";"46.3198093520496";"2.823300619976343"
"Moulins";"Elem";"ce.0030331u@ac-clermont.fr";"03000";"Ecole primaire Les Gâteaux";"Allier";"50 Avenue Du Général De Gaulle";"Public";"46.57386024514787";"3.322880295426249"
"Néris-les-Bains";"Mater";"ce.0030339c@ac-clermont.fr";"03310";"Ecole maternelle";"Allier";"Rue Monthyon";"Public";"46.28747489915325";"2.663089577156581"
"Molles";"Elem";"ce.0030348m@ac-clermont.fr";"03300";"Ecole primaire Jean Zay";"Allier";"29 Rue Du Bourg";"Public";"46.1108333848802";"3.558293523779761"
"Montilly";"Elem";"ce.0030366g@ac-clermont.fr";"03000";"Ecole Primaire";"Allier";"2 Place De La Mairie";"Public";"46.61238468484619";"3.2505802825667978"
"Montluçon";"Elem";"ce.0030393l@ac-clermont.fr";"03100";"Ecole élémentaire Aristide Briand";"Allier";"233 Avenue Du Président Auriol";"Public";"46.32862313275252";"2.584949648797589"
"Haut-Bocage";"Elem";"ce.0030424v@ac-clermont.fr";"03190";"Ecole élémentaire de Maillet";"Allier";"Le Bourg, Maillet";"Public";"46.47867841735227";"2.6521496750420654"
"Le Mayet-de-Montagne";"Elem";"ce.0030433e@ac-clermont.fr";"03250";"Ecole primaire Yves Duteil";"Allier";"Avenue Du Lac";"Public";"46.06936935306816";"3.6673103544318493"
"Mazirat";"Elem";"ce.0030436h@ac-clermont.fr";"03420";"Ecole élémentaire";"Allier";"3 Route Barrage De Rochebut";"Public";"46.22495603573671";"2.5406503314526803"
"Ygrande";"Elem";"ce.0030451z@ac-clermont.fr";"03160";"Ecole Primaire";"Allier";"3 Hameau Beauregard";"Public";"46.54936459227649";"2.9431795617120526"
"Vichy";"Mater";"ce.0030456e@ac-clermont.fr";"03200";"Ecole maternelle Lyautey";"Allier";"13 Rue Du Maréchal Lyautey";"Public";"46.11985447953349";"3.43243031657912"
"Villeneuve-sur-Allier";"Elem";"ce.0030465p@ac-clermont.fr";"03460";"Ecole Primaire Le Chêne et Le Roseau";"Allier";"57 Route De Paris";"Public";"46.66066734102376";"3.2469604648646597"
"Vallon-en-Sully";"Elem";"ce.0030469u@ac-clermont.fr";"03190";"Ecole élémentaire Marius AUDRAS";"Allier";"Rue Jean Macé";"Public";"46.537167643296236";"2.601879784737454"
"Vallon-en-Sully";"Mater";"ce.0030471w@ac-clermont.fr";"03190";"Ecole maternelle";"Allier";"9 Rue Parc";"Public";"46.534995630250705";"2.6104799908120015"
"Varennes-sur-Allier";"Elem";"ce.0030472x@ac-clermont.fr";"03150";"Ecole élémentaire George Sand";"Allier";"Place De L'Hôtel De Ville";"Public";"46.31344563573636";"3.4037203043058866"
"Vaumas";"Elem";"ce.0030478d@ac-clermont.fr";"03220";"Ecole primaire Les Ecureuils";"Allier";"9 Rue De La Mairie";"Public";"46.446842653256205";"3.6281601482511308"
"Chemilly";"Elem";"ce.0030515u@ac-clermont.fr";"03210";"Ecole Primaire";"Allier";"Le Bourg";"Public";"46.488751101315806";"3.315529412997708"
"Coulanges";"Elem";"ce.0030541x@ac-clermont.fr";"03470";"Ecole élémentaire";"Allier";"30 Rue Nationale";"Public";"46.48593663681678";"3.8584095856772636"
"L'Arbresle";"Elem";"ce.0690342x@ac-lyon.fr";"69210";"Ecole primaire Lassagne-Dolto";"Rhône";"Place Pierre Marie Durand";"Public";"45.835446374921744";"4.615200745033966"
"Claveisolles";"Elem";"ce.0690359r@ac-lyon.fr";"69870";"Ecole primaire";"Rhône";"Le Bourg";"Public";"46.100283351258604";"4.494150542161514"
"Lyon 9e  Arrondissement";"Elem";"ce.0690391a@ac-lyon.fr";"69009";"Ecole élémentaire Les Fougères";"Rhône";"107 Rue Des Fougères";"Public";"45.779299913041015";"4.794620595271463"
"Lyon 9e  Arrondissement";"Elem";"ce.0690405r@ac-lyon.fr";"69009";"Ecole élémentaire Hector Berlioz";"Rhône";"192 Avenue Barthélémy Buyer";"Public";"45.764127122588825";"4.792816437068034"
"Lyon 9e  Arrondissement";"Elem";"ce.0690413z@ac-lyon.fr";"69009";"Ecole primaire d'application Les Grillons";"Rhône";"12 Rue Marc Boegner";"Public";"45.8003780335507";"4.826440176124888"
"Meys";"Elem";"ce.0690424l@ac-lyon.fr";"69610";"Ecole primaire";"Rhône";"65 Rue De Renard, Le Bourg";"Public";"45.678799688510125";"4.38524092615212"
"Belleville-en-Beaujolais";"Mater";"ce.0690442f@ac-lyon.fr";"69220";"Ecole maternelle Jean Macé";"Rhône";"14 Rue Francis Popy";"Public";"46.11102197451851";"4.73095064420046"
"Bron";"Mater";"ce.0690450p@ac-lyon.fr";"69500";"Ecole maternelle Jules Ferry";"Rhône";"10 Rue Louis Blanc";"Public";"45.73275998319712";"4.896338890337841"
"Bron";"Mater";"ce.0690453t@ac-lyon.fr";"69500";"Ecole maternelle Anatole France";"Rhône";"61 Rue De La Paix";"Public";"45.733628243084745";"4.898857574735317"
"Givors";"Mater";"ce.0690460a@ac-lyon.fr";"69700";"Ecole maternelle Edouard Herriot";"Rhône";"17 Rue Gambetta";"Public";"45.581776818677056";"4.775994787145203"
"Givors";"Mater";"ce.0690462c@ac-lyon.fr";"69700";"Ecole maternelle La Presqu'île";"Rhône";"8 Quai Des Martyrs Du 8 Février 1962";"Public";"45.587311835973566";"4.774270992359264"
"Irigny";"Mater";"ce.0690482z@ac-lyon.fr";"69540";"Ecole maternelle Hilaire Dunand";"Rhône";"22 Avenue De Verdun";"Public";"45.688302925242056";"4.823058147581039"
"Sainte-Foy-lès-Lyon";"Mater";"ce.0690495n@ac-lyon.fr";"69110";"Ecole maternelle Grange Bruyère";"Rhône";"39 Avenue Maréchal Foch";"Public";"45.747762147238504";"4.79834653719312"
"Saint-Genis-Laval";"Mater";"ce.0690498s@ac-lyon.fr";"69230";"Ecole maternelle Bergier Mouton";"Rhône";"3 Rue Emile Dorel";"Public";"45.69491038154762";"4.79615817349643"
"Vaulx-en-Velin";"Mater";"ce.0690500u@ac-lyon.fr";"69120";"Ecole maternelle Grandclément";"Rhône";"28 Rue Franklin";"Public";"45.787512242819744";"4.924521394500644"
"Ecully";"Mater";"ce.0690737b@ac-lyon.fr";"69130";"Ecole maternelle Les Cerisiers";"Rhône";"59 Rue De La Sauvegarde";"Public";"45.78360176594053";"4.787754451733393"
"Messimy";"Elem";"ce.0690741f@ac-lyon.fr";"69510";"Ecole élémentaire La Chatelaise";"Rhône";"9 Route De La Chatelaise";"Public";"45.69806992922261";"4.673080175950653"
"Pollionnay";"Elem";"ce.0690743h@ac-lyon.fr";"69290";"Ecole primaire Michel Serres";"Rhône";"163 Chemin Des Presles";"Public";"45.76276076192824";"4.659317407049264"
"Sainte-Consorce";"Elem";"ce.0690744j@ac-lyon.fr";"69280";"Ecole primaire Saint-Exupéry";"Rhône";"13 Rue Des Monts";"Public";"45.77432291244679";"4.691582666758116"
"Tassin-la-Demi-Lune";"Elem";"ce.0690751s@ac-lyon.fr";"69160";"Ecole élémentaire Vincent Berlier";"Rhône";"11 Bis Avenue Leclerc";"Public";"45.761543357260315";"4.776452528377799"
"Thurins";"Elem";"ce.0690753u@ac-lyon.fr";"69510";"Ecole primaire Les Veloutiers";"Rhône";"14 Rue Du 8 Mai 1945";"Public";"45.68173145033878";"4.641433639081378"
"Saint-Forgeux";"Elem";"ce.0690769l@ac-lyon.fr";"69490";"Ecole primaire Jean De La Fontaine";"Rhône";"Rue Des Tourterelles";"Public";"45.86095081506061";"4.473656952884154"
"Saint-Marcel-l'Eclairé";"Elem";"ce.0690771n@ac-lyon.fr";"69170";"Ecole primaire Pierre-Marie PAPILLON";"Rhône";"108 Rue De Rochefolles";"Public";"45.875114341851805";"4.434668738843947"
"Tarare";"Elem";"ce.0690773r@ac-lyon.fr";"69170";"Ecole élémentaire Antoine de Saint-Exupéry";"Rhône";"11 Rue Pierre Mosnier";"Public";"45.89670699966611";"4.429921453765942"
"Beauvallon";"Elem";"ce.0690781z@ac-lyon.fr";"69700";"Ecole primaire La Rose des Vents";"Rhône";"Les Chazeaux - Chassagny";"Public";"45.60457606120547";"4.727139870245449"
"Echalas";"Elem";"ce.0690782a@ac-lyon.fr";"69700";"Ecole primaire la Clef des Savoirs";"Rhône";"23 Route De La Croix Régis";"Public";"45.54945099730071";"4.720688090332869"
"Cailloux-sur-Fontaines";"Elem";"ce.0690839m@ac-lyon.fr";"69270";"Ecole primaire";"Rhône";"Place Du 8 Mai 1945";"Public";"45.852544880497895";"4.8713503217016"
"Neuville-sur-Saône";"Elem";"ce.0690851a@ac-lyon.fr";"69250";"Ecole élémentaire Eric BELLOT";"Rhône";"6 Bis Rue Pierre Dupont";"Public";"45.87321284338558";"4.841053529753447"
"Saint-Romain-au-Mont-d'Or";"Elem";"ce.0690860k@ac-lyon.fr";"69270";"Ecole primaire Les Sources";"Rhône";"35 Rue De La République";"Public";"45.83759538086505";"4.8240985699321355"
"Saint-Vérand";"Elem";"ce.0690881h@ac-lyon.fr";"69620";"Ecole primaire";"Rhône";"30 Place De Chiny, Le Bourg";"Public";"45.91914997460739";"4.528624891621718"
"Lyon 6e  Arrondissement";"Elem";"ce.0690890t@ac-lyon.fr";"69006";"Ecole élémentaire Jean Racine";"Rhône";"6 Rue Crillon";"Public";"45.77028997407526";"4.845427511182402"
"Brindas";"Elem";"ce.0690926g@ac-lyon.fr";"69126";"Ecole élémentaire de La Tour";"Rhône";"6 Place De La Paix";"Public";"45.71956778885884";"4.693748651173485"
"Courzieu";"Elem";"ce.0690929k@ac-lyon.fr";"69690";"Ecole primaire Jacques Prévert";"Rhône";"Le Bourg";"Public";"45.74681825647355";"4.5696306270221365"
"Lancié";"Elem";"ce.0690953l@ac-lyon.fr";"69220";"Ecole primaire";"Rhône";"Le Bourg";"Public";"46.17058407686249";"4.715959778207305"
"Corcelles-en-Beaujolais";"Elem";"ce.0690957r@ac-lyon.fr";"69220";"Ecole primaire";"Rhône";"91 Rue Des Ecoles, Le Bourg";"Public";"46.15346869355915";"4.725197855166367"
"Cercié";"Elem";"ce.0690961v@ac-lyon.fr";"69220";"Ecole primaire de la roche bleue";"Rhône";"Place De L'Ecole";"Public";"46.11930910759851";"4.672010206650761"
"Lantignié";"Elem";"ce.0690979p@ac-lyon.fr";"69430";"Ecole primaire";"Rhône";"Le Bourg";"Public";"46.146808873863144";"4.6232094351272215"
"Lyon 5e  Arrondissement";"Mater";"ce.0691038d@ac-lyon.fr";"69005";"Ecole maternelle Jean Gerson";"Rhône";"3 Rue François Vernay";"Public";"45.765080368034795";"4.82837628447287"
"Lyon 5e  Arrondissement";"Mater";"ce.0691042h@ac-lyon.fr";"69005";"Ecole maternelle La Sarra";"Rhône";"24 Rue Pauline Marie Jaricot";"Public";"45.76143011645101";"4.815077933434258"
"Lyon 3e  Arrondissement";"Mater";"ce.0691053v@ac-lyon.fr";"69003";"Ecole maternelle Antoine de Saint Exupéry";"Rhône";"59 Rue De La Part Dieu";"Public";"45.759585819130805";"4.846462404433199"
"Lyon 3e  Arrondissement";"Mater";"ce.0691054w@ac-lyon.fr";"69003";"Ecole maternelle Meynis";"Rhône";"6 Rue Meynis";"Public";"45.75580175837314";"4.870843516154646"
"Lyon 3e  Arrondissement";"Mater";"ce.0691060c@ac-lyon.fr";"69003";"Ecole maternelle Antoine Charial";"Rhône";"25 Rue Antoine Charial";"Public";"45.758458138623496";"4.86463703263294"
"Lyon 1er Arrondissement";"Mater";"ce.0691072r@ac-lyon.fr";"69001";"Ecole maternelle Robert Doisneau";"Rhône";"5 Rue Sergent Blandan";"Public";"45.76863476796288";"4.828702406973806"
"Lyon 9e  Arrondissement";"Mater";"ce.0691147x@ac-lyon.fr";"69009";"Ecole maternelle Hector Berlioz";"Rhône";"192 Avenue Barthélémy Buyer";"Public";"45.764127122588825";"4.792816437068034"
"Lyon 8e  Arrondissement";"Mater";"ce.0691162n@ac-lyon.fr";"69008";"Ecole maternelle Jean Mermoz A";"Rhône";"28 Rue Professeur Ranvier";"Public";"45.73494633837052";"4.886876098280245"
"Lyon 7e  Arrondissement";"Mater";"ce.0691174b@ac-lyon.fr";"69007";"Ecole maternelle Gilbert Dru";"Rhône";"1 Rue Saint Michel";"Public";"45.75325121123906";"4.842977424145453"
"Vénissieux";"Mater";"ce.0691186p@ac-lyon.fr";"69200";"Ecole maternelle Jules Guesde";"Rhône";"55 Rue Joannes Vallet";"Public";"45.71153768416848";"4.885376766106449"
"Vénissieux";"Mater";"ce.0691193x@ac-lyon.fr";"69200";"Ecole maternelle Centre";"Rhône";"18 Rue Victor Hugo";"Public";"45.702924854690764";"4.884995794693533"
"Villeurbanne";"Mater";"ce.0691215w@ac-lyon.fr";"69100";"Ecole maternelle Léon Jouhaux";"Rhône";"14 Rue Docteur Pierre Fleury Papillon";"Public";"45.76343560467181";"4.8831271492602"
"Villeurbanne";"Mater";"ce.0691216x@ac-lyon.fr";"69100";"Ecole maternelle Antonin Perrin";"Rhône";"53 Rue Fleury Pierre Papillon";"Public";"45.760152824126216";"4.883586647571123"
"Civrieux-d'Azergues";"Elem";"ce.0691236u@ac-lyon.fr";"69380";"Ecole primaire Maurice Gilardon";"Rhône";"300 Route De Marcilly";"Public";"45.859866798180235";"4.714699168242243"
"Marcilly-d'Azergues";"Elem";"ce.0691251k@ac-lyon.fr";"69380";"Ecole primaire les trois châteaux";"Rhône";"80 Rue De La Mairie, .";"Public";"45.872323449433836";"4.728364947575923"
"Les Haies";"Elem";"ce.0691285x@ac-lyon.fr";"69420";"Ecole primaire";"Rhône";"393 Rue Des Champs Blancs";"Public";"45.503219308697425";"4.749395016894004"
"Trèves";"Elem";"ce.0691295h@ac-lyon.fr";"69420";"Ecole primaire";"Rhône";"666 Route Des 2 Vallées";"Public";"45.536148133709325";"4.682434880235215"
"Tupin-et-Semons";"Elem";"ce.0691296j@ac-lyon.fr";"69420";"Ecole primaire";"Rhône";"5 Rue De La Mairie, Le Bourg";"Public";"45.4782161608157";"4.777429378242729"
"Lyon 1er Arrondissement";"Elem";"ce.0691299m@ac-lyon.fr";"69001";"Ecole élémentaire Robert Doisneau";"Rhône";"1 Rue Sergent Blandan";"Public";"45.76856302366962";"4.828127299143163"
"Sainte-Foy-l'Argentière";"Elem";"ce.0691358b@ac-lyon.fr";"69610";"Ecole élémentaire Simone VEIL";"Rhône";"755 Grande Rue";"Public";"45.70785560647422";"4.476254023204349"
"Souzy";"Elem";"ce.0691361e@ac-lyon.fr";"69610";"Ecole primaire Le Passerat";"Rhône";"Le Bourg";"Public";"45.705604695673024";"4.449349852573695"
"Sainte-Catherine";"Elem";"ce.0691371r@ac-lyon.fr";"69440";"Ecole primaire des deux versants";"Rhône";"1 Place Du 19 Mars 1962";"Public";"45.59791604843807";"4.571338536930112"
"Riverie";"Elem";"ce.0691376w@ac-lyon.fr";"69440";"Ecole primaire Aimé Billiemaz";"Rhône";"Le Chatel";"Public";"45.60016703266136";"4.58895054912149"
"Alix";"Elem";"ce.0691385f@ac-lyon.fr";"69380";"Ecole primaire Des 3 Tilleuls";"Rhône";"178 Chemin Des Ecoliers";"Public";"45.91135728040781";"4.653551533963922"
"Charnay";"Elem";"ce.0691420u@ac-lyon.fr";"69380";"Ecole primaire des Matins Clairs";"Rhône";"1 Boulevard Des Ecoles";"Public";"45.89126978534917";"4.6687754422931125"
"Bibost";"Elem";"ce.0691425z@ac-lyon.fr";"69690";"Ecole primaire";"Rhône";"103 Rue Du Souvenir Français, Le Bourg";"Public";"45.79756147048163";"4.547742432086343"
"Savigny";"Elem";"ce.0691446x@ac-lyon.fr";"69210";"Ecole primaire des Sources";"Rhône";"Route D'Ancy";"Public";"45.81501620564881";"4.573425639891015"
"Meyzieu";"Elem";"ce.0691563z@ac-lyon.fr";"69330";"Ecole primaire Les Calabres";"Rhône";"3 Chemin Du Gravier Blanc";"Public";"45.78313094476263";"5.004913177342061"
"Meyzieu";"Elem";"ce.0691570g@ac-lyon.fr";"69330";"Ecole élémentaire Grand Large";"Rhône";"95 Avenue De Verdun";"Public";"45.77870405444367";"4.995335574472605"
"Feyzin";"Elem";"ce.0691585y@ac-lyon.fr";"69320";"Ecole primaire La Tour";"Rhône";"20 Chemin De Beauregard";"Public";"45.680776945780764";"4.858466518017938"
"Rillieux-la-Pape";"Mater";"ce.0691620l@ac-lyon.fr";"69140";"Ecole maternelle Cité Castellane";"Rhône";"105 Route De Genève";"Public";"45.808465111472174";"4.900789996513949"
"Mions";"Mater";"ce.0691705d@ac-lyon.fr";"69780";"Ecole maternelle Joseph Sibuet";"Rhône";"16 Rue Du 11 Novembre";"Public";"45.66173022995515";"4.955717822595885"
"Vénissieux";"Elem";"ce.0691719u@ac-lyon.fr";"69631";"Ecole élémentaire Anatole France B";"Rhône";"12 Avenue De La Division Leclerc";"Public";"45.69649773927434";"4.866295571878581"
"Marcy-l'Etoile";"Elem";"ce.0691726b@ac-lyon.fr";"69280";"Ecole primaire privée Notre Dame";"Rhône";"32 Route De Sainte Consorce";"Privé";"45.77908232297292";"4.704918739625191"
"Craponne";"Mater";"ce.0691783n@ac-lyon.fr";"69290";"Ecole maternelle du Centre";"Rhône";"Rue Des Terres Plates";"Public";"45.74441863358176";"4.72595703076447"
"Givors";"Elem";"ce.0691787t@ac-lyon.fr";"69700";"Ecole élémentaire Romain Rolland";"Rhône";"19 Rue Romain Rolland";"Public";"45.603414114892544";"4.764455620463479"
"Villefranche-sur-Saône";"Mater";"ce.0691864b@ac-lyon.fr";"69400";"Ecole maternelle Condorcet";"Rhône";"176 Rue Jules Ferry";"Public";"45.98247365206111";"4.735029411331194"
"Grézieu-le-Marché";"Elem";"ce.0691894j@ac-lyon.fr";"69610";"Ecole primaire privée des Colombes";"Rhône";"59 Rue Des Colombes";"Privé";"45.65562967361042";"4.420348662933407"
"Loire-sur-Rhône";"Elem";"ce.0691942l@ac-lyon.fr";"69700";"Ecole primaire privée Saint Joseph";"Rhône";"229 Rue Du Haut";"Privé";"45.5610396499957";"4.80367014365549"
"Val d'Oingt";"Elem";"ce.0691979b@ac-lyon.fr";"69620";"Ecole primaire privée Notre Dame du Mas";"Rhône";"356 Rue Jacques Cortay, Le Bois D'Oingt";"Privé";"45.92449047267562";"4.582821563050822"
"Lyon 7e  Arrondissement";"Elem";"ce.0692014p@ac-lyon.fr";"69007";"Ecole primaire privée Saint André";"Rhône";"66 Rue Pasteur";"Privé";"45.7517152158826";"4.838909272602546"
"Caluire-et-Cuire";"Elem";"ce.0692099g@ac-lyon.fr";"69300";"Ecole primaire privée du Petit Versailles";"Rhône";"5 Montée Du Petit Versailles";"Privé";"45.78917614869915";"4.851668318036273"
"Vaugneray";"Elem";"ce.0692127m@ac-lyon.fr";"69670";"Ecole primaire privée Notre-Dame des Vallons";"Rhône";"Rue De Charpieux";"Privé";"45.73326396948858";"4.667876424793759"
"Vaulx-en-Velin";"Mater";"ce.0692167f@ac-lyon.fr";"69120";"Ecole maternelle Paul Langevin";"Rhône";"40 Rue Franklin";"Public";"45.78787788764501";"4.92642551490128"
"Messimy";"Elem";"ce.0692173m@ac-lyon.fr";"69510";"Ecole primaire privée Saint Joseph du Chater";"Rhône";"11 Chemin Du Châter";"Privé";"45.69750396234501";"4.670917841615715"
"Rillieux-la-Pape";"Elem";"ce.0692182x@ac-lyon.fr";"69140";"Ecole primaire privée Saint Charles";"Rhône";"26 Avenue Victor Hugo";"Privé";"45.81920479201426";"4.893605523790596"
"Vaulx-en-Velin";"Mater";"ce.0692272v@ac-lyon.fr";"69120";"Ecole maternelle Angelina Courcelles A";"Rhône";"Rue Des Frères Bertrand";"Public";"45.78528389514031";"4.913178428309707"
"Irigny";"Elem";"ce.0692298y@ac-lyon.fr";"69540";"Ecole primaire Gilbert Billon";"Rhône";"5 Rue Des Hauts De Sélettes";"Public";"45.66588376437277";"4.820896390192509"
"Rillieux-la-Pape";"Elem";"ce.0692300a@ac-lyon.fr";"69140";"Ecole primaire Vancia";"Rhône";"4811 Route De Strasbourg";"Public";"45.8333997647534";"4.911248769618867"
"Saint-Priest";"Elem";"ce.0692475r@ac-lyon.fr";"69800";"Ecole primaire Mi Plaine";"Rhône";"39 Rue Ambroise Paré";"Public";"45.70711174435072";"4.977993373643527"
"Saint-Pierre-de-Chandieu";"Mater";"ce.0692490g@ac-lyon.fr";"69780";"Ecole maternelle Louise Michel";"Rhône";"Route De Givors";"Public";"45.647211450816535";"5.016989300350134"
"Vaulx-en-Velin";"Mater";"ce.0692496n@ac-lyon.fr";"69120";"Ecole maternelle Pasteur Martin Luther King A";"Rhône";"16 Chemin Des Plates";"Public";"45.780702671091134";"4.915938197146261"
"Lentilly";"Elem";"ce.0692529z@ac-lyon.fr";"69210";"Ecole élémentaire Pré Berger";"Rhône";"20 Rue De La Gare";"Public";"45.82060489800855";"4.665733597185089"
"Saint-Laurent-de-Mure";"Mater";"ce.0692535f@ac-lyon.fr";"69720";"Ecole maternelle Le Bois Joli";"Rhône";"12 Rue De L'Église";"Public";"45.6848030321051";"5.045489612417545"
"Beaujeu";"Mater";"ce.0692591s@ac-lyon.fr";"69430";"Ecole maternelle";"Rhône";"33 Rue Montfavier";"Public";"46.156552141709";"4.585598266834163"
"Chassieu";"Mater";"ce.0692731u@ac-lyon.fr";"69680";"Ecole maternelle Louis Pradel";"Rhône";"Rue Vincent D'Indy";"Public";"45.7457983894246";"4.963643102674391"
"Lyon 8e  Arrondissement";"Elem";"ce.0692743g@ac-lyon.fr";"69008";"Ecole élémentaire spéciale Edouard Herriot";"Rhône";"157 Rue Bataille";"Public";"45.735957860479104";"4.882350676006992"
"Chaponnay";"Elem";"ce.0692774r@ac-lyon.fr";"69970";"Ecole élémentaire Les Clémentières";"Rhône";"Route De Marennes";"Public";"45.62698708957779";"4.930526508281185"
"Tarare";"Mater";"ce.0692843r@ac-lyon.fr";"69170";"Ecole maternelle La Plaine";"Rhône";"Chemin Vieille Plaine";"Public";"45.88827489057994";"4.4407297276238165"
"Deux-Grosnes";"Elem";"ce.0692856e@ac-lyon.fr";"69860";"Ecole primaire";"Rhône";"288 Rue Du Haut Beaujolais, Monsols";"Public";"46.2178949632936";"4.520811524260148"
"Jonage";"Elem";"ce.0693028s@ac-lyon.fr";"69330";"Ecole primaire Paul Claudel";"Rhône";"Avenue Georges Pompidou";"Public";"45.78784311144672";"5.041577766340002"
"Lyon 5e  Arrondissement";"Elem";"ce.0693116m@ac-lyon.fr";"69005";"Ecole élémentaire Ferdinand Buisson";"Rhône";"3 Rue Benoist Mary";"Public";"45.75745075326921";"4.811601614438149"
"Soucieu-en-Jarrest";"Mater";"ce.0693147w@ac-lyon.fr";"69510";"Ecole maternelle Les Chadrillons";"Rhône";"16 Rue Micky Barange";"Public";"45.678514332377716";"4.700556253373391"
"Dardilly";"Elem";"ce.0693149y@ac-lyon.fr";"69570";"Ecole élémentaire Les Noyeraies";"Rhône";"7 Chemin Des Ecoliers";"Public";"45.80810366404974";"4.753090788403047"
"Gleizé";"Elem";"ce.0693197a@ac-lyon.fr";"69400";"Ecole élémentaire Robert Doisneau";"Rhône";"Place De La Mairie";"Public";"45.98893640377242";"4.696971227595251"
"Villeurbanne";"Elem";"ce.0693198b@ac-lyon.fr";"69100";"Ecole élémentaire Lazare Goujon";"Rhône";"50 Rue Pierre Voyant";"Public";"45.77063499764023";"4.898619680445156"
"Villié-Morgon";"Mater";"ce.0693233p@ac-lyon.fr";"69910";"Ecole maternelle Elise et Robert DEVILLE";"Rhône";"26 Place Charles Baudelaire";"Public";"46.16135699401056";"4.6806709854360795"
"Coise";"Elem";"ce.0693272g@ac-lyon.fr";"69590";"Ecole primaire privée Paul Lornage";"Rhône";"12 Rue Des Pierres Roses";"Privé";"45.61410192769894";"4.473351915460082"
"Saint-Fons";"Elem";"ce.0693289a@ac-lyon.fr";"69190";"Ecole élémentaire Parmentier";"Rhône";"8 Avenue Gravallon";"Public";"45.70487316130212";"4.861971946874707"
"Villeurbanne";"Elem";"ce.0693303r@ac-lyon.fr";"69100";"Ecole élémentaire Nigritelle Noire";"Rhône";"2 Allée Nigritelle Noire";"Public";"45.773305834869035";"4.862625614139389"
"Vénissieux";"Elem";"ce.0693326r@ac-lyon.fr";"69200";"Ecole élémentaire Léo Lagrange";"Rhône";"49 Bis Rue Léo Lagrange";"Public";"45.69856363805155";"4.875756611349056"
"Le Perréon";"Mater";"ce.0693336b@ac-lyon.fr";"69460";"Ecole maternelle Le Trève";"Rhône";"Le Treve";"Public";"46.062767892649155";"4.592680518849198"
"Givors";"Elem";"ce.0693339e@ac-lyon.fr";"69700";"Ecole élémentaire Joliot Curie";"Rhône";"Rue Pierre Et Marie Curie";"Public";"45.59649687112049";"4.769204553605728"
"Saint-Igny-de-Vers";"Elem";"ce.0693341g@ac-lyon.fr";"69790";"Ecole primaire";"Rhône";"76 Place De La Mairie, Le Bourg";"Public";"46.240518816074484";"4.437353365510292"
"Ecully";"Elem";"ce.0693355x@ac-lyon.fr";"69130";"Ecole élémentaire Le Pérollier";"Rhône";"35 Rue Du Collovrier";"Public";"45.790743304385195";"4.781734603807959"
"Chassieu";"Mater";"ce.0693379y@ac-lyon.fr";"69680";"Ecole maternelle Le Chatenay";"Rhône";"23 Chemin Du Chatenay";"Public";"45.74729839924798";"4.97677598553653"
"Brignais";"Elem";"ce.0693384d@ac-lyon.fr";"69530";"Ecole élémentaire Jean Moulin";"Rhône";"28 Boulevard De Schweighouse";"Public";"45.66818284664556";"4.757780548479004"
"Villefranche-sur-Saône";"Elem";"ce.0693389j@ac-lyon.fr";"69400";"Ecole élémentaire Ferdinand Buisson";"Rhône";"364 Rue Justin Godart";"Public";"45.98202724050861";"4.73894172114463"
"Craponne";"Elem";"ce.0693395r@ac-lyon.fr";"69290";"Ecole primaire La Gatolière";"Rhône";"41 Bis Rue De Verdun";"Public";"45.74456609651668";"4.713808611360067"
"Lyon 9e  Arrondissement";"Elem";"ce.0693418r@ac-lyon.fr";"69009";"Ecole élémentaire Jean Zay";"Rhône";"13 Rue Jean Zay";"Public";"45.76739243862074";"4.801172070715932"
"Sathonay-Camp";"Elem";"ce.0693423w@ac-lyon.fr";"69580";"Ecole élémentaire Louis Regard";"Rhône";"1 Place Joseph Thevenot";"Public";"45.824371094849816";"4.875332110081216"
"Villeurbanne";"Elem";"ce.0693456g@ac-lyon.fr";"69100";"Ecole élémentaire Jean Moulin";"Rhône";"95 Rue Du 8 Mai 1945";"Public";"45.77671058104927";"4.89261361470567"
"Brignais";"Elem";"ce.0693465s@ac-lyon.fr";"69530";"Ecole élémentaire Jacques Cartier";"Rhône";"2 Chemin De La Lande";"Public";"45.68031211489898";"4.762656760151955"
"Lyon 7e  Arrondissement";"Elem";"ce.0693469w@ac-lyon.fr";"69007";"Ecole élémentaire Aristide Briand";"Rhône";"293 Avenue Jean Jaurès";"Public";"45.72913833233185";"4.832495579284489"
"Rillieux-la-Pape";"Elem";"ce.0693470x@ac-lyon.fr";"69140";"Ecole élémentaire Les Semailles";"Rhône";"1 Rue Du Luxembourg";"Public";"45.82141140370449";"4.905238565844183"
"Lyon 8e  Arrondissement";"Elem";"ce.0693473a@ac-lyon.fr";"69008";"Ecole élémentaire Jean Macé";"Rhône";"1 Place Général André";"Public";"45.7272190780684";"4.877259887254051"
"Villeurbanne";"Elem";"ce.0693512t@ac-lyon.fr";"69100";"Ecole élémentaire Château Gaillard";"Rhône";"9 Rue Pierre Joseph Proudhon";"Public";"45.773794663421036";"4.889347241208481"
"Décines-Charpieu";"Mater";"ce.0693516x@ac-lyon.fr";"69150";"Ecole maternelle Jean Jaurès";"Rhône";"1 Rue Marcellin Berthelot";"Public";"45.76736146664147";"4.956459260138287"
"Ecully";"Mater";"ce.0693529l@ac-lyon.fr";"69130";"Ecole maternelle Le Pérollier";"Rhône";"35 Rue Du Collovrier";"Public";"45.790743304385195";"4.781734603807959"
"Vaulx-en-Velin";"Elem";"ce.0693534s@ac-lyon.fr";"69120";"Ecole élémentaire Henri Wallon";"Rhône";"9 Avenue Jean Moulin";"Public";"45.789468247811584";"4.9139014903214315"
"Juliénas";"Elem";"ce.0693560v@ac-lyon.fr";"69840";"Ecole primaire George SAND";"Rhône";"103 Ancienne Place Du Marché, Le Bourg";"Public";"46.236242234287396";"4.709069305192279"
"Vaulx-en-Velin";"Elem";"ce.0693571g@ac-lyon.fr";"69120";"Ecole élémentaire Federico Garcia Lorca";"Rhône";"1 Rue Robert Desnos";"Public";"45.777206848646394";"4.927097373698808"
"Vaulx-en-Velin";"Mater";"ce.0693575l@ac-lyon.fr";"69120";"Ecole maternelle Henri Wallon";"Rhône";"13 Avenue Jean Moulin";"Public";"45.78956343805625";"4.914874324344106"
"Lyon 6e  Arrondissement";"Elem";"ce.0693600n@ac-lyon.fr";"69006";"Ecole élémentaire Louis Pradel";"Rhône";"83 Rue Bossuet";"Public";"45.76817326528963";"4.853776628172782"
"Thizy-les-Bourgs";"Elem";"ce.0693602r@ac-lyon.fr";"69240";"Ecole élémentaire Le château";"Rhône";"19 Venelle Jules Ferry";"Public";"46.0351934346734";"4.30254810022944"
"Lyon 5e  Arrondissement";"Elem";"ce.0693608x@ac-lyon.fr";"69005";"Ecole primaire privée bilingue West Point";"Rhône";"15 Rue De La Garenne";"Privé";"45.74992983751581";"4.780259385849098"
"Chessy";"Elem";"ce.0693612b@ac-lyon.fr";"69380";"Ecole primaire";"Rhône";"81 Avenue Du Stade";"Public";"45.885627807677615";"4.6209254918045755"
"Lyon 8e  Arrondissement";"Elem";"ce.0693636c@ac-lyon.fr";"69008";"Ecole primaire Lumière";"Rhône";"24 Rue Du Premier Film";"Public";"45.74494820744099";"4.870060622396415"
"Lyon 7e  Arrondissement";"Elem";"ce.0693638e@ac-lyon.fr";"69007";"Ecole primaire privée internationale Le Petit Monde";"Rhône";"89 Rue André Bolier";"Privé";"45.73484686395966";"4.834507423338282"
"Saint-Cyr-au-Mont-d'Or";"Elem";"ce.0693709g@ac-lyon.fr";"69450";"Ecole élémentaire Champlong";"Rhône";"42 Bis Route De Saint-Romain";"Public";"45.81544610198442";"4.828126358291456"
"Villeurbanne";"Elem";"ce.0693724y@ac-lyon.fr";"69100";"Ecole élémentaire Anatole France";"Rhône";"130 Rue Anatole France";"Public";"45.768626586747885";"4.882372240281802"
"Rillieux-la-Pape";"Elem";"ce.0693736l@ac-lyon.fr";"69140";"Ecole élémentaire Les Alagniers";"Rhône";"5 Rue Nicolas Boileau";"Public";"45.81207188607426";"4.888704460617334"
"Lyon 4e  Arrondissement";"Elem";"ce.0693759l@ac-lyon.fr";"69004";"Ecole primaire Des Entrepôts";"Rhône";"2 Rue Des Entrepôts";"Public";"45.77558402995183";"4.810880728547391"
"Bron";"Elem";"ce.0693798d@ac-lyon.fr";"69500";"Ecole élémentaire La Garenne";"Rhône";"26 Rue Jeanne Collay";"Public";"45.74320582307954";"4.913301852220214"
"Rillieux-la-Pape";"Mater";"ce.0693826j@ac-lyon.fr";"69140";"Ecole maternelle Le Mont Blanc";"Rhône";"847 Chemin Du Bois";"Public";"45.81119843443463";"4.892560652528091"
"Lyon 4e  Arrondissement";"Elem";"ce.0693836v@ac-lyon.fr";"69004";"Ecole élémentaire d'application La Fontaine";"Rhône";"2 Place Camille Flammarion";"Public";"45.77914387381933";"4.819938889994538"
"Caluire-et-Cuire";"Elem";"ce.0693841a@ac-lyon.fr";"69300";"Ecole primaire Victor Basch";"Rhône";"184 Chemin Wette Faÿs";"Public";"45.788755348533755";"4.855242531453484"
"Lyon 7e  Arrondissement";"Elem";"ce.0692019v@ac-lyon.fr";"69007";"Ecole primaire privée Notre Dame Saint Joseph";"Rhône";"103 Grand Rue De La Guillotière";"Privé";"45.751458456774664";"4.847674385304726"
"Sainte-Foy-l'Argentière";"Elem";"ce.0692047a@ac-lyon.fr";"69610";"Ecole primaire privée Sainte Marie";"Rhône";"73 Rue Du Moulin Blanc";"Privé";"45.707723709756095";"4.47360107685878"
"Givors";"Mater";"ce.0692259f@ac-lyon.fr";"69700";"Ecole maternelle Romain Rolland";"Rhône";"19 Rue Romain Rolland";"Public";"45.603414114892544";"4.764455620463479"
"Ecully";"Elem";"ce.0692571v@ac-lyon.fr";"69130";"Ecole élémentaire Centre";"Rhône";"12 Rue Benoît Tabard";"Public";"45.774200061571435";"4.77606275660952"
"Villeurbanne";"Elem";"ce.0692609l@ac-lyon.fr";"69100";"Ecole primaire Jacques Prévert";"Rhône";"49 Rue Lafontaine";"Public";"45.76072566829456";"4.878457372288534"
"Belleville-en-Beaujolais";"Elem";"ce.0692613r@ac-lyon.fr";"69220";"Ecole élémentaire Mathieu Dumoulin";"Rhône";"8 Square De La Liberté, St Jean D Ardieres";"Public";"46.11324177386333";"4.737347108100366"
"Brindas";"Mater";"ce.0692617v@ac-lyon.fr";"69126";"Ecole maternelle du Clos";"Rhône";"6 Montée Du Clos";"Public";"45.72065744231392";"4.694899452587343"
"Lyon 8e  Arrondissement";"Elem";"ce.0692744h@ac-lyon.fr";"69008";"Ecole élémentaire Combe Blanche";"Rhône";"4 Rue Paul Cazeneuve";"Public";"45.73847493951988";"4.865961994981742"
"Millery";"Mater";"ce.0692778v@ac-lyon.fr";"69390";"Ecole maternelle du Sentier";"Rhône";"24 Bis Avenue Du Sentier";"Public";"45.63307726602216";"4.782726459358178"
"Craponne";"Mater";"ce.0692804y@ac-lyon.fr";"69290";"Ecole maternelle Philippe Soupault";"Rhône";"191 Ancienne Route De Brindas";"Public";"45.74657845421498";"4.732715520739529"
"Couzon-au-Mont-d'Or";"Elem";"ce.0692826x@ac-lyon.fr";"69270";"Ecole primaire Reverchon";"Rhône";"2 Rue Reverchon";"Public";"45.84287980152999";"4.828899962861773"
"Sérézin-du-Rhône";"Elem";"ce.0692832d@ac-lyon.fr";"69360";"Ecole élémentaire Jean de La Fontaine";"Rhône";"2 Rue Des Ecoles";"Public";"45.62868816829434";"4.825252992475686"
"Lyon 2e  Arrondissement";"Elem";"ce.0692893v@ac-lyon.fr";"69002";"Ecole primaire Lamartine";"Rhône";"2 Rue Jean Fabre";"Public";"45.7601899580201";"4.8325048237948955"
"Villeurbanne";"Elem";"ce.0692978m@ac-lyon.fr";"69100";"Ecole élémentaire Léon Jouhaux";"Rhône";"12 Rue Du Nord";"Public";"45.7636984370423";"4.8820048788846835"
"Lyon 6e  Arrondissement";"Elem";"ce.0693085d@ac-lyon.fr";"69006";"Ecole primaire privée Montessori de Lyon";"Rhône";"8 Rue Barrier";"Privé";"45.766888262631554";"4.85178111938408"
"Saint-Etienne-des-Oullières";"Mater";"ce.0693099u@ac-lyon.fr";"69460";"Ecole maternelle René Dumont";"Rhône";"84 Rue Des Ecoles";"Public";"46.06815969162526";"4.648012184887719"
"Ampuis";"Mater";"ce.0693102x@ac-lyon.fr";"69420";"Ecole maternelle";"Rhône";"15 Boulevard Des Allées";"Public";"45.489258251426946";"4.810590661794415"
"Ampuis";"Elem";"ce.0693103y@ac-lyon.fr";"69420";"Ecole élémentaire";"Rhône";"1 Avenue De La Gare";"Public";"45.48948694539155";"4.811321639169605"
"Lyon 2e  Arrondissement";"Elem";"ce.0693152b@ac-lyon.fr";"69002";"Ecole élémentaire Alix";"Rhône";"36 Rue Smith";"Public";"45.74383879383904";"4.823237947870772"
"Champagne-au-Mont-d'Or";"Elem";"ce.0693153c@ac-lyon.fr";"69410";"Ecole élémentaire Dominique Vincent";"Rhône";"24 Rue Pasteur";"Public";"45.795566985067396";"4.7867846026126575"
"Saint-Lager";"Elem";"ce.0693157g@ac-lyon.fr";"69220";"Ecole primaire";"Rhône";"277 Route Des Brouilly";"Public";"46.11422672275877";"4.6749286799744825"
"Saint-Romain-en-Gal";"Elem";"ce.0693166s@ac-lyon.fr";"69560";"Ecole primaire Les P'tits Romains";"Rhône";"Place De La Mairie";"Public";"45.53567263781867";"4.859000598981075"
"Saint-Bonnet-de-Mure";"Mater";"ce.0693185m@ac-lyon.fr";"69720";"Ecole maternelle Le Chat Perché";"Rhône";"2 Allée Des Châtelaines";"Public";"45.68904263445852";"5.028325987497495"
"Cleppé";"Elem";"ce.0420216g@ac-lyon.fr";"42110";"Ecole primaire ste foy st sulpice cleppe";"Loire";"50 Rue, Le Bourg";"Public";"45.769929398810795";"4.178350587349209"
"Montchal";"Elem";"ce.0420462z@ac-lyon.fr";"42360";"Ecole primaire RPI MONTCHAL COTTANCE";"Loire";"35 Rue De La Mairie";"Public";"45.82684606250412";"4.31545042660672"
"Saint-Jean-Soleymieux";"Elem";"ce.0420736x@ac-lyon.fr";"42560";"Ecole primaire Bourg";"Loire";"58 Route De Marols, Le Bourg";"Public";"45.5028230056956";"4.039739935945666"
"Saint-Julien-d'Oddes";"Elem";"ce.0420740b@ac-lyon.fr";"42260";"Ecole élémentaire Bourg";"Loire";"Le Bourg";"Public";"45.8477776175442";"3.986257179272499"
"Solore-en-Forez";"Elem";"ce.0420755t@ac-lyon.fr";"42130";"Ecole élémentaire Bourg";"Loire";"Le Bourg";"Public";"45.77326204198266";"3.923310370800155"
"Ailleux";"Elem";"ce.0421925p@ac-lyon.fr";"42130";"Ecole Primaire Bourg";"Loire";"2 Place De L'École";"Public";"45.80287320543013";"3.944306379485168"
"Noirétable";"Elem";"ce.0422095z@ac-lyon.fr";"42440";"Ecole primaire Rue de la gare";"Loire";"Rue De La Gare";"Public";"45.816685366694635";"3.761879476116277"
"Marat";"Elem";"ce.0630497y@ac-clermont.fr";"63480";"Ecole primaire";"Puy-de-Dôme";"1 Route Saint Clair, Le Bourg";"Public";"45.65994560665021";"3.683140481398284"
"Oyonnax";"Elem";"ce.0010846p@ac-lyon.fr";"01100";"Ecole primaire privée Saint Joseph";"Ain";"76 Rue Jules Michelet";"Privé";"46.262828758139904";"5.646183878067307"
"Omps";"Elem";"ce.0150163w@ac-clermont.fr";"15290";"Ecole élémentaire";"Cantal";"Le Bourg";"Public";"44.8777500029418";"2.2769300104274612"
"Parlan";"Elem";"ce.0150168b@ac-clermont.fr";"15290";"Ecole élémentaire";"Cantal";"Le Bourg";"Public";"44.828075167711916";"2.172620168788412"
"Paulhac";"Elem";"ce.0150169c@ac-clermont.fr";"15430";"Ecole élémentaire";"Cantal";"Le Bourg";"Public";"45.00660748147017";"2.904390226055102"
"Marcenat";"Elem";"ce.0150219g@ac-clermont.fr";"15190";"Ecole primaire";"Cantal";"13 Place Des Granges, Le Bourg";"Public";"45.30511924281961";"2.8304010196279052"
"Junhac";"Elem";"ce.0150259a@ac-clermont.fr";"15120";"Ecole élémentaire";"Cantal";"Le Bourg";"Public";"44.71464843702381";"2.45337962939061"
"Jussac";"Elem";"ce.0150262d@ac-clermont.fr";"15250";"Ecole élémentaire";"Cantal";"3 Allée Des Pavillons";"Public";"44.98849274650523";"2.421579857310689"
"Ladinhac";"Elem";"ce.0150269l@ac-clermont.fr";"15120";"Ecole élémentaire";"Cantal";"4 Chemin Des Ecoliers, Le Bourg";"Public";"44.75405264858025";"2.509542108101864"
"Cayrols";"Elem";"ce.0150366s@ac-clermont.fr";"15290";"Ecole élémentaire";"Cantal";"Le Bourg";"Public";"44.83086281294789";"2.2335597797386533"
"Chalvignac";"Elem";"ce.0150377d@ac-clermont.fr";"15200";"Ecole élémentaire";"Cantal";"Le Bourg";"Public";"45.24123416853203";"2.2459298822158904"
"Anglards-de-Salers";"Elem";"ce.0150403g@ac-clermont.fr";"15380";"Ecole élémentaire";"Cantal";"Le Bourg";"Public";"45.202633949158695";"2.439309369284174"
"Arpajon-sur-Cère";"Mater";"ce.0150415v@ac-clermont.fr";"15130";"Ecole maternelle";"Cantal";"Place De La République";"Public";"44.90077291902687";"2.4580300519048706"
"Aurillac";"Mater";"ce.0150424e@ac-clermont.fr";"15000";"Ecole maternelle de La Fontaine";"Cantal";"2 Rue Sainte Anne";"Public";"44.93215113696133";"2.4472797795526975"
"Aurillac";"Elem";"ce.0150430l@ac-clermont.fr";"15000";"Ecole élémentaire Le Palais";"Cantal";"15 Place Du Square";"Public";"44.92790494767797";"2.44295019912506"
"Saignes";"Elem";"ce.0150459t@ac-clermont.fr";"15240";"Ecole élémentaire";"Cantal";"17 Rue De L'Hôtel De Ville";"Public";"45.33581363911767";"2.479329387833138"
"Saint-Etienne-de-Maurs";"Elem";"ce.0150481s@ac-clermont.fr";"15600";"Ecole élémentaire";"Cantal";"2 Rue Des Noisetiers, Andral";"Public";"44.71934348474184";"2.208257799592705"
"Salers";"Elem";"ce.0150491c@ac-clermont.fr";"15140";"Ecole élémentaire";"Cantal";"Rue Du Couvent";"Public";"45.1379217174945";"2.4949904383945527"
"Sansac-de-Marmiesse";"Elem";"ce.0150493e@ac-clermont.fr";"15130";"Ecole élémentaire";"Cantal";"1 Route D'Aurillac";"Public";"44.883089139871664";"2.3472695762446323"
"Les Ternes";"Elem";"ce.0150516e@ac-clermont.fr";"15100";"Ecole élémentaire";"Cantal";"Le Bourg";"Public";"44.99693977793012";"3.0143305492535095"
"Vitrac";"Elem";"ce.0150572r@ac-clermont.fr";"15220";"Ecole élémentaire";"Cantal";"Le Bourg";"Public";"44.815162713064616";"2.3148303242398964"
"Pleaux";"Elem";"ce.0150589j@ac-clermont.fr";"15700";"Ecole élémentaire privée Institution Saint Joseph";"Cantal";"63 Place Georges Pompidou";"Privé";"45.13361838151662";"2.2262999425863974"
"Puycapel";"Elem";"ce.0150608e@ac-clermont.fr";"15340";"Ecole élémentaire";"Cantal";"11 Le Mas De Mourjou";"Public";"44.6939997189498";"2.3319290095184173"
"Mauriac";"Elem";"ce.0150610g@ac-clermont.fr";"15200";"Ecole élémentaire";"Cantal";"Rue Du 8 Mai";"Public";"45.21742121061697";"2.335550463935152"
"Aurillac";"Elem";"ce.0150669w@ac-clermont.fr";"15000";"Ecole élémentaire de Canteloube";"Cantal";"26 Rue Pierre Cremont";"Public";"44.90604342702414";"2.4320205660195438"
"Jaleyrac";"Elem";"ce.0150732p@ac-clermont.fr";"15200";"Ecole élémentaire Lavaurs";"Cantal";"Lavaurs";"Public";"45.25051247625123";"2.3495396955136285"
"Buis-les-Baronnies";"Elem";"ce.0260141m@ac-grenoble.fr";"26170";"Ecole publique Buis les Baronnies";"Drôme";"10 Boulevard Henri Barbusse";"Public";"44.277754307531225";"5.272570016534653"
"Chabeuil";"Elem";"ce.0260143p@ac-grenoble.fr";"26120";"Ecole publique Gustave André";"Drôme";"27 Rue Des Ecoles";"Public";"44.89946711951226";"5.015649913938776"
"Chabrillan";"Elem";"ce.0260147u@ac-grenoble.fr";"26400";"Ecole publique Gustave André";"Drôme";"Place De La Porte Du Bayard";"Public";"44.723572167843905";"4.941469645626466"
"Chantemerle-les-Blés";"Elem";"ce.0260157e@ac-grenoble.fr";"26600";"Ecole publique Chantemerle les Blés";"Drôme";"150 A Rue Des Écoles";"Public";"45.112668092676735";"4.897660860205409"
"Charpey";"Elem";"ce.0260164m@ac-grenoble.fr";"26300";"Ecole publique Charpey";"Drôme";"Place De L'Ancienne Mairie, Le Village";"Public";"44.93943429247686";"5.091260637297195"
"Châteaudouble";"Mater";"ce.0260167r@ac-grenoble.fr";"26120";"Ecole maternelle le village";"Drôme";"2 Place De La Fontaine";"Public";"44.899351763982466";"5.095802456821165"
"Châtillon-en-Diois";"Elem";"ce.0260180e@ac-grenoble.fr";"26410";"Ecole publique  Chatillon en Diois";"Drôme";"Place Des Ecoles";"Public";"44.69499218888282";"5.486130351274821"
"Châtillon-Saint-Jean";"Elem";"ce.0260182g@ac-grenoble.fr";"26750";"Ecole publique Chatillon St Jean";"Drôme";"Rue Sainte Cécile";"Public";"45.089451861299224";"5.1324800588944495"
"Curnier";"Elem";"ce.0260213r@ac-grenoble.fr";"26110";"Ecole publique Curnier";"Drôme";"2 Le Planas, Le Village";"Public";"44.38455362236369";"5.235300414737853"
"Espeluche";"Elem";"ce.0260227f@ac-grenoble.fr";"26780";"Ecole publique Espeluche";"Drôme";"Boulevard De La République";"Public";"44.51527475782485";"4.823289531648843"
"Etoile-sur-Rhône";"Elem";"ce.0260231k@ac-grenoble.fr";"26800";"Ecole publique La gare";"Drôme";"20 Bis Chemin Du Chez";"Public";"44.84507096404163";"4.861700367983913"
"Valence";"Elem";"ce.0260242x@ac-grenoble.fr";"26000";"Ecole élémentaire Léo Lagrange";"Drôme";"25 Chemin Saint-Joseph";"Public";"44.920582853972725";"4.888979547950157"
"Montjoyer";"Mater";"ce.0260263v@ac-grenoble.fr";"26230";"Ecole publique Montjoyer";"Drôme";"2 Place Saint Paulin";"Public";"44.47744509984253";"4.853895581783748"
"Montmeyran";"Elem";"ce.0260266y@ac-grenoble.fr";"26120";"Ecole publique Roger Marty";"Drôme";"16 Avenue Du Vercors";"Public";"44.83417237148456";"4.98007972555402"
"Montvendre";"Elem";"ce.0260276j@ac-grenoble.fr";"26120";"Ecole Elémentaire des deux ruisseaux";"Drôme";"1 Place Du Lavoir, Le Village";"Public";"44.871565348854375";"5.022979493151138"
"Le Pègue";"Elem";"ce.0260295e@ac-grenoble.fr";"26770";"Ecole publique Le Pegue";"Drôme";"74 Avenue André Chauvin";"Public";"44.427719365338575";"5.049124392726055"
"Peyrus";"Elem";"ce.0260299j@ac-grenoble.fr";"26120";"Ecole publique Peyrus";"Drôme";"3 Place De La Mairie";"Public";"44.91366018870513";"5.10668525678104"
"Piégros-la-Clastre";"Elem";"ce.0260302m@ac-grenoble.fr";"26400";"Ecole publique Piegros la Clastre";"Drôme";"35 Route De Piégros";"Public";"44.69855042279204";"5.097712904649154"
"Saint-Agnan-en-Vercors";"Elem";"ce.0260382z@ac-grenoble.fr";"26420";"Ecole primaire Rose Jarrand";"Drôme";"2 Place De L'École";"Public";"44.936581353245174";"5.43111746762756"
"Saint-Bardoux";"Elem";"ce.0260387e@ac-grenoble.fr";"26260";"Ecole primaire St Bardoux";"Drôme";"230 D Route De Clérieux";"Public";"45.085106199272886";"4.97209686493837"
"Saint-Gervais-sur-Roubion";"Elem";"ce.0260400u@ac-grenoble.fr";"26160";"Ecole primaire St Gervais sur Roubion";"Drôme";"3 Rue Des Terrasses";"Public";"44.58313265774183";"4.890049640995134"
"Saint-Marcel-lès-Sauzet";"Elem";"ce.0260410e@ac-grenoble.fr";"26740";"Ecole primaire Robert Goulet";"Drôme";"1 Place Des Écoles";"Public";"44.59667606289871";"4.80788947636239"
"Sauzet";"Elem";"ce.0260451z@ac-grenoble.fr";"26740";"Ecole primaire Sauzet";"Drôme";"88 Route De Crest";"Public";"44.60159976468517";"4.819804460168561"
"Tain-l'Hermitage";"Elem";"ce.0260465p@ac-grenoble.fr";"26600";"Ecole primaire Jean Moulin";"Drôme";"50 Avenue Du Vercors";"Public";"45.070110741890225";"4.855930560402571"
"Upie";"Elem";"ce.0260479e@ac-grenoble.fr";"26120";"Ecole primaire Upie";"Drôme";"165 Chemin Des Vieilles";"Public";"44.803459129327365";"4.982690259854709"
"Valence";"Elem";"ce.0260484k@ac-grenoble.fr";"26000";"Ecole élémentaire Condorcet";"Drôme";"20 Rue Marguerite";"Public";"44.925945270676905";"4.887750438277821"
"Alixan";"Elem";"ce.0260532m@ac-grenoble.fr";"26300";"Ecole primaire Albert Merle";"Drôme";"7 Place Des Ecoles";"Public";"44.97317262509462";"5.026119796669721"
"Autichamp";"Elem";"ce.0260558r@ac-grenoble.fr";"26400";"Ecole primaire  Autichamp";"Drôme";"49 Rue De L'École, Le Village";"Public";"44.68204982450907";"4.96621786530716"
"La Baume-d'Hostun";"Elem";"ce.0260567a@ac-grenoble.fr";"26730";"Ecole Victor Boiron";"Drôme";"2 Place De La Mairie";"Public";"45.05585038946034";"5.2266565807025245"
"Beauregard-Baret";"Elem";"ce.0260576k@ac-grenoble.fr";"26300";"Ecole Félicien Chabert";"Drôme";"730 Route Des Orchidées, Le Village";"Public";"44.99657110088754";"5.185538262845922"
"Bésayes";"Elem";"ce.0260590a@ac-grenoble.fr";"26300";"Ecole élémentaire publique";"Drôme";"3 Rue De La Liberté";"Public";"44.96572200557409";"5.077490250884665"
"Anneyron";"Mater";"ce.0260597h@ac-grenoble.fr";"26140";"Ecole maternelle publique Le Petit Prince";"Drôme";"24 Rue Jules Ferry";"Public";"45.27578382736525";"4.8859898204356895"
"Crest";"Mater";"ce.0260605s@ac-grenoble.fr";"26400";"Ecole maternelle Chandeneux";"Drôme";"Rue Claire De Chandeneux";"Public";"44.727549927915355";"5.025640470723426"
"Dieulefit";"Mater";"ce.0260607u@ac-grenoble.fr";"26220";"Ecole maternelle";"Drôme";"Quartier Des Raymonds";"Public";"44.52175809662599";"5.065959397376741"
"Donzère";"Mater";"ce.0260609w@ac-grenoble.fr";"26290";"Ecole maternelle Aiguebelle";"Drôme";"100 Rue D'Aiguebelle";"Public";"44.44114892752835";"4.7117498360109975"
"Montélimar";"Mater";"ce.0260619g@ac-grenoble.fr";"26200";"Ecole maternelle Sarda";"Drôme";"Rue René Char";"Public";"44.560793482058536";"4.736131887158479"
"Nyons";"Mater";"ce.0260620h@ac-grenoble.fr";"26110";"Ecole maternelle Meyne";"Drôme";"Quartier Draye De Meyne";"Public";"44.36171119044204";"5.139149488452249"
"Portes-lès-Valence";"Mater";"ce.0260624m@ac-grenoble.fr";"26800";"Ecole maternelle Anatole France";"Drôme";"2 Rue Paul Langevin";"Public";"44.87166660909631";"4.876599971815819"
"Romans-sur-Isère";"Mater";"ce.0260628s@ac-grenoble.fr";"26100";"Ecole maternelle Jules Nadi";"Drôme";"14 Boulevard Gignier";"Public";"45.04761224028945";"5.06937978211997"
"Tain-l'Hermitage";"Mater";"ce.0260642g@ac-grenoble.fr";"26600";"Ecole maternelle Jules Verne";"Drôme";"145 Rue Louis Pinard";"Public";"45.070968410843676";"4.842239800092644"
"Valence";"Mater";"ce.0260660b@ac-grenoble.fr";"26000";"Ecole maternelle Buisson";"Drôme";"26 Rue Monge";"Public";"44.9126562528295";"4.87975950595293"
"Fay-le-Clos";"Elem";"ce.0260661c@ac-grenoble.fr";"26240";"Ecole Fay le Clos";"Drôme";"32 Place De La Mairie";"Public";"45.213165039720316";"4.905862081625954"
"Génissieux";"Elem";"ce.0260667j@ac-grenoble.fr";"26750";"Ecole Genissieux";"Drôme";"Place Du Champ De Mars";"Public";"45.08472184019607";"5.086149654587709"
"Geyssans";"Elem";"ce.0260669l@ac-grenoble.fr";"26750";"Ecole Geyssans";"Drôme";"30 Place De L'Église";"Public";"45.121515294821826";"5.093539476087324"
"La Laupie";"Elem";"ce.0260697s@ac-grenoble.fr";"26740";"Ecole La Laupie";"Drôme";"Place De La Libération";"Public";"44.6097466133951";"4.847049356156383"
"Lens-Lestang";"Elem";"ce.0260700v@ac-grenoble.fr";"26210";"Ecole Lens Lestang";"Drôme";"270 Rue Des Écoliers";"Public";"45.29375049365634";"5.038989413731661"
"Livron-sur-Drôme";"Elem";"ce.0260707c@ac-grenoble.fr";"26250";"Ecole les Petits Robins";"Drôme";"Rue Gerbault, Les Petits Robins";"Public";"44.80079362576844";"4.817599401896358"
"Livron-sur-Drôme";"Elem";"ce.0260709e@ac-grenoble.fr";"26250";"Ecole St Genys";"Drôme";"Rue Des Ecoles";"Public";"44.806109877259836";"4.865149843210068"
"Montélier";"Elem";"ce.0260757g@ac-grenoble.fr";"26120";"Ecole primaire Mélusine";"Drôme";"Rue De La Chirouze";"Public";"44.9368900334148";"5.02875997693451"
"Valence";"Elem";"ce.0260814u@ac-grenoble.fr";"26000";"Ecole  primaire Saint Félix";"Drôme";"33 Rue Farnerie";"Privé";"44.933739083903326";"4.892469505901087"
"Valence";"Elem";"ce.0260818y@ac-grenoble.fr";"26000";"Ecole  primaire Saint Joseph";"Drôme";"133 Avenue Victor Hugo";"Privé";"44.92415274767305";"4.88798040783489"
"Valence";"Elem";"ce.0260819z@ac-grenoble.fr";"26000";"Ecole  primaire Notre-Dame";"Drôme";"91 Rue Montplaisir";"Privé";"44.930198810305995";"4.910050267123886"
"Beaumont-Monteux";"Elem";"ce.0260826g@ac-grenoble.fr";"26600";"Ecole primaire privée Saint-Joseph";"Drôme";"21 Rue Des Écoles";"Privé";"45.020546060504884";"4.921905961223768"
"Montélimar";"Mater";"ce.0260864y@ac-grenoble.fr";"26200";"Ecole maternelle Pracomtal";"Drôme";"Avenue Stéphane Mallarmé";"Public";"44.55320839317356";"4.722080250071241"
"Saint-Rambert-d'Albon";"Elem";"ce.0260933y@ac-grenoble.fr";"26140";"Ecole  privée Saint François";"Drôme";"4 Rue De La Mairie";"Privé";"45.29103868426874";"4.814400613225044"
"Dieulefit";"Elem";"ce.0260955x@ac-grenoble.fr";"26220";"Ecole publique Le Juncher";"Drôme";"Le Juncher";"Public";"44.52620866783983";"5.065759664693904"
"Epinouze";"Elem";"ce.0260956y@ac-grenoble.fr";"26210";"Ecole primaire G. et R. Bourg";"Drôme";"175 Rue De La Mairie";"Public";"45.30905934815181";"4.927931104245161"
"Pierrelatte";"Elem";"ce.0260964g@ac-grenoble.fr";"26700";"Ecole publique Le Claux";"Drôme";"Avenue Joliot Curie";"Public";"44.37398576432325";"4.698110498505614"
"Romans-sur-Isère";"Elem";"ce.0260971p@ac-grenoble.fr";"26100";"Ecole publique Les Balmes";"Drôme";"2335 Route Les Balmes";"Public";"45.060741832182295";"5.011699976015098"
"Romans-sur-Isère";"Elem";"ce.0260991l@ac-grenoble.fr";"26100";"Ecole publique Lucie et Raymond AUBRAC";"Drôme";"Rue Louis Le Cardonnel";"Public";"45.053631983263";"5.042130032791637"
"Suze-la-Rousse";"Elem";"ce.0261042s@ac-grenoble.fr";"26790";"Ecole primaire Suze la Rousse";"Drôme";"Chemin De La Verdière";"Public";"44.28752612958229";"4.839989793341936"
"La Garde-Adhémar";"Mater";"ce.0261102g@ac-grenoble.fr";"26700";"Ecole maternelle";"Drôme";"255 Allée Sainte Anne";"Public";"44.39466988021145";"4.7550890966171915"
