"commune";"type_ecole";"mail";"code_postal";"nom_etablissement";"departement";"adresse";"statut";"latitude";"longitude"
"Rouen";"Mater";"ce.0760203h@ac-normandie.fr";"76000";"Ecole maternelle Thomas Corneille";"Seine-Maritime";"214 Route De Darnetal";"Public";"49.441721170847956";"1.1189404813462973"
"Rouen";"Elem";"ce.0760205k@ac-normandie.fr";"76000";"Ecole élémentaire Jean de la Fontaine";"Seine-Maritime";"8 Bis Rue Joseph Court";"Public";"49.45067760494365";"1.105395417570714"
"Rouen";"Mater";"ce.0760207m@ac-normandie.fr";"76000";"Ecole maternelle Marie Houdemare";"Seine-Maritime";"13 Rue Du Cordier";"Public";"49.44571902578236";"1.0963187836468509"
"Rouen";"Elem";"ce.0760217y@ac-normandie.fr";"76100";"Ecole élémentaire Jean Mullot";"Seine-Maritime";"16 Rue Jean Mullot";"Public";"49.42692465073531";"1.077753527271981"
"Rouen";"Elem";"ce.0760237v@ac-normandie.fr";"76000";"Ecole élémentaire Le Gouy";"Seine-Maritime";"16 Rue Legouy";"Public";"49.443230146169995";"1.1084036870942984"
"Rouen";"Elem";"ce.0760244c@ac-normandie.fr";"76000";"Ecole élémentaire Marie Houdemare";"Seine-Maritime";"20 Rue Du Beffroy";"Public";"49.44518843186505";"1.0959661133873337"
"Rouen";"Mater";"ce.0760250j@ac-normandie.fr";"76100";"Ecole maternelle Les Fabulettes";"Seine-Maritime";"23 Boulevard D'Orléans";"Public";"49.43654417504008";"1.0807775488426283"
"Rouen";"Mater";"ce.0760256r@ac-normandie.fr";"76000";"Ecole maternelle Marguerite Messier";"Seine-Maritime";"1 Place Marguerite Messier";"Public";"49.458036781409064";"1.130769278381103"
"Rouen";"Mater";"ce.0760259u@ac-normandie.fr";"76100";"Ecole maternelle Marie Pape Carpentier";"Seine-Maritime";"96 Rue Saint Julien";"Public";"49.42706292614024";"1.07740239103841"
"Rouen";"Mater";"ce.0760262x@ac-normandie.fr";"76000";"Ecole maternelle Joséphine Baker";"Seine-Maritime";"6 Rue Du Docteur Seguin";"Public";"49.454781360020306";"1.12611443058339"
"La Remuée";"Elem";"ce.0760270f@ac-normandie.fr";"76430";"Ecole primaire Henri Dès";"Seine-Maritime";"Rue Des Châtaigniers";"Public";"49.52827308554841";"0.411794562563673"
"Rogerville";"Elem";"ce.0760271g@ac-normandie.fr";"76700";"Ecole primaire Edgar Degas";"Seine-Maritime";"7 Rue René Coty";"Public";"49.50346612203366";"0.2671613227986292"
"Tancarville";"Elem";"ce.0760284w@ac-normandie.fr";"76430";"Ecole primaire publique Marie Lebreton";"Seine-Maritime";"Place De L'Eglise";"Public";"49.48767503972137";"0.45221666896829926"
"Critot";"Mater";"ce.0760292e@ac-normandie.fr";"76680";"Ecole maternelle";"Seine-Maritime";"Le Bourg";"Public";"49.60982463673266";"1.2532394323648979"
"Saint-Martin-Osmonville";"Elem";"ce.0760301p@ac-normandie.fr";"76680";"Ecole élémentaire";"Seine-Maritime";"12 Rue Du Stade";"Public";"49.63700873725517";"1.295964452545608"
"Haudricourt";"Elem";"ce.0760334a@ac-normandie.fr";"76390";"Ecole élémentaire";"Seine-Maritime";"275 Rue Des Ecoles";"Public";"49.734208486125276";"1.7069990446236152"
"Illois";"Elem";"ce.0760335b@ac-normandie.fr";"76390";"Ecole élémentaire";"Seine-Maritime";"15 Rue De L'Eglise";"Public";"49.74716961918135";"1.6513316428940457"
"Richemont";"Mater";"ce.0760340g@ac-normandie.fr";"76390";"Ecole maternelle";"Seine-Maritime";"55 Rue Centrale";"Public";"49.81127143998951";"1.6430316005719574"
"Saint-Ouen-le-Mauger";"Mater";"ce.0760372s@ac-normandie.fr";"76730";"Ecole maternelle";"Seine-Maritime";"140 Route Du Manoir De Lestanville";"Public";"49.755350406082464";"0.9623923479449519"
"Dieppe";"Elem";"ce.0760384e@ac-normandie.fr";"76200";"Ecole primaire Louis Vauquelin";"Seine-Maritime";"13 Rue Joseph Brunel";"Public";"49.926393606540024";"1.087023003436514"
"Le Torp-Mesnil";"Elem";"ce.0760425z@ac-normandie.fr";"76560";"Ecole élémentaire";"Seine-Maritime";"367 Rue De La Mairie";"Public";"49.71986444478685";"0.8994640288974179"
"Yvecrique";"Elem";"ce.0760426a@ac-normandie.fr";"76560";"Ecole primaire";"Seine-Maritime";"Rue Des Ecoles";"Public";"49.687932618891956";"0.8100758544952494"
"Darnétal";"Elem";"ce.0760432g@ac-normandie.fr";"76160";"Ecole élémentaire Suzanne Savale";"Seine-Maritime";"127 Rue De Longpaon";"Public";"49.445650115152574";"1.1479901071379786"
"Morville-le-Héron";"Elem";"ce.0760449a@ac-normandie.fr";"76780";"Ecole élémentaire";"Seine-Maritime";"Le Heron";"Public";"49.49447336180529";"1.4075296739296268"
"Martainville-Epreville";"Elem";"ce.0760452d@ac-normandie.fr";"76116";"Ecole élémentaire";"Seine-Maritime";"190 Rue Du Château";"Public";"49.46012202299945";"1.2965330329940719"
"Ry";"Elem";"ce.0760455g@ac-normandie.fr";"76116";"Ecole primaire Sobelman";"Seine-Maritime";"1 Chemin Du Moulin À Cuir";"Public";"49.472029652364554";"1.3470006470021174"
"Saint-Léger-du-Bourg-Denis";"Elem";"ce.0760461n@ac-normandie.fr";"76160";"Ecole élémentaire René Coty II";"Seine-Maritime";"747 Route De Lyons";"Public";"49.432371975869515";"1.1559336374788207"
"Boissay";"Elem";"ce.0760473b@ac-normandie.fr";"76750";"Ecole élémentaire";"Seine-Maritime";"Rue De La Clef Des Champs";"Public";"49.51992109649418";"1.359204640478424"
"Bosville";"Elem";"ce.0760494z@ac-normandie.fr";"76450";"Ecole primaire des Quatre Clochers";"Seine-Maritime";"138 Rue De L'Église";"Public";"49.755036393746245";"0.6913376808169831"
"Butot-Vénesville";"Elem";"ce.0760495a@ac-normandie.fr";"76450";"Ecole élémentaire";"Seine-Maritime";"Hameau Du Nid De Geai";"Public";"49.81146193100589";"0.5899617161847176"
"Paluel";"Elem";"ce.0760504k@ac-normandie.fr";"76450";"Ecole élémentaire des cygnes";"Seine-Maritime";"1 Route De Veulettes";"Public";"49.83513377344532";"0.6261681902378137"
"Grigneuseville";"Elem";"ce.0760546f@ac-normandie.fr";"76850";"Ecole élémentaire";"Seine-Maritime";"Rue De L'Eglise";"Public";"49.65325617039348";"1.1887439617224465"
"Bolbec";"Elem";"ce.0760557t@ac-normandie.fr";"76210";"Ecole élémentaire Jules Verne";"Seine-Maritime";"50 Rue Du 8 Mai 1945";"Public";"49.576557463208125";"0.48128579875637206"
"Bolbec";"Mater";"ce.0760560w@ac-normandie.fr";"76210";"Ecole maternelle Edmée Hatinguais";"Seine-Maritime";"1 Rue Saint-Michel";"Public";"49.57099247068889";"0.47236077708288876"
"Beuzevillette";"Elem";"ce.0760568e@ac-normandie.fr";"76210";"Ecole primaire";"Seine-Maritime";"30 Place De La Mairie";"Public";"49.57113010266798";"0.5361620107139816"
"Bolleville";"Elem";"ce.0760569f@ac-normandie.fr";"76210";"Ecole élémentaire";"Seine-Maritime";"5 Rue Des Ecoles";"Public";"49.59953412223085";"0.563340449048756"
"Rouville";"Elem";"ce.0760580t@ac-normandie.fr";"76210";"Ecole élémentaire le Lin Bleu";"Seine-Maritime";"50 Route De Valmont";"Public";"49.61538307942815";"0.4995525984132665"
"Pierrecourt";"Elem";"ce.0760604u@ac-normandie.fr";"76340";"Ecole élémentaire";"Seine-Maritime";"6 Rue De La Mairie";"Public";"49.892695297087414";"1.6458221782935099"
"Clères";"Elem";"ce.0760612c@ac-normandie.fr";"76690";"Ecole primaire l'Orée du Parc";"Seine-Maritime";"38 Rue Hippolyte Lemarchand";"Public";"49.59928430161069";"1.108912250399587"
"Bosc-Guérard-Saint-Adrien";"Elem";"ce.0760616g@ac-normandie.fr";"76710";"Ecole primaire Françoise Dolto";"Seine-Maritime";"Route De Tendos";"Public";"49.54325866208122";"1.11561235122839"
"La Rue-Saint-Pierre";"Elem";"ce.0760633a@ac-normandie.fr";"76690";"Ecole élémentaire";"Seine-Maritime";"1101 Route De Cailly";"Public";"49.562447897705006";"1.2463962188409736"
"Criquetot-l'Esneval";"Elem";"ce.0760640h@ac-normandie.fr";"76280";"Ecole primaire";"Seine-Maritime";"Route De Turretot";"Public";"49.63098489995883";"0.2595270260236292"
"Bénouville";"Elem";"ce.0760645n@ac-normandie.fr";"76790";"Ecole élémentaire";"Seine-Maritime";"2 Rue Du Beausoleil";"Public";"49.7168219251108";"0.25264431290807104"
"Bordeaux-Saint-Clair";"Elem";"ce.0760646p@ac-normandie.fr";"76790";"Ecole primaire";"Seine-Maritime";"5 Route D'Etretat";"Public";"49.70048596422301";"0.257115319998065"
"Heuqueville";"Elem";"ce.0760654y@ac-normandie.fr";"76280";"Ecole primaire le Colombier";"Seine-Maritime";"47 Rue Du Manoir";"Public";"49.61626914964871";"0.14550430247961868"
"Saint-Martin-du-Bec";"Elem";"ce.0760658c@ac-normandie.fr";"76133";"Ecole primaire";"Seine-Maritime";"18 Route De Croixmare";"Public";"49.60209043505884";"0.21067857643148816"
"Louvetot";"Elem";"ce.0760668n@ac-normandie.fr";"76490";"Ecole primaire";"Seine-Maritime";"976 Route D'Allouville";"Public";"49.57227412735569";"0.7084370466571583"
"Saint-Arnoult";"Elem";"ce.0760673u@ac-normandie.fr";"76490";"Groupe scolaire Henri Dès";"Seine-Maritime";"11 Allée Des Peupliers";"Public";"49.52908615361098";"0.6644003106346036"
"Port-Jérôme-sur-Seine";"Mater";"ce.0760678z@ac-normandie.fr";"76170";"Ecole maternelle Charles Perrault";"Seine-Maritime";"Rue Du Relais, Touffreville La Cable";"Public";"49.52272004459345";"0.6191170205321197"
"Sainte-Agathe-d'Aliermont";"Elem";"ce.0760693r@ac-normandie.fr";"76660";"Ecole élémentaire";"Seine-Maritime";"6 Grand Rue De Normandie";"Public";"49.819022740961195";"1.3557557850696973"
"Baillolet";"Mater";"ce.0760701z@ac-normandie.fr";"76660";"Ecole maternelle";"Seine-Maritime";"Rue De L'Ecole";"Public";"49.79412283791144";"1.4378486158054589"
"Heugleville-sur-Scie";"Elem";"ce.0760717s@ac-normandie.fr";"76720";"Ecole élémentaire";"Seine-Maritime";"31 A Rue De L'Eglise";"Public";"49.7304050903867";"1.097966392348646"
"Lillebonne";"Elem";"ce.0760730f@ac-normandie.fr";"76170";"Ecole élémentaire Glatigny";"Seine-Maritime";"Place Pierre De Coubertin";"Public";"49.518200742404375";"0.5331075942480803"
"Port-Jérôme-sur-Seine";"Elem";"ce.0760733j@ac-normandie.fr";"76170";"Ecole élémentaire Les Charmilles";"Seine-Maritime";"4 Rue Du Bourg, Auberville La Campagne";"Public";"49.53271263297873";"0.600262824152703"
"Port-Jérôme-sur-Seine";"Elem";"ce.0760743v@ac-normandie.fr";"76330";"Ecole élémentaire Professeur Roux";"Seine-Maritime";"Rue Maurice Ravel, Notre-Dame-De-Gravenchon";"Public";"49.492392106935796";"0.5795438208817616"
"Saint-Antoine-la-Forêt";"Elem";"ce.0760745x@ac-normandie.fr";"76170";"Ecole élémentaire Maurice Leblanc";"Seine-Maritime";"221 Rue Pomone";"Public";"49.533352199628624";"0.47360759820029563"
"Petiville";"Elem";"ce.0760751d@ac-normandie.fr";"76330";"Ecole primaire Antoine de Saint-Exupéry";"Seine-Maritime";"4 Rue De L'Ecole";"Public";"49.46261578872637";"0.5865829514134842"
"Ménonval";"Elem";"ce.0760769y@ac-normandie.fr";"76270";"Ecole élémentaire";"Seine-Maritime";"1 Rue De L'Ecole";"Public";"49.7719718568937";"1.4926750966286204"
"La Vaupalière";"Elem";"ce.0760880u@ac-normandie.fr";"76150";"L'école du Séquoïa";"Seine-Maritime";"Rue De L'Eglise";"Public";"49.48809525454524";"0.996453228258986"
"Emanville";"Elem";"ce.0760918k@ac-normandie.fr";"76570";"Ecole primaire des Bleuets";"Seine-Maritime";"223 Route De Sainte-Austreberthe";"Public";"49.6198477067279";"0.9606503358731803"
"Fresquiennes";"Elem";"ce.0760919l@ac-normandie.fr";"76570";"Ecole primaire des Marronniers";"Seine-Maritime";"1 Rue Du Centre";"Public";"49.56415731801559";"1.0048602072517197"
"Pavilly";"Elem";"ce.0760927v@ac-normandie.fr";"76570";"Ecole élémentaire Pierre et Marie Curie";"Seine-Maritime";"7 Rue De La Vierge";"Public";"49.56547225313198";"0.9463112640370648"
"Saint-Ouen-du-Breuil";"Elem";"ce.0760933b@ac-normandie.fr";"76890";"Ecole primaire des Trois Villages";"Seine-Maritime";"Le Bourg";"Public";"49.63708161133709";"1.0092903237900945"
"Barentin";"Mater";"ce.0760934c@ac-normandie.fr";"76360";"Ecole maternelle Marie Pape-Carpentier";"Seine-Maritime";"8 Rue Francis Yard";"Public";"49.54503801350213";"0.9551871252299816"
"Val-de-Scie";"Elem";"ce.0760987k@ac-normandie.fr";"76720";"Ecole élémentaire Jean Quesnay";"Seine-Maritime";"19 Rue Jules Ferry, Auffay / Bp 23";"Public";"49.71802379921921";"1.1022981421629108"
"Beauval-en-Caux";"Mater";"ce.0760988l@ac-normandie.fr";"76890";"Ecole maternelle";"Seine-Maritime";"Route Du Tortillard";"Public";"49.74361163326555";"1.0195777454906696"
"Val-de-Saâne";"Elem";"ce.0761007g@ac-normandie.fr";"76890";"Ecole élémentaire Guy de Maupassant";"Seine-Maritime";"Place Jéhan Le Povremoyne";"Public";"49.70404544233294";"0.9634460372453577"
"Vassonville";"Elem";"ce.0761009j@ac-normandie.fr";"76890";"Ecole élémentaire";"Seine-Maritime";"55 Impasse Bellevue";"Public";"49.69395035657628";"1.0918189380195382"
"Angerville-la-Martel";"Elem";"ce.0761013n@ac-normandie.fr";"76540";"Ecole primaire";"Seine-Maritime";"Route De L'Eglise";"Public";"49.76155197819557";"0.5017793159231794"
"Eletot";"Elem";"ce.0761018u@ac-normandie.fr";"76540";"Ecole primaire";"Seine-Maritime";"Rue De L'Eglise";"Public";"49.78784412007408";"0.4519595192225007"
"Riville";"Mater";"ce.0761021x@ac-normandie.fr";"76540";"Ecole maternelle Leroux";"Seine-Maritime";"2 Rue Du Bosc Aux Moines";"Public";"49.724748657577734";"0.5613417666624272"
"Theuville-aux-Maillots";"Elem";"ce.0761030g@ac-normandie.fr";"76540";"Ecole élémentaire";"Seine-Maritime";"Route De Sassetot";"Public";"49.76539718362001";"0.5397607655575556"
"Thiétreville";"Elem";"ce.0761032j@ac-normandie.fr";"76540";"Ecole élémentaire";"Seine-Maritime";"5 Rue De La Mairie";"Public";"49.710546963518325";"0.5056993445700916"
"Bourdainville";"Elem";"ce.0761040t@ac-normandie.fr";"76760";"Ecole élémentaire Commandant Berthet";"Seine-Maritime";"1 Place De La Mairie";"Public";"49.6748354825341";"0.9456880972652314"
"Saussay";"Mater";"ce.0761054h@ac-normandie.fr";"76760";"Ecole maternelle";"Seine-Maritime";"Place De La Mairie";"Public";"49.63368279025025";"0.9388502413103764"
"Les Hauts-de-Caux";"Elem";"ce.0761061r@ac-normandie.fr";"76190";"Ecole primaire";"Seine-Maritime";"5 Allée Des Tisserands, Autretot";"Public";"49.6500953558817";"0.728295812094532"
"Maromme";"Mater";"ce.0761074e@ac-normandie.fr";"76150";"Ecole maternelle Thérèse Delbos";"Seine-Maritime";"2 Mail Louise Michel";"Public";"49.47759378803028";"1.0391699568650647"
"Le Houlme";"Mater";"ce.0761094b@ac-normandie.fr";"76770";"Ecole maternelle Jean Picart Le Doux";"Seine-Maritime";"79 Rue Du Général De Gaulle";"Public";"49.50547698152304";"1.0404423201906874"
"Montigny";"Elem";"ce.0761100h@ac-normandie.fr";"76380";"Ecole élémentaire";"Seine-Maritime";"Rue Des Champs";"Public";"49.45986848023683";"1.0009135933582591"
"Déville-lès-Rouen";"Mater";"ce.0761120e@ac-normandie.fr";"76250";"Ecole maternelle Ernest Crétay";"Seine-Maritime";"3 Rue René Schwach";"Public";"49.47054976432509";"1.0516503174437637"
"Montivilliers";"Elem";"ce.0761123h@ac-normandie.fr";"76290";"Ecole élémentaire Jules Ferry";"Seine-Maritime";"2 Place Jules Ferry";"Public";"49.54636946674897";"0.19140986784323355"
"Le Havre";"Mater";"ce.0761131s@ac-normandie.fr";"76610";"Ecole maternelle Jehan de Grouchy";"Seine-Maritime";"13 Avenue D'Arromanches";"Public";"49.50717984346841";"0.17895005750682721"
"Le Havre";"Elem";"ce.0761132t@ac-normandie.fr";"76610";"Ecole élémentaire Jehan de Grouchy I";"Seine-Maritime";"13 Avenue D'Arromanches";"Public";"49.50717984346841";"0.17895005750682721"
"Saint-Riquier-ès-Plains";"Elem";"ce.0761163b@ac-normandie.fr";"76460";"Ecole primaire";"Seine-Maritime";"141 Rue Du Four Banal";"Public";"49.82309146191576";"0.6656192608287874"
"Le Petit-Quevilly";"Elem";"ce.0761194k@ac-normandie.fr";"76140";"Ecole élémentaire Louis Pasteur";"Seine-Maritime";"10 Rue Louis Pasteur";"Public";"49.43124861594471";"1.062715334099734"
"Le Grand-Quevilly";"Mater";"ce.0761205x@ac-normandie.fr";"76120";"Ecole maternelle Louis Pasteur";"Seine-Maritime";"28 Rue Louis Pasteur";"Public";"49.41722544576547";"1.0339974220685997"
"Le Havre";"Mater";"ce.0761233c@ac-normandie.fr";"76620";"Ecole maternelle Stendhal";"Seine-Maritime";"128 Rue Stendhal";"Public";"49.520715371981225";"0.07889120423247034"
"Le Havre";"Mater";"ce.0761237g@ac-normandie.fr";"76600";"Ecole maternelle Alphonse de Lamartine";"Seine-Maritime";"5 Rue Des Raffineries";"Public";"49.49188483178064";"0.14159760365142487"
"Le Havre";"Elem";"ce.0761240k@ac-normandie.fr";"76600";"Ecole primaire Jacques Cassard";"Seine-Maritime";"61 Rue Massillon";"Public";"49.49888009814515";"0.13840698552019562"
"Le Havre";"Mater";"ce.0761246s@ac-normandie.fr";"76600";"Ecole maternelle les Douanes";"Seine-Maritime";"2 Rue De Tourville";"Public";"49.49606382839422";"0.12353581627237617"
"Le Havre";"Mater";"ce.0761249v@ac-normandie.fr";"76600";"Ecole maternelle Edouard Herriot";"Seine-Maritime";"5 Rue Arthur Honegger";"Public";"49.487751611600146";"0.10399841761896159"
"Le Havre";"Mater";"ce.0761252y@ac-normandie.fr";"76620";"Ecole maternelle Jules Guesde";"Seine-Maritime";"45 Rue De Fontaine La Mallet";"Public";"49.51782671987422";"0.1231187704737396"
"Le Havre";"Mater";"ce.0761254a@ac-normandie.fr";"76600";"Ecole maternelle Mailleraye";"Seine-Maritime";"39 Rue Victor Hugo";"Public";"49.491900667370125";"0.1030716283863847"
"Le Havre";"Mater";"ce.0761257d@ac-normandie.fr";"76600";"Ecole maternelle Percanville";"Seine-Maritime";"15 Rue Jérôme Bellarmato";"Public";"49.48941188239179";"0.11481969972039148"
"Le Havre";"Mater";"ce.0761263k@ac-normandie.fr";"76620";"Ecole maternelle Renaissance";"Seine-Maritime";"79 Rue Edmond Rostand";"Public";"49.515106871483795";"0.11149582543643836"
"Brémontier-Merval";"Elem";"ce.0761273w@ac-normandie.fr";"76220";"Ecole élémentaire";"Seine-Maritime";"83 Rue Du Bois-Mallard";"Public";"49.5060012550519";"1.609345224094823"
"Montroty";"Mater";"ce.0761282f@ac-normandie.fr";"76220";"Ecole maternelle";"Seine-Maritime";"Place De L'Eglise";"Public";"49.43818107405453";"1.666041901216152"
"Fécamp";"Elem";"ce.0761288m@ac-normandie.fr";"76400";"Ecole élémentaire du Port";"Seine-Maritime";"22 Rue Gustave Nicole";"Public";"49.7569201931815";"0.36951695932157774"
"Fécamp";"Elem";"ce.0761291r@ac-normandie.fr";"76400";"Ecole élémentaire Albert Camus";"Seine-Maritime";"2 Rue Paul Doumer";"Public";"49.75096936599274";"0.3699520682474063"
"Forges-les-Eaux";"Mater";"ce.0761297x@ac-normandie.fr";"76440";"Ecole maternelle Marguerite Couturier";"Seine-Maritime";"8 Rue Beaufils";"Public";"49.61308421195824";"1.5417436804538673"
"Le Havre";"Mater";"ce.0761316t@ac-normandie.fr";"76610";"Ecole maternelle Edouard Vaillant I";"Seine-Maritime";"18 Rue Charles Delescluze";"Public";"49.516423079953064";"0.17432512029866298"
"Cléville";"Elem";"ce.0761381n@ac-normandie.fr";"76640";"Ecole élémentaire";"Seine-Maritime";"40 Route Du Moulin";"Public";"49.62107701160272";"0.617407219356282"
"Hattenville";"Elem";"ce.0761385t@ac-normandie.fr";"76640";"Ecole primaire Célestin Freinet";"Seine-Maritime";"Le Bourg";"Public";"49.65109812649984";"0.5363693769437592"
"Angiens";"Elem";"ce.0761395d@ac-normandie.fr";"76740";"Ecole élémentaire";"Seine-Maritime";"19 Rue D'Iclon";"Public";"49.83004995938807";"0.7931958665536462"
"Ermenouville";"Mater";"ce.0761403m@ac-normandie.fr";"76740";"Ecole maternelle";"Seine-Maritime";"Route De La Croix De Realcan";"Public";"49.79737787779887";"0.7876310559195957"
"Annouville-Vilmesnil";"Elem";"ce.0761440c@ac-normandie.fr";"76110";"Ecole élémentaire";"Seine-Maritime";"4 Rue De La Mairie";"Public";"49.67746422818715";"0.43297700387993254"
"Bréauté";"Elem";"ce.0761447k@ac-normandie.fr";"76110";"Ecole primaire Henri Blanc";"Seine-Maritime";"8 Rue René Coty";"Public";"49.62799179207458";"0.3987388787721585"
"Saint-Maclou-la-Brière";"Elem";"ce.0761459y@ac-normandie.fr";"76110";"Ecole élémentaire les Hirondelles";"Seine-Maritime";"Le Bourg";"Public";"49.65434897637349";"0.46538030178823914"
"Vattetot-sous-Beaumont";"Elem";"ce.0761464d@ac-normandie.fr";"76110";"Ecole élémentaire Germaine Coty";"Seine-Maritime";"1 Rue Des Ecoles";"Public";"49.624762476988074";"0.44639270356903027"
"Epinay-sur-Duclair";"Elem";"ce.0761472m@ac-normandie.fr";"76480";"Ecole primaire Denise Carpentier";"Seine-Maritime";"Le Bourg";"Public";"49.52389105755332";"0.8347395134158397"
"Le Mesnil-sous-Jumièges";"Elem";"ce.0761479v@ac-normandie.fr";"76480";"Ecole primaire les Abeilles";"Seine-Maritime";"1140 Route Du Manoir";"Public";"49.412017246435965";"0.8584712920262381"
"Sotteville-sous-le-Val";"Elem";"ce.0761529z@ac-normandie.fr";"76410";"Ecole primaire Hergé";"Seine-Maritime";"115 Rue Du Village";"Public";"49.32016281087348";"1.1230867259760524"
"Elbeuf";"Mater";"ce.0761534e@ac-normandie.fr";"76500";"Ecole maternelle Raymonde Lefrançois";"Seine-Maritime";"178 Rue Pétou";"Public";"49.28888467313516";"0.9988849438962978"
"Gisors";"Elem";"ce.0270161d@ac-normandie.fr";"27140";"Ecole élémentaire Jean Moulin";"Eure";"6 Rue Du Général De Gaulle";"Public";"49.27973705729333";"1.7786001818969426"
"Les Hogues";"Elem";"ce.0270182b@ac-normandie.fr";"27910";"Ecole élémentaire";"Eure";"1 Rue Des Ecoles";"Public";"49.423715996019794";"1.3979301679142815"
"Berville-la-Campagne";"Elem";"ce.0270202y@ac-normandie.fr";"27170";"Ecole élémentaire";"Eure";"3 Rue De L'Eglise";"Public";"49.02660982238354";"0.9011497948877347"
"Combon";"Elem";"ce.0270204a@ac-normandie.fr";"27170";"Ecole primaire les Pommiers";"Eure";"15 Rue De La Mairie";"Public";"49.09663432219322";"0.8888804750178483"
"Romilly-la-Puthenaye";"Elem";"ce.0270216n@ac-normandie.fr";"27170";"Ecole élémentaire";"Eure";"1 Rue De L'Ecole";"Public";"49.00209303222595";"0.847190123576824"
"Mesnil-en-Ouche";"Elem";"ce.0270236k@ac-normandie.fr";"27410";"Ecole primaire la Clé des Champs";"Eure";"Landepereuse";"Public";"49.00422777037867";"0.6381906192595346"
"Berthouville";"Elem";"ce.0270271y@ac-normandie.fr";"27800";"Ecole élémentaire";"Eure";"Rue De La Mairie";"Public";"49.17711523184986";"0.6313000975234958"
"Brétigny";"Elem";"ce.0270274b@ac-normandie.fr";"27800";"Ecole élémentaire";"Eure";"Le Bourg";"Public";"49.21311532625354";"0.6746694280858336"
"Grand-Camp";"Elem";"ce.0270302g@ac-normandie.fr";"27270";"Ecole élémentaire";"Eure";"Le Bourg";"Public";"49.04564314358145";"0.5279896441899183"
"Saint-Aubin-du-Thenney";"Elem";"ce.0270308n@ac-normandie.fr";"27270";"Ecole primaire intercommunale";"Eure";"140 Route Des Froctiers";"Public";"49.0209458904725";"0.4879473514783633"
"Villiers-en-Désoeuvre";"Elem";"ce.0270363y@ac-normandie.fr";"27640";"Ecole primaire";"Eure";"11 Rue Des Tourelles";"Public";"48.94882318380038";"1.4874505240373372"
"Mousseaux-Neuville";"Elem";"ce.0270392e@ac-normandie.fr";"27220";"Ecole primaire";"Eure";"3 Rue Des Ecoles";"Public";"48.908373620933794";"1.3455594251022902"
"La Harengère";"Elem";"ce.0270403s@ac-normandie.fr";"27370";"Ecole primaire";"Eure";"8 Rue De La Mairie";"Public";"49.23105726643478";"0.9951196723840656"
"La Saussaye";"Mater";"ce.0270416f@ac-normandie.fr";"27370";"Ecole maternelle Louis Pasteur";"Eure";"1 Rue Gustave Hue";"Public";"49.26063469886048";"0.977309700378367"
"Louviers";"Elem";"ce.0270465j@ac-normandie.fr";"27400";"Ecole primaire Jules Ferry";"Eure";"17 Place Du Champ De Ville";"Public";"49.21053014719636";"1.1641964542701941"
"Pinterville";"Elem";"ce.0270471r@ac-normandie.fr";"27400";"Ecole primaire Le Pré Vert";"Eure";"Rue Du Docteur Schweitzer";"Public";"49.19267581126832";"1.1801796284474693"
"Les Andelys";"Elem";"ce.0270543u@ac-normandie.fr";"27700";"Ecole primaire Marcel Lefèvre";"Eure";"2 Rue Louis Pasteur";"Public";"49.24604245268204";"1.4233893869155025"
"Courcelles-sur-Seine";"Elem";"ce.0270553e@ac-normandie.fr";"27940";"Ecole primaire Claude Monet";"Eure";"8 Rue Des Champs";"Public";"49.184939980509476";"1.364999482438548"
"Notre-Dame-de-l'Isle";"Elem";"ce.0270566u@ac-normandie.fr";"27940";"Ecole élémentaire les Hirondelles";"Eure";"12 Rue Du Clos Galy";"Public";"49.15916691036222";"1.4421795944338096"
"Martot";"Elem";"ce.0270639y@ac-normandie.fr";"27340";"Ecole primaire";"Eure";"6 Rue De La Mairie";"Public";"49.2937963071533";"1.0649003617788322"
"Fiquefleur-Equainville";"Elem";"ce.0270663z@ac-normandie.fr";"27210";"Ecole élémentaire";"Eure";"1833 Route De La Morelle";"Public";"49.39316814911053";"0.30811660642631145"
"Morainville-Jouveaux";"Elem";"ce.0270685y@ac-normandie.fr";"27260";"Ecole élémentaire";"Eure";"Le Village";"Public";"49.22207139147129";"0.4450900291945907"
"Condé-sur-Risle";"Elem";"ce.0270697l@ac-normandie.fr";"27290";"Ecole primaire la Petite Condéenne";"Eure";"Le Village";"Public";"49.31437125021366";"0.613869499941526"
"Saint-Mards-de-Blacarville";"Elem";"ce.0270731y@ac-normandie.fr";"27500";"Ecole primaire Maxime Marchand";"Eure";"Mare De La Rue";"Public";"49.37864382814391";"0.520139920002877"
"Saint-Symphorien";"Elem";"ce.0270732z@ac-normandie.fr";"27500";"Ecole élémentaire";"Eure";"Le Village";"Public";"49.31490940129107";"0.4655000050506366"
"Saint-Aubin-sur-Quillebeuf";"Elem";"ce.0270749t@ac-normandie.fr";"27680";"Ecole primaire";"Eure";"5 Rue De L'Ecole";"Public";"49.46125185211457";"0.5264694914988544"
"Le Landin";"Elem";"ce.0270780b@ac-normandie.fr";"27350";"Ecole élémentaire";"Eure";"L'Eglise";"Public";"49.40244902806857";"0.7994400928814761"
"Breteuil";"Elem";"ce.0270807f@ac-normandie.fr";"27160";"Ecole primaire Guy de Maupassant";"Eure";"225 Rue Jules Ferry, Breteuil Sur Iton";"Public";"48.84080794699968";"0.9084897115695753"
"Beaubray";"Elem";"ce.0270821w@ac-normandie.fr";"27190";"Ecole élémentaire";"Eure";"Rue Du Moulin À Vent";"Public";"48.911776483801304";"0.9136063682208326"
"Nogent-le-Sec";"Mater";"ce.0270840s@ac-normandie.fr";"27190";"Ecole maternelle intercommunale";"Eure";"3 Rue Du Chesne";"Public";"48.92089280730749";"1.003389788401597"
"Courdemanche";"Elem";"ce.0270868x@ac-normandie.fr";"27320";"Ecole élémentaire";"Eure";"12 Rue Des Ecoles";"Public";"48.80548676280969";"1.2853704951301728"
"Marcilly-la-Campagne";"Elem";"ce.0270874d@ac-normandie.fr";"27320";"Ecole primaire";"Eure";"2 Rue Des Ecoles";"Public";"48.8325418378228";"1.2006196396797606"
"Rugles";"Elem";"ce.0270903k@ac-normandie.fr";"27250";"Ecole primaire";"Eure";"11 Rue De La Chenotière";"Public";"48.818225597000726";"0.7106614418539888"
"Tillières-sur-Avre";"Elem";"ce.0270917a@ac-normandie.fr";"27570";"Ecole primaire";"Eure";"3 Rue Des Ecoles";"Public";"48.759069205907956";"1.0548093859973955"
"Pressagny-l'Orgueilleux";"Elem";"ce.0270944e@ac-normandie.fr";"27510";"Ecole primaire les Ecureuils";"Eure";"11 Rue Aux Huards";"Public";"49.13206586813691";"1.4454899862599815"
"Vexin-sur-Epte";"Elem";"ce.0270947h@ac-normandie.fr";"27510";"Ecole primaire Tourny";"Eure";"21 Rue Aval, Tourny";"Public";"49.18260504253103";"1.546159471240887"
"Fontaine-Bellenger";"Elem";"ce.0270961y@ac-normandie.fr";"27600";"Ecole primaire";"Eure";"7 Place Etienne Lemeilleur";"Public";"49.1844326388811";"1.262789568486549"
"Saint-Etienne-sous-Bailleul";"Mater";"ce.0270972k@ac-normandie.fr";"27920";"Ecole maternelle";"Eure";"Rue Claude Monet";"Public";"49.12116069367786";"1.398819434785342"
"Les Trois Lacs";"Elem";"ce.0270980u@ac-normandie.fr";"27940";"Ecole primaire Venables";"Eure";"Place De La Libération, Venables";"Public";"49.20039440923818";"1.2964229923304862"
"La Chapelle-Longueville";"Elem";"ce.0270988c@ac-normandie.fr";"27950";"Ecole primaire Thomas Pesquet";"Eure";"3 Bis Place De L'Eglise, Saint-Just";"Public";"49.108581149596205";"1.4405398776596041"
"Vernon";"Elem";"ce.0271006x@ac-normandie.fr";"27200";"Ecole primaire Le Moussel";"Eure";"28 Place Du Moussel";"Public";"49.084693149150105";"1.4954294651167805"
"Etrépagny";"Mater";"ce.0271010b@ac-normandie.fr";"27150";"Ecole maternelle";"Eure";"7 Rue Lavoisier";"Public";"49.310961951241325";"1.6137405399912539"
"Les Monts du Roumois";"Mater";"ce.0271139s@ac-normandie.fr";"27520";"Ecole maternelle Anne Sylvestre";"Eure";"71 Route Du Ranger, Bosguerard-De-Marcouville";"Public";"49.270249817498296";"0.8363927980574627"
"Bouquelon";"Elem";"ce.0271140t@ac-normandie.fr";"27500";"Ecole primaire de l'Estuaire";"Eure";"50 Chemin De Roqueron";"Public";"49.39821299811515";"0.4762999053206155"
"Toutainville";"Elem";"ce.0271156k@ac-normandie.fr";"27500";"Ecole primaire Gaston Boudet";"Eure";"Rue Maurice Rabasse";"Public";"49.36342375827331";"0.46148053007557577"
"Evreux";"Elem";"ce.0271198f@ac-normandie.fr";"27000";"Ecole primaire privée Saint Jean";"Eure";"Rue Jean Bart";"Privé";"49.02595045338726";"1.1712899736947266"
"Le Vaudreuil";"Elem";"ce.0271206p@ac-normandie.fr";"27100";"Ecole primaire privée Saint Henri";"Eure";"9 Cour Du Chenil";"Privé";"49.25970376085507";"1.21292014199933"
"Pont-Audemer";"Elem";"ce.0271209t@ac-normandie.fr";"27500";"Ecole primaire privée Sacré-C?ur";"Eure";"17 Rue Sadi Carnot";"Privé";"49.35650561595339";"0.5131904689423626"
"Verneuil d'Avre et d'Iton";"Elem";"ce.0271215z@ac-normandie.fr";"27130";"Ecole primaire privée Saint Nicolas";"Eure";"266 Rue Gambetta, Verneuil-Sur-Avre";"Privé";"48.73826308829302";"0.9227095596146003"
"Vernon";"Elem";"ce.0271220e@ac-normandie.fr";"27200";"Ecole primaire privée Jeanne d'Arc";"Eure";"22 Avenue Pierre Mendès France";"Privé";"49.089958877361624";"1.483151808256968"
"Coudray";"Mater";"ce.0271226l@ac-normandie.fr";"27150";"Ecole maternelle intercommunale";"Eure";"24 Rue De La Mairie";"Public";"49.33739705927346";"1.5050401450719664"
"Boisset-les-Prévanches";"Elem";"ce.0271252p@ac-normandie.fr";"27120";"Ecole primaire";"Eure";"4 Rue De L'Ecole";"Public";"48.967312882065364";"1.3287603930226992"
"Saint-Etienne-du-Vauvray";"Elem";"ce.0271257v@ac-normandie.fr";"27430";"Ecole primaire";"Eure";"23 Rue Nationale";"Public";"49.2457800846463";"1.2193405433021458"
"Boissy-Lamberville";"Elem";"ce.0271265d@ac-normandie.fr";"27300";"Ecole primaire La mare autour";"Eure";"33 Route Du Lieuvin, Le Moulin";"Public";"49.16245908155169";"0.5780352903605829"
"Vernon";"Elem";"ce.0271266e@ac-normandie.fr";"27200";"Ecole élémentaire Maxime Marchand";"Eure";"59 Rue De Saint Marcel";"Public";"49.0899948313162";"1.4597402636579149"
"Gauciel";"Elem";"ce.0271274n@ac-normandie.fr";"27930";"Ecole primaire";"Eure";"9 Rue De La Mairie";"Public";"49.03403032902621";"1.2422603698095727"
"Pont-Audemer";"Elem";"ce.0271294k@ac-normandie.fr";"27500";"Ecole primaire Louis Pergaud";"Eure";"Avenue De L'Europe";"Public";"49.35131125752665";"0.5262105973669328"
"Le Vaudreuil";"Mater";"ce.0271298p@ac-normandie.fr";"27100";"Ecole maternelle les Tilleuls";"Eure";"1 Place Des Tilleuls";"Public";"49.25808209648422";"1.2063502743257943"
"Le Tronquay";"Elem";"ce.0271304w@ac-normandie.fr";"27480";"Ecole élémentaire Nicolas Brémontier";"Eure";"1 Avenue Brémontier";"Public";"49.42596621420662";"1.4761856086860843"
"Le Perrey";"Elem";"ce.0271314g@ac-normandie.fr";"27500";"Ecole primaire Saint Ouen des Champs";"Eure";"Saint Ouen Des Champs";"Public";"49.39165107018289";"0.5391930188587927"
"Saint-Pierre-du-Vauvray";"Elem";"ce.0271342m@ac-normandie.fr";"27430";"Ecole élémentaire";"Eure";"9 Rue Gourdon";"Public";"49.229483157414045";"1.222179707057866"
"Thiberville";"Elem";"ce.0271411m@ac-normandie.fr";"27230";"Ecole élémentaire";"Eure";"Place Des Ecoles";"Public";"49.136136871882776";"0.4579895650784468"
"Saint-Pierre-du-Vauvray";"Mater";"ce.0271436p@ac-normandie.fr";"27430";"Ecole maternelle";"Eure";"30 Rue Gourdon";"Public";"49.23030106345021";"1.2219703368296506"
"La Haye-Malherbe";"Elem";"ce.0271487v@ac-normandie.fr";"27400";"Ecole primaire le Village";"Eure";"Place De La Mairie";"Public";"49.223350620836186";"1.06579993022233"
"Léry";"Elem";"ce.0271519e@ac-normandie.fr";"27690";"Ecole élémentaire";"Eure";"14 Rue Jules Ferry";"Public";"49.2866210713076";"1.2075295699453619"
"Léry";"Mater";"ce.0271521g@ac-normandie.fr";"27690";"Ecole maternelle les Emotelles";"Eure";"Rue Des Emotelles";"Public";"49.29193132887078";"1.203579868080574"
"Le Val d'Hazey";"Elem";"ce.0271522h@ac-normandie.fr";"27940";"Ecole élémentaire Grand Charlemagne";"Eure";"32 Rue De La Chartreuse, Aubevoye";"Public";"49.170993399731366";"1.3403299382249754"
"Flipou";"Elem";"ce.0271564d@ac-normandie.fr";"27380";"Ecole élémentaire";"Eure";"17 Rue De La Mairie";"Public";"49.31246395649752";"1.2801094069722534"
"Le Manoir";"Mater";"ce.0271574p@ac-normandie.fr";"27460";"Ecole maternelle Yannick Bayart";"Eure";"Rue Des Flandres";"Public";"49.31174603550113";"1.2009704187095418"
"Guiseniers";"Elem";"ce.0271594l@ac-normandie.fr";"27700";"Ecole primaire";"Eure";"10 Rue Robert Duchainay";"Public";"49.21389028991416";"1.4757197343564292"
"Mesnils-sur-Iton";"Elem";"ce.0271675z@ac-normandie.fr";"27240";"Ecole primaire de Buis sur Damville";"Eure";"2 Rue Des Palombes, Buis Sur Damville";"Public";"48.86356503396887";"1.0722755815792837"
"Saint-Georges-du-Vièvre";"Elem";"ce.0271684j@ac-normandie.fr";"27450";"Ecole primaire";"Eure";"Route De Lieurey";"Public";"49.24385067689158";"0.5793699640362379"
"Pacy-sur-Eure";"Elem";"ce.0271690r@ac-normandie.fr";"27120";"Ecole primaire Louis Duguay";"Eure";"Route De Dreux, Saint-Aquilin-De-Pacy";"Public";"49.01026704125646";"1.379190152982311"
"Ormes";"Elem";"ce.0271722a@ac-normandie.fr";"27190";"Ecole élémentaire";"Eure";"Le Village";"Public";"49.05258671321092";"0.9619306572949406"
"Poses";"Elem";"ce.0271736r@ac-normandie.fr";"27740";"Ecole primaire Jules Ferry";"Eure";"88 Rue Des Masures";"Public";"49.30425635917958";"1.2454102919673093"
"Berville-sur-Mer";"Mater";"ce.0271740v@ac-normandie.fr";"27210";"Ecole maternelle Jacques Rueff";"Eure";"28 Rue De La République";"Public";"49.428369018573065";"0.3607165460600584"
"La Vieille-Lyre";"Mater";"ce.0271759r@ac-normandie.fr";"27330";"Ecole maternelle";"Eure";"7 Rue Saint-Pierre";"Public";"48.917620045298634";"0.7499899398226101"
"Val-de-Reuil";"Elem";"ce.0271804p@ac-normandie.fr";"27100";"Ecole élémentaire Louise Michel";"Eure";"Voie Marmaille";"Public";"49.265826063684585";"1.2197695016143726"
"Fleury-sur-Andelle";"Elem";"ce.0271817d@ac-normandie.fr";"27380";"Ecole élémentaire";"Eure";"1 Rue Raymond Bisson";"Public";"49.36103275585209";"1.3556093249712522"
"Le Val d'Hazey";"Mater";"ce.0271822j@ac-normandie.fr";"27940";"Ecole maternelle le Petit Charlemagne";"Eure";"30 Rue De La Chartreuse, Aubevoye";"Public";"49.1707447520569";"1.3395794944811417"
"Verneuil d'Avre et d'Iton";"Elem";"ce.0271823k@ac-normandie.fr";"27130";"Ecole élémentaire Condorcet-Mérimée";"Eure";"300 Rue Gustave Roger, Verneuil-Sur-Avre / Bp 245";"Public";"48.739615025918305";"0.9337299824044585"
"Evreux";"Elem";"ce.0271826n@ac-normandie.fr";"27000";"Ecole primaire Maxime Marchand";"Eure";"2 Rue Anatole France";"Public";"49.00773670175941";"1.1562205653503344"
"Sannerville";"Elem";"ce.0140797r@ac-normandie.fr";"14940";"Ecole primaire";"Calvados";"5 Place Des Bambins, Sannerville";"Public";"49.18177369987137";"-0.2234892491035017"
"Mézidon Vallée d'Auge";"Elem";"ce.0140868t@ac-normandie.fr";"14140";"Ecole primaire de Crèvecoeur en Auge";"Calvados";"61 Rue Des Boucheries, Crevecoeur-En-Auge";"Public";"49.117808234635405";"0.018156866895884326"
"Les Monts du Roumois";"Elem";"ce.0271515a@ac-normandie.fr";"27520";"Ecole primaire Charles Perrault";"Eure";"87 Rue Des Ecoles, Berville-En-Roumois";"Public";"49.29716578650134";"0.8242536159269381"
"Condé-sur-Vire";"Elem";"ce.0501729h@ac-normandie.fr";"50890";"Ecole élémentaire Condé-sur-Vire";"Manche";"14 Rue Des Ecoles";"Public";"49.05401516032151";"-1.0323195264287484"
"Cerisy-Belle-Etoile";"Elem";"ce.0610394x@ac-normandie.fr";"61100";"Ecole élémentaire";"Orne";"47 Route De Flers, Le Bourg";"Public";"48.79624276066582";"-0.626534575083706"
"Sées";"Elem";"primaire@croixdesvents.com";"61500";"Ecole primaire privée Saint-Joseph";"Orne";"55 Rue Rue D'Argentre";"Privé";"48.6058881391419";"0.1820095185003826"
"Yport";"Elem";"ce.0761589p@ac-normandie.fr";"76111";"Ecole primaire Georges Brassens";"Seine-Maritime";"66 Rue Charles De Gaulle";"Public";"49.73671584555943";"0.31641744610052325"
"Mont-Saint-Aignan";"Elem";"ce.0762928v@ac-normandie.fr";"76130";"Ecole élémentaire Albert Camus";"Seine-Maritime";"Boulevard André Siegfried";"Public";"49.45750187026099";"1.0640413603091101"
"Nonancourt";"Elem";"ce.0271260y@ac-normandie.fr";"27320";"Ecole primaire de Nonancourt";"Eure";"7A Rue De L'Appel Du 18 Juin 1940";"Public";"48.769071424420545";"1.2003148551331018"
"Le Vieil-Evreux";"Mater";"ce.0271589f@ac-normandie.fr";"27930";"Ecole maternelle Les Matern'Ailes";"Eure";"22 Rue Du Jonctier";"Public";"49.005100098695515";"1.2299086193582982"
"Vire Normandie";"Elem";"ce.0141094n@ac-normandie.fr";"14500";"Ecole primaire Jacques Prévert";"Calvados";"3 Rue De L'École, Truttemer Le Grand";"Public";"48.783188976799664";"-0.8177093293855189"
"Malherbe-sur-Ajon";"Elem";"ce.0140808c@ac-normandie.fr";"14260";"Ecole élémentaire";"Calvados";"Bourg, Le Bourg";"Public";"49.06269384839675";"-0.5689796373873752"
"Trouville-sur-Mer";"Elem";"ce.0140964x@ac-normandie.fr";"14360";"Ecole primaire Louis Delamare";"Calvados";"Hameau D'Hennequeville, Chemin Des Frémonts";"Public";"49.366909026848504";"0.08489501729657174"
"Dialan sur Chaîne";"Elem";"ce.0140982s@ac-normandie.fr";"14260";"Ecole primaire";"Calvados";"2 Rue Des Ecoles";"Public";"49.01928220176209";"-0.7404096739871995"
"Les Monts d'Aunay";"Elem";"ce.0140988y@ac-normandie.fr";"14260";"Ecole primaire Maurice Carème";"Calvados";"Route De Condé, Plessis-Grimoult (Le)";"Public";"48.96380387907438";"-0.6107897908515191"
"Valdallière";"Elem";"ce.0141082a@ac-normandie.fr";"14410";"Ecole primaire de Viessoix";"Calvados";"9 Rue Simone Veil, Viessoix";"Public";"48.84053112162882";"-0.7985886708712991"
"Giberville";"Elem";"ce.0141381a@ac-normandie.fr";"14730";"Ecole primaire Louis Aragon";"Calvados";"15 Rue Elsa Triolet";"Public";"49.18459740794735";"-0.2762499359385433"
"Hérouville-Saint-Clair";"Elem";"ce.0141386f@ac-normandie.fr";"14200";"Ecole primaire Pierre Gringoire";"Calvados";"501 Boulevard Des Belles Portes";"Public";"49.20129975224451";"-0.3266293814896753"
"Ifs";"Elem";"ce.0141389j@ac-normandie.fr";"14123";"Ecole primaire Simone Veil";"Calvados";"7 Boulevard Des Violettes";"Public";"49.1576916926906";"-0.3484901652138981"
"Luc-sur-Mer";"Elem";"ce.0141437l@ac-normandie.fr";"14530";"Ecole primaire privée Sainte Marie";"Calvados";"11 Avenue Foch";"Privé";"49.31474836383807";"-0.35630054836791336"
"Urville";"Elem";"ce.0141449z@ac-normandie.fr";"14190";"Ecole élémentaire privée Notre-Dame";"Calvados";"15 Rue De Barbery";"Privé";"49.02548929926302";"-0.2994197303702507"
"Caen";"Elem";"ce.0141473a@ac-normandie.fr";"14000";"Ecole élémentaire privée  cours Sacré Coeur";"Calvados";"191 Rue D'Auge";"Privé";"49.17509772885285";"-0.33870939490446866"
"Hermanville-sur-Mer";"Elem";"ce.0141578p@ac-normandie.fr";"14880";"Ecole primaire";"Calvados";"Rue Des Ecoles";"Public";"49.286128355759324";"-0.31386008350408756"
"Luc-sur-Mer";"Elem";"ce.0141580s@ac-normandie.fr";"14530";"Ecole primaire Eric Tabarly";"Calvados";"27 Rue Foch";"Public";"49.31303330788461";"-0.35552979247852035"
"Louvigny";"Elem";"ce.0141587z@ac-normandie.fr";"14111";"Ecole primaire";"Calvados";"Place François Mitterrand";"Public";"49.157065460045835";"-0.3925292123788115"
"Mathieu";"Elem";"ce.0141591d@ac-normandie.fr";"14920";"Ecole élémentaire Pierre Rasse";"Calvados";"Rue Des Ecoles";"Public";"49.25475042261448";"-0.3720400088957566"
"Hérouville-Saint-Clair";"Elem";"ce.0141604t@ac-normandie.fr";"14200";"Ecole primaire Jean Boisard";"Calvados";"917 Quartier De La Grande Delle";"Public";"49.206814736392225";"-0.33547962492712224"
"La Rivière-Saint-Sauveur";"Elem";"ce.0141650t@ac-normandie.fr";"14600";"Ecole primaire";"Calvados";"Route De Rouen";"Public";"49.407278647514154";"0.2740404554651253"
"Rots";"Mater";"ce.0141719t@ac-normandie.fr";"14980";"Ecole maternelle Les Roseaux";"Calvados";"Chemin Des Ecoles";"Public";"49.205870724626635";"-0.47660033533238366"
"Fresné-la-Mère";"Elem";"ce.0141845e@ac-normandie.fr";"14700";"Ecole primaire";"Calvados";"Bourg Le Bourg";"Public";"48.89566737952207";"-0.12051992307651418"
"Honfleur";"Elem";"ce.0141851l@ac-normandie.fr";"14600";"Ecole élémentaire Samuel de Champlain";"Calvados";"Rue Samuel De Champlain";"Public";"49.39831801550593";"0.24730942193738537"
"Ver-sur-Mer";"Elem";"ce.0141947r@ac-normandie.fr";"14114";"Ecole primaire Saint Exupéry";"Calvados";"4 Place Byrd";"Public";"49.33713963898581";"-0.5257402813411886"
"Saint-Contest";"Mater";"ce.0141960e@ac-normandie.fr";"14280";"Ecole maternelle Jean de La Fontaine";"Calvados";"8 Rue Du Jeu De Paume";"Public";"49.21460960666299";"-0.39932037270379267"
"Caen";"Elem";"ce.0141965k@ac-normandie.fr";"14000";"Ecole primaire Paul Gernez";"Calvados";"20 Rue Paul Gernez";"Public";"49.193565712704874";"-0.38254012719320996"
"Bayeux";"Elem";"ce.0142147h@ac-normandie.fr";"14400";"Ecole primaire Bellevue";"Calvados";"Rue Bellefontaine";"Public";"49.2683263313044";"-0.6881598805475926"
"Caen";"Elem";"ce.0142148j@ac-normandie.fr";"14000";"Ecole élémentaire Cinq Continents";"Calvados";"12 Rue Réné Duchez";"Public";"49.20247189919242";"-0.38223970946874414"
"Perrières";"Mater";"ce.0142155s@ac-normandie.fr";"14170";"Ecole maternelle";"Calvados";"Bourg, Lebourg";"Public";"48.958767297778266";"-0.13521981794032764"
"Le Molay-Littry";"Elem";"ce.0142174m@ac-normandie.fr";"14330";"Ecole primaire";"Calvados";"Rue De La Fossé Frandemiche";"Public";"49.23970009598951";"-0.8831294018678996"
"Brionne";"Mater";"ce.0270065z@ac-normandie.fr";"27800";"Ecole maternelle Georges Brassens";"Eure";"Rue Du Maréchal Leclerc";"Public";"49.1944383912484";"0.7222241740920622"
"Evreux";"Mater";"ce.0270071f@ac-normandie.fr";"27000";"Ecole maternelle Pablo Picasso";"Eure";"9 Rue Cité Nouvelle";"Public";"49.013053116756154";"1.1566197763724786"
"Evreux";"Elem";"ce.0270098k@ac-normandie.fr";"27000";"Ecole élémentaire Isambard";"Eure";"71 Rue Isambard";"Public";"49.030746606481465";"1.1506501215389875"
"Evreux";"Elem";"ce.0270107v@ac-normandie.fr";"27000";"Ecole primaire Jean Macé";"Eure";"16 Rue D'Artois";"Public";"49.03303023112889";"1.1372673626653975"
"Evreux";"Elem";"ce.0270111z@ac-normandie.fr";"27000";"Ecole élémentaire La Forêt";"Eure";"35 Rue De La Forêt";"Public";"49.0113872209861";"1.1596582948276182"
"Evreux";"Elem";"ce.0270114c@ac-normandie.fr";"27000";"Ecole élémentaire Jacques Cartier";"Eure";"1 Rue Jacques Cartier, Netreville";"Public";"49.02667092537071";"1.1754894667652387"
"Arnières-sur-Iton";"Elem";"ce.0270124n@ac-normandie.fr";"27180";"Ecole primaire";"Eure";"12 Rue Aristide Briand";"Public";"48.99622204044888";"1.1055306582605209"
"Caugé";"Elem";"ce.0270129u@ac-normandie.fr";"27180";"Ecole primaire";"Eure";"1 Route De Claville";"Public";"49.02495398049628";"1.033920603098962"
"Cérences";"Elem";"ce.0500226z@ac-normandie.fr";"50510";"Ecole primaire Jacques Prévert";"Manche";"31 Rue De La Gare";"Public";"48.91821082806783";"-1.433800172441475"
"Longueville";"Elem";"ce.0500232f@ac-normandie.fr";"50290";"Ecole élémentaire Jean Moulin";"Manche";"1 Place Du Bourg";"Public";"48.8532123852316";"-1.5511397695824216"
"Saint-Planchers";"Elem";"ce.0500416f@ac-normandie.fr";"50400";"Ecole primaire Henri Dès";"Manche";"102 Rue Des Écoles, Lebourg";"Public";"48.82518061268805";"-1.5253098284037379"
"Yquelon";"Elem";"ce.0500417g@ac-normandie.fr";"50400";"Ecole primaire Jean Moulin";"Manche";"36 Avenue De L'Europe";"Public";"48.845083674787396";"-1.5580805020470645"
"Couville";"Elem";"ce.0500515n@ac-normandie.fr";"50690";"Ecole primaire";"Manche";"15 Route De L'Eglise";"Public";"49.55345714536195";"-1.6845293728740063"
"Digosville";"Elem";"ce.0500516p@ac-normandie.fr";"50110";"Ecole primaire Roger MARNEFFE-LEBREQUIER";"Manche";"3 Rue Des Ecoles";"Public";"49.63206508047487";"-1.5265899038447586"
"Virandeville";"Elem";"ce.0500529d@ac-normandie.fr";"50690";"Ecole primaire";"Manche";"Rue Le Bourg";"Public";"49.56934872307674";"-1.7274902562238665"
"Cherbourg-en-Cotentin";"Elem";"ce.0501681f@ac-normandie.fr";"50120";"Ecole primaire Léon Blum";"Manche";"Avenue Léon Blum, Equeurdreville Hainnevill";"Public";"49.64635539496092";"-1.6620302314428295"
"Saint-Pierre-Eglise";"Mater";"ce.0501692t@ac-normandie.fr";"50330";"Ecole maternelle";"Manche";"Rue Du Général Leclerc";"Public";"49.670822318202816";"-1.4050903167647044"
"La Lande-d'Airou";"Elem";"ce.0501695w@ac-normandie.fr";"50800";"Ecole primaire";"Manche";"Le Bourg";"Public";"48.81690563343657";"-1.2895703230019449"
"La Hague";"Elem";"ce.0501733m@ac-normandie.fr";"50440";"Ecole primaire Auderville";"Manche";"58B Rue De L'Église Saint-Gilles, Auderville";"Public";"49.7094453250703";"-1.931987866496468"
"Yvetot-Bocage";"Elem";"ce.0501748d@ac-normandie.fr";"50700";"Ecole primaire";"Manche";"124 Rue De L'École";"Public";"49.49001768113054";"-1.5054408316723056"
"Coutances";"Elem";"ce.0501834x@ac-normandie.fr";"50200";"Ecole primaire Jules Verne";"Manche";"Rue Saint-Maur";"Public";"49.04936710539916";"-1.4455703064085617"
"Cherbourg-en-Cotentin";"Elem";"directrice@ecole-sainte-famille50.fr";"50120";"Ecole de la Sainte Famille";"Manche";"62 Rue Du Général De Gaulle, Equeurdreville Hainnevill";"Privé";"49.65874418316703";"-1.6771840248258765"
"Saint-Lô";"Elem";"ce.0502013s@ac-normandie.fr";"50000";"SAMUEL BECKETT";"Manche";"Impasse Du Docteur Schweitzer";"Public";"49.114718225232714";"-1.0727111042943818"
"Grandcamp-Maisy";"Elem";"ce.0140204w@ac-normandie.fr";"14450";"Ecole primaire Jean Marion";"Calvados";"Place De La République";"Public";"49.38754486342283";"-1.0401400112627792"
"Tour-en-Bessin";"Elem";"ce.0140280d@ac-normandie.fr";"14400";"Ecole primaire Victor Paquet";"Calvados";"11 Rue Des Ecoles, Lebourg";"Public";"49.295294181965204";"-0.7821195605634972"
"Bellengreville";"Elem";"ce.0140285j@ac-normandie.fr";"14370";"Ecole primaire";"Calvados";"2 Rue Léonard Gille";"Public";"49.126195848983514";"-0.21511055329999829"
"Fresney-le-Puceux";"Elem";"ce.0140328f@ac-normandie.fr";"14680";"Ecole primaire";"Calvados";"Rue Des Ecoles";"Public";"49.064213206091054";"-0.3714202268426129"
"Mézidon Vallée d'Auge";"Elem";"ce.0140335n@ac-normandie.fr";"14270";"Ecole primaire du val Laizon";"Calvados";"7 Rue De La Nouvelle Ecole, Magny-La-Campag";"Public";"49.050174980562";"-0.10469052026049135"
"Maizières";"Elem";"ce.0140337r@ac-normandie.fr";"14190";"Ecole primaire";"Calvados";"Bourg, Le Bourg";"Public";"49.01622294076591";"-0.16069951073196748"
"Saint-Germain-le-Vasson";"Elem";"ce.0140343x@ac-normandie.fr";"14190";"Ecole élémentaire Jean Moulin";"Calvados";"Bourg, Le Bourg";"Public";"48.99943509761481";"-0.30127947584839965"
"Saint-Laurent-de-Condel";"Elem";"ce.0140345z@ac-normandie.fr";"14220";"Ecole primaire de la Forêt";"Calvados";"4 Rue De Verdun";"Public";"49.04093690738434";"-0.4190597880033407"
"Saint-Sylvain";"Elem";"ce.0140346a@ac-normandie.fr";"14190";"Ecole primaire";"Calvados";"2 Rue Aux Morices";"Public";"49.05769335054857";"-0.21837046054015474"
"Mondeville";"Elem";"ce.0140363u@ac-normandie.fr";"14120";"Ecole primaire Paul Langevin";"Calvados";"Rue Du 19 Mars 1962";"Public";"49.166497152438";"-0.3250493972108129"
"Caen";"Elem";"ce.0140384s@ac-normandie.fr";"14000";"Ecole primaire Fernand Léger";"Calvados";"6 Rue Fernand Léger";"Public";"49.18669701458128";"-0.3853596856426407"
"Caen";"Elem";"ce.0140435x@ac-normandie.fr";"14000";"Ecole élémentaire Victor Lesage";"Calvados";"2 Rue Gustave Flaubert";"Public";"49.1712677084723";"-0.34752969261958927"
"Bretteville-sur-Odon";"Elem";"ce.0140440c@ac-normandie.fr";"14760";"Ecole primaire les Odons";"Calvados";"Avenue Du Soleil";"Public";"49.16781601744894";"-0.4126596409789112"
"Le Fresne-Camilly";"Elem";"ce.0140459y@ac-normandie.fr";"14480";"Ecole primaire";"Calvados";"Rue Des Canadiens";"Public";"49.25452425657673";"-0.4870605757142834"
"Dives-sur-Mer";"Mater";"ce.0140467g@ac-normandie.fr";"14160";"Ecole maternelle Hastings";"Calvados";"15 Rue D'Hastings";"Public";"49.28809089095464";"-0.0982899679827418"
"Cambremer";"Elem";"ce.0140550x@ac-normandie.fr";"14340";"Ecole primaire Victor Hugo";"Calvados";"Rue De Verdun";"Public";"49.1521506773703";"0.04767009691283392"
"Bénouville";"Elem";"ce.0140571v@ac-normandie.fr";"14970";"Ecole primaire Jean et Marie Deschamps";"Calvados";"3 Rue Du Grand Clos";"Public";"49.24306719933433";"-0.2778794194414897"
"Eterville";"Elem";"ce.0140611n@ac-normandie.fr";"14930";"Ecole primaire";"Calvados";"Rue Binet";"Public";"49.14426317775012";"-0.4253100155755161"
"Sainte-Honorine-du-Fay";"Elem";"ce.0140626e@ac-normandie.fr";"14210";"Ecole élémentaire";"Calvados";"Rue Des Ecoles";"Public";"49.07449399282801";"-0.4917100814138454"
"Epaney";"Elem";"ce.0140685u@ac-normandie.fr";"14170";"Ecole élémentaire";"Calvados";"Rue Des Ecoles";"Public";"48.953078837020385";"-0.16275055631506455"
"Olendon";"Elem";"ce.0140698h@ac-normandie.fr";"14170";"Ecole élémentaire";"Calvados";"24 Rue De La Roche";"Public";"48.96420223849305";"-0.1693294321648928"
"Mondrainville";"Elem";"ce.0140744h@ac-normandie.fr";"14210";"Ecole primaire Edwards-Griffiths";"Calvados";"12 Rue De L'Avenir";"Public";"49.1382132192068";"-0.5179301524103315"
"Emiéville";"Elem";"ce.0140780x@ac-normandie.fr";"14630";"Ecole primaire";"Calvados";"15 Rue Du Manoir";"Public";"49.153243993637716";"-0.22333961290144858"
"Escoville";"Elem";"ce.0140781y@ac-normandie.fr";"14850";"Ecole primaire Jules Vernes";"Calvados";"22 A Rue De Troarn";"Public";"49.21033564597481";"-0.2376039811755087"
"Le Pin";"Elem";"ce.0140830b@ac-normandie.fr";"14590";"Ecole primaire";"Calvados";"Bourg, Lebourg";"Public";"49.21087227063029";"0.33518950865887015"
"La Boissière";"Elem";"ce.0140832d@ac-normandie.fr";"14340";"Ecole primaire Vincent Auriol";"Calvados";"Bourg, Lebourg";"Public";"49.1364036853655";"0.1294699707053097"
"Valorbiquet";"Elem";"ce.0140901d@ac-normandie.fr";"14290";"Ecole primaire de Saint Cyr du Ronceray";"Calvados";"3 Route Des Calvados";"Public";"49.05125138621779";"0.29688993411479137"
"Saint-Pierre-en-Auge";"Elem";"ce.0140927g@ac-normandie.fr";"14140";"Ecole primaire Ammeville";"Calvados";"500 Route Du Cht Gaultier Ammeville, L'Oudon";"Public";"48.93746000200332";"0.038940507430027214"
"Saint-Arnoult";"Elem";"ce.0140955m@ac-normandie.fr";"14800";"Ecole primaire de Saint Arnoult";"Calvados";"Place André Chotard";"Public";"49.337505944014694";"0.09256956159278192"
"Les Monts d'Aunay";"Mater";"ce.0140972f@ac-normandie.fr";"14260";"Ecole maternelle Daniel Burtin";"Calvados";"2 Bis Rue De Courvaudon";"Public";"49.01909702638173";"-0.6302495619425216"
"Lisieux";"Elem";"ce.0141393n@ac-normandie.fr";"14100";"Ecole primaire Saint-Exupéry 3";"Calvados";"2 Avenue Guillaume Le Conquérant";"Public";"49.142701181824265";"0.25052025166966435"
"Thury-Harcourt-le-Hom";"Elem";"ce.0141403z@ac-normandie.fr";"14220";"Ecole primaire Paul Heroult";"Calvados";"17 Boulevard Des Champs Ste Catherine";"Public";"48.98094373082011";"-0.47370982828054237"
"Saint-Etienne-la-Thillaye";"Elem";"ce.0141531n@ac-normandie.fr";"14950";"Ecole primaire";"Calvados";"Le Bourg";"Public";"49.27871076007843";"0.10905066538282804"
"Mondeville";"Mater";"ce.0141647p@ac-normandie.fr";"14120";"Ecole maternelle Les Tilleuls";"Calvados";"Place Des Tilleuls";"Public";"49.18400462394717";"-0.31126974651252015"
"Saint-Martin-de-May";"Elem";"ce.0142087t@ac-normandie.fr";"14320";"Ecole primaire Edmond Lejeune";"Calvados";"Rue Saint André, May Sur Orne";"Public";"49.10184607028288";"-0.3762097367681633"
"Flers";"Mater";"ce.0610078d@ac-normandie.fr";"61100";"Ecole maternelle Roland";"Orne";"96 Rue De Domfront";"Public";"48.74479594541232";"-0.5704903280573808"
"L'Aigle";"Mater";"ce.0610082h@ac-normandie.fr";"61300";"Ecole maternelle Galleron";"Orne";"9 Rue Frédéric Galleron";"Public";"48.76214984560538";"0.6274402084395515"
"Saint-Martin-d'Ecublei";"Elem";"ce.0610287f@ac-normandie.fr";"61300";"Ecole primaire";"Orne";"Rue Des Coquelicots";"Public";"48.792172194439864";"0.6740196069468714"
"Ecorcei";"Elem";"ce.0610445c@ac-normandie.fr";"61270";"Ecole élémentaire";"Orne";"Le Bourg";"Public";"48.72112421357922";"0.5793205823963802"
"Gouffern en Auge";"Elem";"ce.0610451j@ac-normandie.fr";"61310";"Ecole primaire Exmes";"Orne";"Exmes";"Public";"48.76064938442911";"0.17817058808645767"
"La Ferté-en-Ouche";"Elem";"ce.0610457r@ac-normandie.fr";"61550";"Ecole primaire Claude Monet";"Orne";"15 Route De L'Aigle";"Public";"48.8411794567578";"0.5152604692721849"
"La Ferrière-Bochard";"Elem";"ce.0610459t@ac-normandie.fr";"61420";"Ecole primaire des sources";"Orne";"La Billardiere";"Public";"48.41209621272905";"-0.028850642968260305"
"Tinchebray-Bocage";"Elem";"ce.0610472g@ac-normandie.fr";"61800";"Ecole primaire de la Clé des Champs (Frênes)";"Orne";"10 Rue De La Clef Des Champs, Fresnes";"Public";"48.785616764099046";"-0.6803100750232443"
"La Ferté-en-Ouche";"Elem";"ce.0610477m@ac-normandie.fr";"61550";"Ecole élémentaire Henri Matisse";"Orne";"2390 Route Fertoise, Gauville";"Public";"48.82853336502888";"0.5528393161775677"
"Hauterive";"Elem";"ce.0610487y@ac-normandie.fr";"61250";"Ecole primaire des Trois Rives";"Orne";"71 Rue Des Petits Champs";"Public";"48.47539570236873";"0.19840978192583333"
"L'Aigle";"Elem";"ce.0610499l@ac-normandie.fr";"61300";"Ecole primaire André Mazeline";"Orne";"1 Rue Marcel Guiet";"Public";"48.76628447522118";"0.6299799509518526"
"Merlerault-le-Pin";"Mater";"ce.0610529u@ac-normandie.fr";"61240";"Ecole maternelle Jeanne Morin";"Orne";"1 Route De Montmarcé, Le Merlerault";"Public";"48.69956745745979";"0.275096411939796"
"Montsecret-Clairefougère";"Elem";"ce.0610541g@ac-normandie.fr";"61800";"Ecole élémentaire Des Coquelicots (Montsecret)";"Orne";"14  Rue Grande Rue (Montsecret)";"Public";"48.79656535620514";"-0.677230408986042"
"Nécy";"Elem";"ce.0610549r@ac-normandie.fr";"61160";"Ecole primaire";"Orne";"3 Rue De L'Ecole";"Public";"48.8324531637874";"-0.11729959011858716"
"Saint-Clair-de-Halouze";"Mater";"ce.0610590k@ac-normandie.fr";"61490";"Ecole maternelle  Les Minoiseaux";"Orne";"La Mine";"Public";"48.688737449898674";"-0.6227298729630678"
"Saint-Germain-de-la-Coudre";"Elem";"ce.0610606c@ac-normandie.fr";"61130";"Ecole des Cormiers";"Orne";"6 Rue Du Clos";"Public";"48.2797828031758";"0.6022596549844138"
"La Selle-la-Forge";"Elem";"ce.0610657h@ac-normandie.fr";"61100";"Ecole primaire des écureuils";"Orne";"12 Rue Du Houlme";"Public";"48.7322312774256";"-0.5430596819526742"
"Putanges-le-Lac";"Elem";"ce.0610802r@ac-normandie.fr";"61210";"Ecole primaire Putanges Pont Ecrépin";"Orne";"Rue Giovannoni, Putanges Pont Ecrepin";"Public";"48.762893349075064";"-0.24649438255746736"
"Ceaucé";"Elem";"ce.0610803s@ac-normandie.fr";"61330";"Ecole primaire Lancelot du Lac";"Orne";"32 Rue D'Ambrières";"Public";"48.49135888010306";"-0.6247695641520903"
"Alençon";"Elem";"ce.0610843k@ac-normandie.fr";"61000";"Ecole primaire privée Notre-Dame de Lancrel";"Orne";"49 Rue De Lancrel";"Privé";"48.43407046811832";"0.08334031205837734"
"Alençon";"Elem";"ce.0610845m@ac-normandie.fr";"61000";"Ecole primaire privée Notre-Dame de L'Assomption";"Orne";"Rue Victor Hugo";"Privé";"48.41913168237762";"0.09147970426582373"
"Tinchebray-Bocage";"Elem";"ce.0610846n@ac-normandie.fr";"61800";"Ecole primaire privée Saint Joseph (Tinchebray)";"Orne";"9 Boulevard Du Midi";"Privé";"48.762437072567984";"-0.7346798821871241"
"Flers";"Elem";"ce.0610851u@ac-normandie.fr";"61100";"Ecole primaire privée les Oisillons";"Orne";"72 Rue Du Mont Saint Michel";"Privé";"48.74028109332549";"-0.5903701365107302"
"Le Mêle-sur-Sarthe";"Elem";"ce.0610858b@ac-normandie.fr";"61170";"Ecole primaire privée Saint Joseph";"Orne";"5 Cour Du Château";"Privé";"48.51032168856317";"0.35413036865463693"
"Argentan";"Elem";"ce.0610873t@ac-normandie.fr";"61200";"Ecole primaire privée Jeanne d'Arc";"Orne";"10 Rue Du Collège";"Privé";"48.74649582181229";"-0.012690108087742362"
"Rives d'Andaine";"Elem";"ce.0610886g@ac-normandie.fr";"61140";"Ecole primaire privée Sacré-Coeur (La Chapelle-d'Andaine)";"Orne";"13 Rue De Domfront, La Chapelle-D'Andaine";"Privé";"48.533024606913976";"-0.48012022163863394"
"Carrouges";"Elem";"ce.0610889k@ac-normandie.fr";"61320";"Ecole primaire privée Sacré-Coeur";"Orne";"16 Bis Rue Du Chapitre";"Privé";"48.56652995437021";"-0.14667961865602702"
"Mortagne-au-Perche";"Elem";"ce.0610893p@ac-normandie.fr";"61400";"Ecole primaire privée Bignon";"Orne";"3 Rue De La Comédie, Bp 4";"Privé";"48.520493368611646";"0.5497503338673491"
"Ciral";"Elem";"ce.0610914m@ac-normandie.fr";"61320";"Ecole primaire";"Orne";"Le Bourg";"Public";"48.494579704929535";"-0.13836061251756596"
"Passais Villages";"Elem";"ce.0610947y@ac-normandie.fr";"61350";"Ecole primaire André Morel (Passais la Conception)";"Orne";"10 Rue Du Collège";"Public";"48.51705272009319";"-0.7610800132766051"
"Juvigny Val d'Andaine";"Elem";"ce.0610967v@ac-normandie.fr";"61140";"Ecole primaire Yves Duteil Juvigny sous Andaine";"Orne";"3 Impasse Des Sports";"Public";"48.551659489566475";"-0.5072495637298159"
"Val-au-Perche";"Elem";"ce.0610969x@ac-normandie.fr";"61260";"Ecole primaire André-Barbet (Le Theil)";"Orne";"4 Avenue Des Loges, Le Theil";"Public";"48.26436288479475";"0.6862795378060392"
"Rânes";"Elem";"ce.0610984n@ac-normandie.fr";"61150";"Ecole primaire";"Orne";"11  Rue Des Escholiers";"Public";"48.64225162205438";"-0.2099699414900735"
"Saint-Germain-du-Corbéis";"Elem";"ce.0611053n@ac-normandie.fr";"61000";"Ecole primaire";"Orne";"2 Rue Du Stade";"Public";"48.422601666319906";"0.0637698476625905"
"Ecouché-les-Vallées";"Elem";"ce.0611081u@ac-normandie.fr";"61150";"Ecole primaire (Ecouché)";"Orne";"5 Avenue Léon Labbé, Bp 11";"Public";"48.71656135298974";"-0.12029943278120872"
"Mortrée";"Elem";"ce.0611082v@ac-normandie.fr";"61570";"Ecole primaire Yvonne Silliere";"Orne";"3 Rue Des Murs D'O";"Public";"48.64096303020361";"0.0796699925229761"
"Ménil-Erreux";"Elem";"ce.0611084x@ac-normandie.fr";"61250";"Ecole primaire ""Ecole communale Hirouldaine""";"Orne";"130 Route Des Haras, Le Bourg";"Public";"48.50814103326346";"0.18938186811790853"
"Almenêches";"Elem";"ce.0611114e@ac-normandie.fr";"61570";"Ecole primaire";"Orne";"12 Route Du Bocage, Le Querpont";"Public";"48.69815021041159";"0.10737900252699752"
"Alençon";"Elem";"ce.0611142k@ac-normandie.fr";"61000";"Ecole primaire Point du Jour";"Orne";"19 Rue Pierre Et Marie Curie";"Public";"48.437087753705036";"0.10508054443071972"
"Berjou";"Elem";"ce.0611143l@ac-normandie.fr";"61430";"Ecole primaire Roland et Jeanne RICORDEAU";"Orne";"Bourg, Lebourg";"Public";"48.8485851011862";"-0.4822705321433166"
"Le Mêle-sur-Sarthe";"Elem";"ce.0611144m@ac-normandie.fr";"61170";"Ecole primaire Maurice Gérard";"Orne";"6 Rue Maurice Gérard";"Public";"48.513405360449376";"0.356150485503401"
"Sées";"Elem";"ce.0611145n@ac-normandie.fr";"61500";"Ecole primaire Louis Forton";"Orne";"3 Rue Charles Forget";"Public";"48.60660505013591";"0.1704194016459287"
"Sap-en-Auge";"Elem";"ce.0611154y@ac-normandie.fr";"61470";"Ecole primaire Raymond QUENEAU (Le Sap)";"Orne";"10 Rue Eugene Foulon, Le Sap";"Public";"48.8945213365338";"0.34320995447837943"
"Sablons sur Huisne";"Elem";"ce.0611207f@ac-normandie.fr";"61110";"Ecole primaire publique Fortuné Fardouet (Condé-sur-Huisne)";"Orne";"8 Rue Du 8 Mai 1945, Condé-S Huisne";"Public";"48.38323978618196";"0.8553267809033315"
"Moulins-la-Marche";"Elem";"ce.0611215p@ac-normandie.fr";"61380";"Ecole élémentaire des sources";"Orne";"Rue Flandres-Dunkerque";"Public";"48.65023166561458";"0.4732604321284607"
"Rouen";"Elem";"ce.0760197b@ac-normandie.fr";"76000";"Ecole élémentaire Théodore Bachelet";"Seine-Maritime";"9 Rue Du Vert Buisson";"Public";"49.44598317225118";"1.099054370207512"
"Saint-Rémy-Boscrocourt";"Elem";"ce.0761561j@ac-normandie.fr";"76260";"Ecole élémentaire Georges Braque";"Seine-Maritime";"6 Place De La Mairie";"Public";"50.00875366848685";"1.3956236439682537"
"Le Tréport";"Elem";"ce.0761566p@ac-normandie.fr";"76470";"Ecole primaire Ledré Delmet Moreau";"Seine-Maritime";"15 Rue Suzanne";"Public";"50.05902017340621";"1.3723093708772724"
"Gerville";"Elem";"ce.0761579d@ac-normandie.fr";"76790";"Ecole élémentaire";"Seine-Maritime";"2 Rue Du Chant Des Oiseaux";"Public";"49.69540626407901";"0.3276664153325962"
"Tourville-les-Ifs";"Elem";"ce.0761587m@ac-normandie.fr";"76400";"Ecole élémentaire Marcel Pagnol";"Seine-Maritime";"25 Rue Justin Simon";"Public";"49.71547188631469";"0.3995574681929061"
"Avesnes-en-Val";"Elem";"ce.0761596x@ac-normandie.fr";"76630";"Ecole élémentaire";"Seine-Maritime";"Le Bourg";"Public";"49.92002300125009";"1.3990802453458622"
"Petit-Caux";"Elem";"ce.0761613r@ac-normandie.fr";"76630";"Groupe scolaire le vent marin";"Seine-Maritime";"Rue Des Hares, Penly";"Public";"49.980225304699296";"1.2345870472907114"
"Saint-Nicolas-d'Aliermont";"Elem";"ce.0761622a@ac-normandie.fr";"76510";"Ecole élémentaire du Bout d'Amont";"Seine-Maritime";"701 Rue Vaillancourt";"Public";"49.87334767600671";"1.2484905447257038"
"Sainte-Adresse";"Mater";"ce.0761766g@ac-normandie.fr";"76310";"Ecole maternelle du Manoir";"Seine-Maritime";"12 Rue Du Manoir";"Public";"49.510160102731774";"0.08327272681952409"
"Saint-Aubin-lès-Elbeuf";"Mater";"ce.0761898a@ac-normandie.fr";"76410";"Ecole maternelle Marcel Touchard";"Seine-Maritime";"6 Rue Bachelet Damville";"Public";"49.30247498946729";"1.0192416215191498"
"Le Havre";"Elem";"ce.0761937t@ac-normandie.fr";"76610";"Ecole élémentaire Eugène Varlin II";"Seine-Maritime";"Rue Emile Aubry";"Public";"49.51730568368082";"0.17044767872531075"
"Rouen";"Elem";"ce.0761979n@ac-normandie.fr";"76100";"Ecole primaire privée Saint Sever - Saint Clément";"Seine-Maritime";"36 Rue Etienne Delarue";"Privé";"49.42689674021408";"1.0793934626910493"
"Saint-Saëns";"Elem";"ce.0761988y@ac-normandie.fr";"76680";"Ecole primaire privée Sainte Marie";"Seine-Maritime";"5 Rue Aristide Briand";"Privé";"49.674074899084346";"1.284197830070744"
"Terres-de-Caux";"Elem";"ce.0762017e@ac-normandie.fr";"76640";"Ecole primaire privée Saint Louis";"Seine-Maritime";"51 Place Du Chanoine Dubois, Fauville-En-Caux";"Privé";"49.65807737411913";"0.6269634923075251"
"Le Havre";"Elem";"ce.0762024m@ac-normandie.fr";"76600";"Ecole primaire privée Saint Roch";"Seine-Maritime";"20 Rue Louis Philippe";"Privé";"49.495043947968085";"0.0996898373082897"
"Le Havre";"Elem";"ce.0762033x@ac-normandie.fr";"76620";"Ecole primaire privée la Providence";"Seine-Maritime";"62 Rue De Châteaudun, Bp 9004";"Privé";"49.51434841492017";"0.11881343296334838"
"Le Mesnil-Esnard";"Elem";"ce.0762041f@ac-normandie.fr";"76240";"Ecole primaire privée la Providence";"Seine-Maritime";"6 Rue De Neuvillette";"Privé";"49.40660036193264";"1.140139211030241"
"Lillebonne";"Mater";"ce.0762059a@ac-normandie.fr";"76170";"Ecole maternelle du Clairval";"Seine-Maritime";"Avenue Du Clairval";"Public";"49.523193645009066";"0.5405820445836347"
"Maromme";"Mater";"ce.0762060b@ac-normandie.fr";"76150";"Ecole maternelle Paul Fort";"Seine-Maritime";"2 Bis Rue Joséphine Baker";"Public";"49.4788572483267";"1.0219875320821958"
"Saint-Etienne-du-Rouvray";"Mater";"ce.0762065g@ac-normandie.fr";"76800";"Ecole maternelle Henri Wallon";"Seine-Maritime";"Rue Des Alpes";"Public";"49.395577629550154";"1.0700116150989114"
"Gonfreville-l'Orcher";"Mater";"ce.0762075t@ac-normandie.fr";"76700";"Ecole maternelle de Gournay";"Seine-Maritime";"Rue Des Corderies";"Public";"49.524166610505205";"0.22241574410736697"
"Goderville";"Mater";"ce.0762105a@ac-normandie.fr";"76110";"Ecole maternelle";"Seine-Maritime";"46 Rue Guy De Maupassant";"Public";"49.64522482018891";"0.3651005145688784"
"Epreville";"Elem";"ce.0762110f@ac-normandie.fr";"76400";"Ecole primaire";"Seine-Maritime";"19 Rue Victor Hugo";"Public";"49.7042831827709";"0.3658812475436076"
"Terres-de-Caux";"Elem";"ce.0762111g@ac-normandie.fr";"76640";"Ecole élémentaire Jean-Loup Chrétien";"Seine-Maritime";"109 Allée Des Tilleuls, Fauville-En-Caux";"Public";"49.651708629580796";"0.594831324264351"
"Gainneville";"Elem";"ce.0762113j@ac-normandie.fr";"76700";"Ecole élémentaire Louis Aragon";"Seine-Maritime";"1 Route De Rogerville";"Public";"49.51822059768057";"0.26413905767576445"
"Le Havre";"Mater";"ce.0762160k@ac-normandie.fr";"76620";"Ecole maternelle Charles Victoire";"Seine-Maritime";"37 Rue Charles Victoire";"Public";"49.52641246253519";"0.12057949057266283"
"Motteville";"Elem";"ce.0762183k@ac-normandie.fr";"76970";"Ecole primaire Joseph Deneuve";"Seine-Maritime";"Rue Alexis Ricordel";"Public";"49.63560735996498";"0.8523999532984353"
"Gonfreville-l'Orcher";"Mater";"ce.0762190t@ac-normandie.fr";"76700";"Ecole maternelle Turgauville";"Seine-Maritime";"Rue Maurice Thorez";"Public";"49.508151699376455";"0.2386876251073176"
"Notre-Dame-de-Bondeville";"Elem";"ce.0762194x@ac-normandie.fr";"76960";"Ecole primaire André Marie";"Seine-Maritime";"Rue Des Longs Vallons";"Public";"49.48379746799058";"1.0567136915480746"
"Norville";"Elem";"ce.0762195y@ac-normandie.fr";"76330";"Ecole primaire du Marais";"Seine-Maritime";"11 Rue De L'Ecole";"Public";"49.47563845097125";"0.6354913437565934"
"Le Grand-Quevilly";"Elem";"ce.0762214u@ac-normandie.fr";"76120";"Ecole élémentaire Henri Ribière";"Seine-Maritime";"1 Rue Henri De Toulouse-Lautrec";"Public";"49.39959039381878";"1.0382109455150714"
"Le Petit-Quevilly";"Mater";"ce.0762236t@ac-normandie.fr";"76140";"Ecole maternelle Danielle Casanova";"Seine-Maritime";"25 Rue Pablo Neruda";"Public";"49.42695835909246";"1.0586850577000877"
"Le Petit-Quevilly";"Elem";"ce.0762237u@ac-normandie.fr";"76140";"Ecole élémentaire Pablo Picasso";"Seine-Maritime";"27 Rue Pablo Neruda";"Public";"49.426608635132766";"1.058742350171641"
"Saint-Pierre-lès-Elbeuf";"Elem";"ce.0762239w@ac-normandie.fr";"76320";"Ecole élémentaire Jules Verne";"Seine-Maritime";"131 Rue Galbois";"Public";"49.27124845064509";"1.0485478035665"
"Le Havre";"Elem";"ce.0762247e@ac-normandie.fr";"76610";"Ecole élémentaire Eugène Varlin I";"Seine-Maritime";"Rue Emile Aubry";"Public";"49.51730568368082";"0.17044767872531075"
"Déville-lès-Rouen";"Mater";"ce.0762326r@ac-normandie.fr";"76250";"Ecole maternelle Andersen";"Seine-Maritime";"1 Place Churchill";"Public";"49.470870810926";"1.0448479126547525"
"Croix-Mare";"Elem";"ce.0762333y@ac-normandie.fr";"76190";"Ecole primaire Jacques Prévert";"Seine-Maritime";"Le Bourg";"Public";"49.60004838185996";"0.8503696499762609"
"Etretat";"Elem";"ce.0762340f@ac-normandie.fr";"76790";"Ecole élémentaire publique Rose Duchemin";"Seine-Maritime";"44 Rue Guy De Maupassant";"Public";"49.704322084468295";"0.2094488777321036"
"Dieppe";"Mater";"ce.0762344k@ac-normandie.fr";"76370";"Ecole maternelle Jeanne Magny";"Seine-Maritime";"Rue Du Docteur Jean Mérault, Neuville Les Dieppe";"Public";"49.931835771982044";"1.1023425621254785"
"Yainville";"Elem";"ce.0762376v@ac-normandie.fr";"76480";"Ecole primaire Charles Perrault";"Seine-Maritime";"316 Bis Rue De La République";"Public";"49.45466215727675";"0.8294197314982905"
"Epouville";"Mater";"ce.0762417p@ac-normandie.fr";"76133";"Ecole maternelle Marguerite Muller";"Seine-Maritime";"Rue Joseph Boulard";"Public";"49.564783736327286";"0.22279528410881094"
"Rouxmesnil-Bouteilles";"Elem";"ce.0762433g@ac-normandie.fr";"76370";"Ecole primaire  Le Vallon-Les Farfadets-La Salicorne";"Seine-Maritime";"23 Rue Du Vallon";"Public";"49.90362422113537";"1.0926770802368762"
"Saint-Antoine-la-Forêt";"Mater";"ce.0762434h@ac-normandie.fr";"76170";"Ecole maternelle Raymond Queneau";"Seine-Maritime";"143 Rue Pomone";"Public";"49.534003838216556";"0.47355206675576467"
"Fécamp";"Mater";"ce.0762484m@ac-normandie.fr";"76400";"Ecole maternelle du Parc";"Seine-Maritime";"5 Route Des Plantes, Le Val De Bucaille";"Public";"49.745232456087585";"0.3673905783179197"
"Elbeuf";"Elem";"ce.0762486p@ac-normandie.fr";"76500";"Ecole élémentaire Georges Brassens";"Seine-Maritime";"Avenue Du Chartrier";"Public";"49.28940967974739";"0.972796576918327"
"Caudebec-lès-Elbeuf";"Mater";"ce.0762490u@ac-normandie.fr";"76320";"Ecole maternelle Louise Michel";"Seine-Maritime";"Rue Faidherbe";"Public";"49.27705698733108";"1.022556977545941"
"Saint-Etienne-du-Rouvray";"Elem";"ce.0762499d@ac-normandie.fr";"76800";"Ecole élémentaire Victor Duruy";"Seine-Maritime";"1 Rue Victor Duruy";"Public";"49.40055000958088";"1.0716094482786844"
"Amfreville-la-Mi-Voie";"Mater";"ce.0762520b@ac-normandie.fr";"76920";"Ecole maternelle Louise Michel";"Seine-Maritime";"Route Du Mesnil Esnard";"Public";"49.401417914851244";"1.1311468439711743"
"La Feuillie";"Elem";"ce.0762527j@ac-normandie.fr";"76220";"Ecole élémentaire les Prunus";"Seine-Maritime";"7 Rue Des Ecoles";"Public";"49.4628269879533";"1.5181136344815578"
"Isneauville";"Elem";"ce.0762549h@ac-normandie.fr";"76230";"Ecole élémentaire George Sand";"Seine-Maritime";"Place De La Mairie";"Public";"49.495878389433564";"1.1555499507464408"
"Buchy";"Elem";"ce.0762556r@ac-normandie.fr";"76750";"Ecole élémentaire Guillaume d'Estouteville";"Seine-Maritime";"Estouteville-Ecalles";"Public";"49.57533707563555";"1.277029845520386"
"Saint-Valery-en-Caux";"Elem";"ce.0762590c@ac-normandie.fr";"76460";"Ecole élémentaire le Grand Pavois";"Seine-Maritime";"Rue Armand Colin";"Public";"49.864699204125074";"0.7054955224827287"
"Le Grand-Quevilly";"Elem";"ce.0762605u@ac-normandie.fr";"76120";"Ecole élémentaire Jean Jaurès";"Seine-Maritime";"34 Rue Gustave Boutigny";"Public";"49.41620148866905";"1.0309081896849843"
"Houppeville";"Mater";"ce.0762606v@ac-normandie.fr";"76770";"Ecole maternelle Jean de La Fontaine";"Seine-Maritime";"1 Rue Des Ecoles";"Public";"49.511251018960046";"1.0743132309472025"
"Yvetot";"Elem";"ce.0762618h@ac-normandie.fr";"76190";"Ecole élémentaire Jean Prévost";"Seine-Maritime";"6 Rue Niatel";"Public";"49.613381063752776";"0.7542141410280835"
"Le Petit-Quevilly";"Elem";"ce.0762653w@ac-normandie.fr";"76140";"Ecole élémentaire Gabrielle Méret";"Seine-Maritime";"65 Rue Gambetta";"Public";"49.414194869750325";"1.0675032920283385"
"Foucarmont";"Elem";"ce.0762660d@ac-normandie.fr";"76340";"Ecole élémentaire";"Seine-Maritime";"15 Bis Rue Douce";"Public";"49.8484968490613";"1.56853148792909"
"Maromme";"Elem";"ce.0762665j@ac-normandie.fr";"76150";"Ecole élémentaire Jules Ferry";"Seine-Maritime";"46 A Route De Duclair";"Public";"49.4786029158541";"1.0251349514400547"
"Oissel";"Mater";"ce.0762666k@ac-normandie.fr";"76350";"Ecole maternelle Pierre Toutain";"Seine-Maritime";"Rue Donat Agache";"Public";"49.362798374071915";"1.101193386508808"
"Le Havre";"Elem";"ce.0762683d@ac-normandie.fr";"76600";"Ecole élémentaire Jean-Baptiste Massillon";"Seine-Maritime";"105 Rue Massillon";"Public";"49.49900900565198";"0.1423834441862692"
"Saint-Etienne-du-Rouvray";"Elem";"ce.0762685f@ac-normandie.fr";"76800";"Ecole élémentaire Jean Macé";"Seine-Maritime";"Rue Hector Malot";"Public";"49.39605983349927";"1.0639529534090815"
"Boos";"Mater";"ce.0762709g@ac-normandie.fr";"76520";"Ecole maternelle Le Petit Prince";"Seine-Maritime";"254 Rue Des Canadiens";"Public";"49.384944643426316";"1.196881290586449"
"Cléon";"Elem";"ce.0762710h@ac-normandie.fr";"76410";"Ecole élémentaire Pierre et Marie Curie";"Seine-Maritime";"4 Rue Des Ecoles";"Public";"49.308164831385284";"1.0240483957731168"
"Rouen";"Elem";"ce.0762744v@ac-normandie.fr";"76000";"Ecole élémentaire Jules Ferry";"Seine-Maritime";"Rue De L'Enseigne Renaud";"Public";"49.43482396562428";"1.125629029589025"
"Cany-Barville";"Elem";"ce.0762752d@ac-normandie.fr";"76450";"Ecole élémentaire Louis Pergaud";"Seine-Maritime";"12 Rue Du Home";"Public";"49.78797308638272";"0.6342896988240377"
"Val-de-Saâne";"Mater";"ce.0762781k@ac-normandie.fr";"76890";"Ecole maternelle Françoise Dolto";"Seine-Maritime";"Rue Moulin Du Traversin";"Public";"49.70472160829729";"0.9657183606371122"
"Dieppe";"Mater";"ce.0762821d@ac-normandie.fr";"76370";"Ecole maternelle Paul Bert";"Seine-Maritime";"Rue Paul Bert, Neuville Les Dieppe";"Public";"49.930307804135204";"1.0954353814284707"
"Le Havre";"Elem";"ce.0762839y@ac-normandie.fr";"76600";"Ecole élémentaire Edouard Herriot";"Seine-Maritime";"111 Boulevard François 1Er";"Public";"49.48924119976138";"0.10145157824868736"
"Beuzeville-la-Grenier";"Mater";"ce.0762842b@ac-normandie.fr";"76210";"Ecole maternelle Pierre Julien";"Seine-Maritime";"3 Place De La Mairie";"Public";"49.59110879762927";"0.4282724703636015"
"Elbeuf";"Elem";"ce.0762847g@ac-normandie.fr";"76500";"Ecole élémentaire Jules Michelet";"Seine-Maritime";"16 Rue Jean Gaument";"Public";"49.289641674482034";"1.0077901027465876"
"Envermeu";"Elem";"ce.0762852m@ac-normandie.fr";"76630";"Ecole primaire";"Seine-Maritime";"Place Du Marché";"Public";"49.89627195346559";"1.2648249157295979"
"Grand-Couronne";"Elem";"ce.0762857t@ac-normandie.fr";"76530";"Ecole élémentaire Victor Hugo";"Seine-Maritime";"Rue Du Presbytère";"Public";"49.35835548084775";"1.0111112438866323"
"Quincampoix";"Elem";"ce.0762886z@ac-normandie.fr";"76230";"Ecole élémentaire Antoine de Saint-Exupéry";"Seine-Maritime";"Rue Du Sud";"Public";"49.52708718724405";"1.1882332644945997"
"Franqueville-Saint-Pierre";"Mater";"ce.0762905v@ac-normandie.fr";"76520";"Ecole maternelle le Petit Poucet";"Seine-Maritime";"517 Rue Général De Gaulle";"Public";"49.39911669692066";"1.1810169379073625"
"Mont-Saint-Aignan";"Elem";"ce.0762909z@ac-normandie.fr";"76130";"Ecole élémentaire du Village";"Seine-Maritime";"Chemin De La Planquette";"Public";"49.47346578543844";"1.086764626401397"
"Val-de-Scie";"Mater";"ce.0762938f@ac-normandie.fr";"76720";"Ecole maternelle";"Seine-Maritime";"34 Rue Jean Macé, Auffay";"Public";"49.71576347307374";"1.1091213682322292"
"Le Havre";"Elem";"ce.0762940h@ac-normandie.fr";"76620";"Ecole élémentaire Louis Blanc";"Seine-Maritime";"6 Rue Louis Blanc";"Public";"49.50712519429667";"0.12359209775226891"
"Sassetot-le-Mauconduit";"Elem";"ce.0762999x@ac-normandie.fr";"76540";"Ecole primaire Martainville";"Seine-Maritime";"17 Rue Des Ecoles";"Public";"49.802131066172755";"0.5294510281072181"
"Saint-Vigor-d'Ymonville";"Elem";"ce.0763015p@ac-normandie.fr";"76430";"Ecole primaire Claude Nougaro";"Seine-Maritime";"40 Chemin De La Grotte";"Public";"49.49414289190805";"0.35970516221705867"
"Torcy-le-Grand";"Elem";"ce.0763021w@ac-normandie.fr";"76590";"Ecole primaire";"Seine-Maritime";"120 Route De La Vallée";"Public";"49.799127718920296";"1.1751133916818328"
"Manneville-la-Goupil";"Elem";"ce.0763026b@ac-normandie.fr";"76110";"Ecole primaire Eric Tabarly";"Seine-Maritime";"146 Route Guy De Maupassant";"Public";"49.608867706683334";"0.35440066200358383"
"Malaunay";"Elem";"ce.0763077g@ac-normandie.fr";"76770";"Ecole élémentaire Olivier Miannay";"Seine-Maritime";"Rue Du Docteur Leroy";"Public";"49.52477982631517";"1.0368517321135498"
"Houppeville";"Elem";"ce.0763127l@ac-normandie.fr";"76770";"Ecole élémentaire Gérard Philipe";"Seine-Maritime";"Rue André Pican";"Public";"49.51130274636018";"1.0760992270549141"
"Le Grand-Quevilly";"Mater";"ce.0763160x@ac-normandie.fr";"76120";"Ecole maternelle Jean Zay";"Seine-Maritime";"Rue Toulouse-Lautrec";"Public";"49.400437944023345";"1.0374154337942427"
"Saint-Etienne-du-Rouvray";"Elem";"ce.0763190e@ac-normandie.fr";"76800";"Ecole élémentaire Paul Langevin";"Seine-Maritime";"1 Rue Julian Grimau";"Public";"49.38955416692369";"1.0931760821250203"
"Rouen";"Elem";"ce.0763215g@ac-normandie.fr";"76000";"Ecole élémentaire Claude Debussy";"Seine-Maritime";"33 Rue Gaston Veyssière";"Public";"49.445280223154064";"1.13817500813424"
"Saint-Etienne-du-Rouvray";"Elem";"ce.0763228w@ac-normandie.fr";"76800";"Ecole élémentaire Henri Wallon";"Seine-Maritime";"Rue Du Jura";"Public";"49.394644443216244";"1.0705245668889931"
"Le Havre";"Elem";"ce.0763240j@ac-normandie.fr";"76600";"Ecole élémentaire Jules Guesde";"Seine-Maritime";"18 Rue De La Vivandière";"Public";"49.51844895923548";"0.12254659144256731"
"Lillebonne";"Elem";"ce.0763242l@ac-normandie.fr";"76170";"Ecole élémentaire Jacques Prévert";"Seine-Maritime";"Rue Goubermoulins";"Public";"49.5272659846391";"0.544268663620288"
"Rolleville";"Elem";"ce.0763252x@ac-normandie.fr";"76133";"Ecole primaire Voyelles";"Seine-Maritime";"1 Rue De La Gare";"Public";"49.581988908659234";"0.21566565691021938"
"Morgny-la-Pommeraye";"Elem";"ce.0763309j@ac-normandie.fr";"76750";"Ecole primaire les trois Hameaux";"Seine-Maritime";"6 Rue Des Ecoles";"Public";"49.521101886150994";"1.2454525987656533"
"Buchy";"Elem";"ce.0763324a@ac-normandie.fr";"76750";"Ecole primaire Bernard Lemaistre";"Seine-Maritime";"Route De Forges-Les-Eaux, Buchy";"Public";"49.58553720807006";"1.362300029729716"
"Bois-d'Ennebourg";"Elem";"ce.0763325b@ac-normandie.fr";"76160";"Ecole primaire du Bois Tison";"Seine-Maritime";"284 Rue De L'Eglise";"Public";"49.43307844743911";"1.2562019686802566"
"Neuville-Ferrières";"Mater";"ce.0763336n@ac-normandie.fr";"76270";"Ecole maternelle";"Seine-Maritime";"2 Place De La Mairie";"Public";"49.71046211813114";"1.4567809622258683"
"Canteleu";"Elem";"ce.0763344x@ac-normandie.fr";"76380";"Ecole élémentaire Gustave Flaubert";"Seine-Maritime";"21 Avenue De Versailles";"Public";"49.445756636345855";"1.0318128754693539"
"Maromme";"Elem";"ce.0763347a@ac-normandie.fr";"76150";"Ecole élémentaire Thérèse  Delbos";"Seine-Maritime";"8 Mail Louise Michel";"Public";"49.48186404450098";"1.0441099218859404"
"Bouelles";"Elem";"ce.0763428n@ac-normandie.fr";"76270";"Ecole élémentaire";"Seine-Maritime";"Route Du Bourg";"Public";"49.71274363097081";"1.4932090518623875"
"Le Havre";"Elem";"ce.0763462a@ac-normandie.fr";"76600";"Ecole primaire Molière";"Seine-Maritime";"31 Rue Amiral Courbet";"Public";"49.48668085916734";"0.132295315660521"
"Rouen";"Elem";"ce.0763471k@ac-normandie.fr";"76100";"Ecole primaire Rosa Parks";"Seine-Maritime";"7 Rue Des Murs Saint-Yon";"Public";"49.428437308826396";"1.0780623412955646"
"Le Havre";"Mater";"ce.0763493j@ac-normandie.fr";"76600";"Ecole maternelle Jules Massenet";"Seine-Maritime";"58 Rue Jean Maridor";"Public";"49.501443633584856";"0.1585685810122546"
"La Hague";"Elem";"ce.0500191l@ac-normandie.fr";"50460";"Ecole primaire Louis Desmares (Tonneville)";"Manche";"89 Rue De La République, Tonneville";"Public";"49.64303214286925";"-1.7142183997577392"
"Bricqueville-sur-Mer";"Elem";"ce.0500224x@ac-normandie.fr";"50290";"Ecole primaire André Prévot-Valéri";"Manche";"19 Route Blanche Maison";"Public";"48.91436872424188";"-1.5222096188563286"
"Tollevast";"Elem";"ce.0500573b@ac-normandie.fr";"50470";"Ecole primaire";"Manche";"13 Avenue Pasteur";"Public";"49.57446774976646";"-1.62623938039868"
"Saint-Hilaire-du-Harcouët";"Mater";"ce.0500725s@ac-normandie.fr";"50600";"Ecole maternelle Lecroisey";"Manche";"Rue Lecroisey";"Public";"48.57849602996791";"-1.0872093473809394"
"Sainte-Suzanne-sur-Vire";"Elem";"ce.0500736d@ac-normandie.fr";"50750";"Ecole élémentaire";"Manche";"Le Bourg";"Public";"49.061628037145034";"-1.0604294618823595"
"Saint-James";"Elem";"ce.0500741j@ac-normandie.fr";"50240";"Ecole élémentaire La Croix-Vergoncey";"Manche";"12 Rue Des Écoles La Croix Avranchin";"Public";"48.544852969141";"-1.3842809488661443"
"Saint-Georges-Montcocq";"Elem";"ce.0500785g@ac-normandie.fr";"50000";"Ecole primaire";"Manche";"4 Rue Des Fontenelles";"Public";"49.12884759788281";"-1.0947300240950235"
"Condé-sur-Vire";"Mater";"ce.0500807f@ac-normandie.fr";"50890";"Ecole maternelle Condé-sur-Vire";"Manche";"10 Rue Du Stade";"Public";"49.05453935892225";"-1.0324205654861531"
"Saint-Joseph";"Elem";"ce.0500834k@ac-normandie.fr";"50700";"Ecole primaire André Bouyer";"Manche";"29, Le Bourg";"Public";"49.533226836850844";"-1.5270401112387624"
"Dragey-Ronthon";"Elem";"ce.0500864t@ac-normandie.fr";"50530";"Ecole primaire Tombelaine";"Manche";"Place Newport";"Public";"48.7113710686029";"-1.4951198505030387"
"Saint-Jean-le-Thomas";"Elem";"ce.0500872b@ac-normandie.fr";"50530";"Ecole primaire du bout de la mer";"Manche";"65 Boulevard Stanislas";"Public";"48.72511968838732";"-1.5230800919597784"
"Bourguenolles";"Elem";"ce.0500917a@ac-normandie.fr";"50800";"Ecole primaire";"Manche";"4, Le Bourg";"Public";"48.80396127883882";"-1.2988293487714435"
"Fleury";"Elem";"ce.0500921e@ac-normandie.fr";"50800";"Ecole primaire des Pensées";"Manche";"Le Bourg";"Public";"48.84727720696706";"-1.2754403144231612"
"Thèreval";"Elem";"ce.0501086j@ac-normandie.fr";"50570";"Ecole primaire la Chapelle-en-Juger";"Manche";"Rue Du Prêche, La Chapelle En Juger";"Public";"49.124827967173594";"-1.2148566862715888"
"Beauchamps";"Elem";"ce.0501100z@ac-normandie.fr";"50320";"Ecole primaire";"Manche";"7 Place De L'Eglise";"Public";"48.833071642242786";"-1.3600004284160816"
"Hauteville-sur-Mer";"Elem";"ce.0501137p@ac-normandie.fr";"50590";"Ecole primaire";"Manche";"9 Rue Des Ecoles";"Public";"48.97789183402865";"-1.5412502969018078"
"Quettreville-sur-Sienne";"Elem";"ce.0501138r@ac-normandie.fr";"50660";"Ecole primaire";"Manche";"Trelly";"Public";"48.970393690128425";"-1.403641957569581"
"Avranches";"Elem";"ce.0501149c@ac-normandie.fr";"50300";"Ecole primaire André Parisy";"Manche";"81 Rue De La Liberté";"Public";"48.696706234603155";"-1.3475294244726477"
"Saint-Lô";"Elem";"ce.0501250m@ac-normandie.fr";"50000";"Ecole primaire Les Palliers";"Manche";"2 Rue Des Boujoineurs";"Public";"49.1188836873187";"-1.093600591906113"
"Saint-James";"Elem";"ce.0501276r@ac-normandie.fr";"50240";"Ecole primaire Saint-James";"Manche";"1 Rue Haie De Terre";"Public";"48.51856114470287";"-1.3263402468829686"
"Saint-Pois";"Elem";"ce.0501279u@ac-normandie.fr";"50670";"Ecole primaire";"Manche";"Allée Des Ecoles";"Public";"48.74916700038785";"-1.0684303284092445"
"Brécey";"Mater";"ce.0501296m@ac-normandie.fr";"50370";"Ecole maternelle";"Manche";"5 Rue Des Ecoles";"Public";"48.72392739496634";"-1.165080461294568"
"Cherbourg-en-Cotentin";"Elem";"ce.0501325u@ac-normandie.fr";"50100";"Ecole primaire privée Notre-Dame du Voeu";"Manche";"Impasse Loysel";"Privé";"49.63659072135258";"-1.6283694806222002"
"Cherbourg-en-Cotentin";"Elem";"ce.0501326v@ac-normandie.fr";"50100";"Ecole primaire privée Sainte Marie du Roule";"Manche";"221 Avenue De Paris";"Privé";"49.62745161257602";"-1.6174903814551778"
"Coutances";"Elem";"ce.0501328x@ac-normandie.fr";"50200";"Ecole primaire privée Jean-Paul II";"Manche";"Rue Quesnel-Canveaux";"Privé";"49.04790305453179";"-1.4475793623363933"
"La Haye";"Elem";"ce.0501345r@ac-normandie.fr";"50250";"Ecole privée Sainte Marie";"Manche";"4 Rue De L'Eglise";"Privé";"49.29107083041389";"-1.5428898796556079"
"Cherbourg-en-Cotentin";"Elem";"ce.0501356c@ac-normandie.fr";"50130";"Ecole primaire privée Sainte Jeanne d'Arc";"Manche";"10 Rue Victor Hugo";"Privé";"49.62456134829805";"-1.6470494142198044"
"Saint-Hilaire-du-Harcouët";"Elem";"ce.0501364l@ac-normandie.fr";"50600";"Ecole primaire privée Immaculée-Conception";"Manche";"17 Rue Saint Blaise";"Privé";"48.576554252164634";"-1.0903196241335673"
"Sartilly-Baie-Bocage";"Elem";"ce.0501386k@ac-normandie.fr";"50530";"Ecole privée Sainte Thérèse";"Manche";"70 Grande Rue";"Privé";"48.751281758657356";"-1.4560098672028539"
"Sourdeval";"Elem";"ce.0501389n@ac-normandie.fr";"50150";"Ecole privée Saint Martin";"Manche";"19 Rue Commandant Clouard";"Privé";"48.72259411213553";"-0.9166895115190629"
"Tessy-Bocage";"Elem";"ce.0501392s@ac-normandie.fr";"50420";"Ecole privée Sainte Marie";"Manche";"Rue Du Presbytère";"Privé";"48.97294998751394";"-1.0602406546028251"
"Torigny-les-Villes";"Elem";"ce.0501393t@ac-normandie.fr";"50160";"Ecole privée du Sacré-Coeur";"Manche";"3 Rue Leprovost";"Privé";"49.03662543760444";"-0.9779305482506379"
"Notre-Dame-de-Cenilly";"Elem";"ce.0501414r@ac-normandie.fr";"50210";"Ecole primaire";"Manche";"7 Rue Thomas Douville";"Public";"48.994924915698654";"-1.256410602605044"
"Thèreval";"Elem";"ce.0501415s@ac-normandie.fr";"50180";"Ecole primaire Hebecrevon";"Manche";"Rue De L'Eglise";"Public";"49.126537765994854";"-1.1669006380657772"
"Mortain-Bocage";"Elem";"ce.0501474f@ac-normandie.fr";"50140";"Ecole primaire les lutins";"Manche";"2 Rue Du Mesnelle, Notre Dame Du Touchet";"Public";"48.58564540176541";"-0.9560916390765597"
"Pierreville";"Elem";"ce.0501477j@ac-normandie.fr";"50340";"Ecole primaire";"Manche";"19 Rue Saint-Marcouf";"Public";"49.47327212568188";"-1.7832294379041143"
"Bourgvallées";"Elem";"ce.0501481n@ac-normandie.fr";"50750";"Ecole primaire Saint-Romphaire";"Manche";"47 Rue Barthélémy, Saint-Romphaire";"Public";"49.04105496906519";"-1.1041306149543189"
"Cherbourg-en-Cotentin";"Elem";"ce.0501497f@ac-normandie.fr";"50110";"Ecole primaire Jean Zay";"Manche";"235 Chemin De La Noë, Tourlaville";"Public";"49.64104333698573";"-1.5818501696385943"
"Fermanville";"Elem";"ce.0501498g@ac-normandie.fr";"50840";"Ecole primaire Eugene Mahaut";"Manche";"La Heugue";"Public";"49.68741215594725";"-1.4410098966643805"
"Montfarville";"Elem";"ce.0501523j@ac-normandie.fr";"50760";"Ecole primaire Guillaume de Normandie";"Manche";"18 Rue Des Pestils-Barvil";"Public";"49.65942263459015";"-1.2730197807847228"
"Cherbourg-en-Cotentin";"Elem";"ce.0501533v@ac-normandie.fr";"50130";"Ecole primaire La Polle";"Manche";"Rue De Bougainville, Cherbourg-Octeville";"Public";"49.64035479586617";"-1.6423404640648769"
"Bourgvallées";"Elem";"ce.0501541d@ac-normandie.fr";"50750";"Ecole primaire";"Manche";"5 Place Du Général De Gaulle, Saint-Samson De Bonfosse";"Public";"49.04925043768512";"-1.127230332828637"
"Saint-Pair-sur-Mer";"Elem";"ce.0501547k@ac-normandie.fr";"50380";"Ecole élémentaire Anne Frank";"Manche";"Rue De La Mairie";"Public";"48.814132403920404";"-1.5662900245987714"
"Gouville-sur-Mer";"Elem";"ce.0501556v@ac-normandie.fr";"50560";"Ecole primaire";"Manche";"21 Rue Du Calvaire";"Public";"49.095943319546016";"-1.578369570901044"
"La Hague";"Elem";"ce.0501626w@ac-normandie.fr";"50440";"Ecole primaire Les Arbres";"Manche";"50 Rue Residence Des Arbres, Omonville-La-Rogue";"Public";"49.707764173750164";"-1.8440673095411302"
"Port-Bail-sur-Mer";"Elem";"ce.0501628y@ac-normandie.fr";"50580";"Ecole primaire";"Manche";"5 Rue La Grand Rue, Denneville";"Public";"49.31251776871043";"-1.6612704506924516"
"Flamanville";"Elem";"ce.0501629z@ac-normandie.fr";"50340";"Ecole primaire";"Manche";"29 Rue Du Château";"Public";"49.53192708572079";"-1.866060040597392"
"Orval sur Sienne";"Elem";"ce.0501657e@ac-normandie.fr";"50660";"Ecole primaire";"Manche";"2 Rue Des Hortensias, Lebourg";"Public";"49.01405184646042";"-1.4705704722859279"
"Bacqueville-en-Caux";"Mater";"ce.0762658b@ac-normandie.fr";"76730";"Ecole maternelle Jules Verne";"Seine-Maritime";"10 Route De Pierreville";"Public";"49.78845545766294";"1.0045750114537162"
"Le Tronquay";"Elem";"ce.0140148k@ac-normandie.fr";"14490";"Ecole primaire des Poteries";"Calvados";"62 Ter Route De Bayeux Saint-Lô, Le Bourg";"Public";"49.21749503640802";"-0.795392721749932"
"Le Mesnil-Guillaume";"Elem";"ce.0141108d@ac-normandie.fr";"14100";"Ecole élémentaire";"Calvados";"Route D'Orbec";"Public";"49.10789816263519";"0.29107946804290397"
"Villers-sur-le-Roule";"Elem";"ce.0270981v@ac-normandie.fr";"27940";"Ecole primaire Denise Brockaert";"Eure";"11 Rue Rosée";"Public";"49.194548987882094";"1.3253197412354767"
"Goupil-Othon";"Elem";"ce.0271146z@ac-normandie.fr";"27170";"Groupe scolaire Etiennette et Jean Gallon";"Eure";"45 Rue Du Neubourg, Goupillieres";"Public";"49.12813958764324";"0.7648698068278363"
"Doudeville";"Elem";"ce.0760408f@ac-normandie.fr";"76560";"Groupe scolaire Breton-Mensire";"Seine-Maritime";"34 Rue Lemercier";"Public";"49.71889244922629";"0.7833889790400702"
"Préaux";"Elem";"ce.0760453e@ac-normandie.fr";"76160";"Ecole primaire Jacques Prévert";"Seine-Maritime";"506 Rue Des Ecoles";"Public";"49.486187323971734";"1.2157213346417923"
"Villainville";"Elem";"ce.0760663h@ac-normandie.fr";"76280";"Ecole élémentaire";"Seine-Maritime";"704 Route D'Etretat";"Public";"49.66084402206196";"0.24261495282685094"
"Saint-Maclou-de-Folleville";"Elem";"ce.0761002b@ac-normandie.fr";"76890";"Ecole primaire";"Seine-Maritime";"Rue De La Gare";"Public";"49.67967560857396";"1.107020998505419"
"Notre-Dame-de-Bondeville";"Elem";"ce.0762431e@ac-normandie.fr";"76960";"Ecole primaire Jean Moulin";"Seine-Maritime";"Rue De La Liberté";"Public";"49.48915226433298";"1.0527493177386065"
"Callengeville";"Elem";"ce.0762501f@ac-normandie.fr";"76270";"Ecole primaire Antoine de Saint-Exupéry";"Seine-Maritime";"17 Route Des Essarts";"Public";"49.8188512735401";"1.5281933610438163"
"Bayeux";"Elem";"ce.0140155t@ac-normandie.fr";"14400";"Ecole primaire Letot la Poterie";"Calvados";"Rue Des Cordeliers";"Public";"49.274226614700524";"-0.7103595985321127"
"Saint-Vigor-le-Grand";"Elem";"ce.0140170j@ac-normandie.fr";"14400";"Ecole primaire";"Calvados";"13 Rue De Courseulles";"Public";"49.28110370087734";"-0.6911003856548824"
"Subles";"Elem";"ce.0140171k@ac-normandie.fr";"14400";"Ecole primaire André Lefevre";"Calvados";"Rue Saint-Martin";"Public";"49.24068542535544";"-0.7510700492208662"
"La Cambe";"Elem";"ce.0140193j@ac-normandie.fr";"14230";"Ecole primaire";"Calvados";"Rue Des Ecoles, Le Bourg";"Public";"49.343421807562045";"-1.004119747944373"
"Graye-sur-Mer";"Elem";"ce.0140238h@ac-normandie.fr";"14470";"Ecole primaire";"Calvados";"36 Rue Grande";"Public";"49.329166301180535";"-0.47197008786267597"
"Longues-sur-Mer";"Elem";"ce.0140240k@ac-normandie.fr";"14400";"Ecole primaire";"Calvados";"Rue Jean Pierre Savary";"Public";"49.33648338554056";"-0.6967997065109526"
"Bourguébus";"Elem";"ce.0140287l@ac-normandie.fr";"14540";"Ecole primaire Madeleine Lallier";"Calvados";"Vallée Es Dunes";"Public";"49.12068684228978";"-0.29187049430548107"
"Mézidon Vallée d'Auge";"Elem";"ce.0140349d@ac-normandie.fr";"14270";"Ecole primaire";"Calvados";"3 Rue Des Ecoliers, Vieux-Fume";"Public";"49.05629589311055";"-0.11753708416518915"
"Caen";"Elem";"ce.0140401k@ac-normandie.fr";"14000";"Ecole primaire René Lemière";"Calvados";"1 Boulevard Aristide Briand";"Public";"49.178296050626365";"-0.36271923359807146"
"Caen";"Mater";"ce.0140430s@ac-normandie.fr";"14000";"Ecole maternelle Venelle aux Champs";"Calvados";"Rue Venelle Aux Champs";"Public";"49.17284663181943";"-0.3534894369216221"
"Cairon";"Elem";"ce.0140450n@ac-normandie.fr";"14610";"Ecole primaire";"Calvados";"Route De Creully";"Public";"49.22403991522275";"-0.4307505657363382"
"Moulins en Bessin";"Elem";"ce.0140452r@ac-normandie.fr";"14480";"Ecole primaire";"Calvados";"1 Rue De La Fontaine, Coulombs";"Public";"49.25360161545147";"-0.5638424609599025"
"Ponts sur Seulles";"Elem";"ce.0140461a@ac-normandie.fr";"14480";"Ecole primaire des Petits Ponts";"Calvados";"Chemin Blanc, Lantheuil";"Public";"49.27406160632198";"-0.5121497918358535"
"Ablon";"Elem";"ce.0140477t@ac-normandie.fr";"14600";"Ecole primaire";"Calvados";"Bourg, Le Bourg";"Public";"49.392748753564746";"0.29584935931628853"
"Hermival-les-Vaux";"Elem";"ce.0140509c@ac-normandie.fr";"14100";"Ecole primaire";"Calvados";"15 Rue De La Mairie";"Public";"49.17060232726008";"0.28231930255830034"
"Bonneville-la-Louvet";"Elem";"ce.0140533d@ac-normandie.fr";"14130";"Ecole primaire";"Calvados";"Rue Du Lavoir";"Public";"49.27655561596799";"0.33964054697681034"
"Colleville-Montgomery";"Elem";"ce.0140580e@ac-normandie.fr";"14880";"Ecole primaire Léon Gautier";"Calvados";"9 Rue Grande";"Public";"49.275740094649514";"-0.29813003011567235"
"Douvres-la-Délivrande";"Elem";"ce.0140582g@ac-normandie.fr";"14440";"Ecole primaire DIAN FOSSEY";"Calvados";"8 Rue De L'Eglise";"Public";"49.29426571959989";"-0.3792205245884189"
"Ouistreham";"Elem";"ce.0140596x@ac-normandie.fr";"14150";"Ecole primaire Isabelle Autissier";"Calvados";"Rue Lefoulon Hébert";"Public";"49.27839631713714";"-0.25853042369064655"
"Amayé-sur-Orne";"Elem";"ce.0140604f@ac-normandie.fr";"14210";"Ecole primaire Jacques Texier";"Calvados";"Impasse Pierre Lefèvre";"Public";"49.083898162152224";"-0.4318695837186922"
"Saint-Martin-de-Mieux";"Elem";"ce.0140662u@ac-normandie.fr";"14700";"Ecole élémentaire";"Calvados";"Les Montils";"Public";"48.87008268226576";"-0.22468994841864343"
"Saint-Pierre-Canivet";"Elem";"ce.0140663v@ac-normandie.fr";"14700";"Ecole primaire";"Calvados";"Bourg, Lebourg";"Public";"48.93014810778437";"-0.22025051418165997"
"Cesny-les-Sources";"Elem";"ce.0140707t@ac-normandie.fr";"14220";"Ecole primaire de Verdière";"Calvados";"Rue De Verdière, Cesny Bois Halbout";"Public";"48.98646563496219";"-0.3806953953542124"
"Thue et Mue";"Elem";"ce.0140732v@ac-normandie.fr";"14210";"Ecole élémentaire Les Coquelicots";"Calvados";"10 Place Des Canadiens, Bretteville L Orgueilleus";"Public";"49.2127367693312";"-0.5147745985747557"
"Fontenay-le-Pesnel";"Elem";"ce.0140740d@ac-normandie.fr";"14250";"Ecole primaire";"Calvados";"Rue De L'Ecole";"Public";"49.17060620691427";"-0.5778298517325721"
"Bavent";"Elem";"ce.0140764e@ac-normandie.fr";"14860";"Ecole élémentaire Henri Baptiste Gregoire";"Calvados";"1 Rue De La Petite Justice";"Public";"49.23126235923961";"-0.19146051220758495"
"Colombelles";"Elem";"ce.0140774r@ac-normandie.fr";"14460";"Ecole élémentaire Henri Sellier";"Calvados";"5 Rue Jules Guesde";"Public";"49.204615473319514";"-0.30279964313008984"
"Colombelles";"Mater";"ce.0140776t@ac-normandie.fr";"14460";"Ecole maternelle Groupe Henri Sellier";"Calvados";"Rue Jules Guesde";"Public";"49.20474928474239";"-0.30271068889248226"
"Vandrimare";"Elem";"ce.0270542t@ac-normandie.fr";"27380";"ECOLE PRIMAIRE JACQUES POLETTI";"Eure";"Rue Des Ecoles";"Public";"49.38066938479678";"1.3461326857675586"
"Fontaine-sous-Jouy";"Elem";"ce.0270134z@ac-normandie.fr";"27120";"Ecole primaire";"Eure";"2 Rue Du Rosey";"Public";"49.06726690026691";"1.2925895543195443"
"Dangu";"Elem";"ce.0270158a@ac-normandie.fr";"27720";"Ecole primaire";"Eure";"2 Résidence Le Clos Des Vignes";"Public";"49.25564790675347";"1.6941997382633864"
"Neaufles-Saint-Martin";"Elem";"ce.0270167k@ac-normandie.fr";"27830";"Ecole primaire";"Eure";"21 Rue Saint Martin";"Public";"49.27478839750413";"1.7230804203539132"
"Vascoeuil";"Mater";"ce.0270194p@ac-normandie.fr";"27910";"Ecole maternelle intercommunale";"Eure";"1 Rue De L'Eglise";"Public";"49.443267086479324";"1.3761201362944493"
"Bernay";"Elem";"ce.0270245v@ac-normandie.fr";"27300";"Ecole élémentaire Ferdinand Buisson";"Eure";"1 Rue Ile De France";"Public";"49.08623614889749";"0.5916595580845201"
"Courbépine";"Elem";"ce.0270249z@ac-normandie.fr";"27300";"Ecole primaire Ernest Anquetil";"Eure";"1 Place Ernest Anquetil";"Public";"49.127065663046274";"0.5608998356935683"
"Treis-Sants-en-Ouche";"Elem";"ce.0270258j@ac-normandie.fr";"27300";"Ecole primaire";"Eure";"Route De L'Ecole, Saint-Aubin-Le-Vertueux";"Public";"49.07247993365156";"0.5422045965100223"
"Saint-Victor-de-Chrétienville";"Elem";"ce.0270265s@ac-normandie.fr";"27300";"Ecole primaire";"Eure";"Le Bourg";"Public";"49.073603023855114";"0.5169803401411986"
"Broglie";"Elem";"ce.0270294y@ac-normandie.fr";"27270";"Ecole primaire";"Eure";"61 Rue Augustin Fresnel";"Public";"49.0128210811456";"0.5346604527665075"
"Bueil";"Elem";"ce.0270344c@ac-normandie.fr";"27730";"Ecole primaire Paul Delabre";"Eure";"Rue Milval";"Public";"48.932271953669606";"1.4443706406420727"
"Cierrey";"Elem";"ce.0270347f@ac-normandie.fr";"27930";"Ecole primaire";"Eure";"4 Rue René Lefèbvre";"Public";"49.00348217596729";"1.249600465195204"
"Bois-le-Roi";"Elem";"ce.0270366b@ac-normandie.fr";"27220";"Ecole primaire";"Eure";"2 Rue Des Georgeries";"Public";"48.864348443831915";"1.345860248896367"
"Ezy-sur-Eure";"Elem";"ce.0270377n@ac-normandie.fr";"27530";"Ecole élémentaire Jules Ferry";"Eure";"15 Rue Octave Lenoir";"Public";"48.86529846843647";"1.417779384912632"
"Grossoeuvre";"Elem";"ce.0270384w@ac-normandie.fr";"27220";"Ecole primaire";"Eure";"43 Rue Saint Pierre";"Public";"48.93575396401697";"1.1997702509149637"
"Lignerolles";"Elem";"ce.0270388a@ac-normandie.fr";"27220";"Ecole élémentaire";"Eure";"4 Rue De Faverolles";"Public";"48.84573587778237";"1.2776199159182668"
"Mouettes";"Elem";"ce.0270391d@ac-normandie.fr";"27220";"Ecole primaire";"Eure";"4 Route D'Ezy";"Public";"48.89506479659186";"1.3611194409009506"
"Prey";"Elem";"ce.0270393f@ac-normandie.fr";"27220";"Ecole primaire";"Eure";"2 Place René Cardin";"Public";"48.962650100978344";"1.2122094277876974"
"Saint-André-de-l'Eure";"Elem";"ce.0270394g@ac-normandie.fr";"27220";"Ecole élémentaire le Château";"Eure";"4 Rue Leroy";"Public";"48.903240807934154";"1.2772096732224552"
"Saint-Didier-des-Bois";"Elem";"ce.0270410z@ac-normandie.fr";"27370";"Ecole primaire Gabrielle Caron";"Eure";"1 Rue Des Ecoles";"Public";"49.23829716496017";"1.030460228375749"
"Tourville-la-Campagne";"Elem";"ce.0270421l@ac-normandie.fr";"27370";"Ecole primaire aux Quatre vents";"Eure";"7 Chemin Des Forrières Du Midi";"Public";"49.22541869182543";"0.9069293842547624"
"Bosroumois";"Elem";"ce.0270431x@ac-normandie.fr";"27670";"Ecole élémentaire René Bellanger";"Eure";"Rue De La Croix Du Gland, Le Bosc-Roger-En-Roumois";"Public";"49.290601185161016";"0.926009393406361"
"La Haye-Malherbe";"Elem";"ce.0270452v@ac-normandie.fr";"27400";"Ecole élémentaire La Vallée";"Eure";"1 Rue Des Ecoles";"Public";"49.25103793277662";"1.0815598427183248"
"Aviron";"Elem";"ce.0270480a@ac-normandie.fr";"27930";"Ecole primaire";"Eure";"6 Rue De Gadenvilliers";"Public";"49.05906958696939";"1.1189993322482417"
"Bacquepuis";"Elem";"ce.0270481b@ac-normandie.fr";"27930";"Ecole élémentaire";"Eure";"2 Rue Du Clos De L'Ecu";"Public";"49.088941003259066";"1.0389097684049458"
"Bernienville";"Elem";"ce.0270483d@ac-normandie.fr";"27180";"Ecole élémentaire";"Eure";"9 Rue De L'Ecole";"Public";"49.08399893147521";"1.0218505129336994"
"Le Boulay-Morin";"Elem";"ce.0270484e@ac-normandie.fr";"27930";"Ecole élémentaire";"Eure";"1 Impasse Des Ecoles";"Public";"49.08089466614178";"1.1861300369365342"
"Normanville";"Elem";"ce.0270493p@ac-normandie.fr";"27930";"Ecole primaire les Prés Verts";"Eure";"4 Rue Du Robichon";"Public";"49.07796121425312";"1.161410080262605"
"Reuilly";"Elem";"ce.0270499w@ac-normandie.fr";"27930";"Ecole élémentaire";"Eure";"1 Place De La Mairie";"Public";"49.078384597498115";"1.2223693800162896"
"Sainte-Colombe-la-Commanderie";"Elem";"ce.0270502z@ac-normandie.fr";"27110";"Ecole primaire";"Eure";"4 Place De La Mairie";"Public";"49.102373042447425";"0.9378206733990825"
"Bourg-Beaudouin";"Elem";"ce.0270511j@ac-normandie.fr";"27380";"Ecole élémentaire";"Eure";"1 Rue De L'Eglise";"Public";"49.38633062496083";"1.3059200447154213"
"Bouafles";"Elem";"ce.0270551c@ac-normandie.fr";"27700";"Ecole primaire";"Eure";"Haute Rue";"Public";"49.21327328608733";"1.3888197380093419"
"Nojeon-en-Vexin";"Elem";"ce.0270589u@ac-normandie.fr";"27150";"Ecole élémentaire";"Eure";"Route De Frileuse";"Public";"49.33475026059803";"1.562379599377032"
"Puchay";"Elem";"ce.0270591w@ac-normandie.fr";"27150";"Ecole élémentaire";"Eure";"7 Rue Du Bout De Bas";"Public";"49.34213497534703";"1.5340894912658973"
"Canappeville";"Elem";"ce.0270600f@ac-normandie.fr";"27400";"Ecole primaire";"Eure";"146 Rue De L'École";"Public";"49.15454613252555";"1.1003900265989366"
"Criquebeuf-la-Campagne";"Elem";"ce.0270604k@ac-normandie.fr";"27110";"Ecole élémentaire";"Eure";"17 Rue De La Mairie";"Public";"49.201087247205535";"0.998099612427445"
"Le Neubourg";"Elem";"ce.0270616y@ac-normandie.fr";"27110";"Ecole élémentaire Jean Moulin";"Eure";"5 Rue De La Paix";"Public";"49.151329832236094";"0.9048496362005868"
"Terres de Bord";"Elem";"ce.0270640z@ac-normandie.fr";"27400";"Ecole primaire Montaure";"Eure";"91 Rue Des Forrières, Montaure";"Public";"49.236048405702014";"1.089040229762108"
"Martainville";"Elem";"ce.0270670g@ac-normandie.fr";"27210";"Ecole primaire Albert Josse";"Eure";"55 Rue De La Forge";"Public";"49.31478566655577";"0.3880797791605133"
"Saint-Maclou";"Elem";"ce.0270671h@ac-normandie.fr";"27210";"Ecole primaire";"Eure";"Route De Pont Audemer";"Public";"49.36369337558689";"0.42313969090192444"
"Corneville-sur-Risle";"Elem";"ce.0270718j@ac-normandie.fr";"27500";"Ecole primaire du Pré vert";"Eure";"2519 Chemin De La Vierge";"Public";"49.337505135210954";"0.5953998744423787"
"Le Perrey";"Elem";"ce.0270720l@ac-normandie.fr";"27500";"Ecole primaire Fourmetot";"Eure";"Fourmetot";"Public";"49.38137551050099";"0.5729909283157215"
"Selles";"Elem";"ce.0270734b@ac-normandie.fr";"27500";"Ecole élémentaire";"Eure";"Le Village";"Public";"49.300842004659756";"0.5062602028540857"
"Trouville-la-Haule";"Elem";"ce.0270758c@ac-normandie.fr";"27680";"Ecole primaire";"Eure";"Le Val Anger";"Public";"49.422994619866756";"0.5769597272209652"
"Bourg-Achard";"Elem";"ce.0270767m@ac-normandie.fr";"27310";"Ecole primaire Guy de Maupassant";"Eure";"235 Rue De La Libération";"Public";"49.3528621892447";"0.817840364948045"
