"commune";"type_ecole";"mail";"code_postal";"nom_etablissement";"departement";"adresse";"statut";"latitude";"longitude"
"Paris  5e  Arrondissement";"Elem";"ce.0750149e@ac-paris.fr";"75005";"E.P.PR SAINTE-CATHERINE 13 bis rue des Bernardins";"Paris";"13 Bis Rue Des Bernardins";"Privé";"48.85024361643063";"2.35084371821255"
"Paris 14e  Arrondissement";"Elem";"ce.0750154k@ac-paris.fr";"75014";"E.P.PR SEVIGNE 95 boulevard Arago";"Paris";"95 Boulevard Arago";"Privé";"48.83431410997515";"2.33464212863397"
"Paris  7e  Arrondissement";"Elem";"ce.0750185u@ac-paris.fr";"75007";"E.P.PR SAINTE-JEANNE ELISABETH 49 avenue duquesne";"Paris";"49 Avenue Duquesne";"Privé";"48.84967269648358";"2.3136504007489753"
"Paris  8e  Arrondissement";"Elem";"ce.0750195e@ac-paris.fr";"75008";"E.P.PR SAINT-PIERRE DE CHAILLOT 10 rue Chistophe Colomb";"Paris";"10 Rue Chistophe Colomb";"Privé";"48.86985862690528";"2.299364404305736"
"Paris 11e  Arrondissement";"Elem";"ce.0750227p@ac-paris.fr";"75011";"E.P.PR SAINT-AMBROISE 11 passage Saint Ambroise";"Paris";"11 Passage Saint Ambroise";"Privé";"48.86365533345122";"2.377014691158897"
"Paris  8e  Arrondissement";"Elem";"ce.0750229s@ac-paris.fr";"75008";"E.P.PR FENELON SAINTE-MARIE 7 rue de la Bienfaisance";"Paris";"7 Rue De La Bienfaisance";"Privé";"48.876698711206174";"2.3203692571615733"
"Paris 14e  Arrondissement";"Elem";"ce.0750259z@ac-paris.fr";"75014";"E.P.PR LA BRUYERE-SAINTE-ISABELLE 70 rue de l'Abbé Carton";"Paris";"70 Rue De L'Abbé Carton";"Privé";"48.828408717902384";"2.318965041450071"
"Paris 15e  Arrondissement";"Elem";"ce.0750281y@ac-paris.fr";"75015";"E.P.PR LA CROIX 25 rue Mathurin Régnier";"Paris";"25 Rue Mathurin Régnier";"Privé";"48.839854111711986";"2.307836474382328"
"Paris 16e  Arrondissement";"Elem";"ce.0750295n@ac-paris.fr";"75016";"E.P.PR L'ASSOMPTION 6 rue de Lubeck";"Paris";"6 Rue De Lubeck";"Privé";"48.86687437031992";"2.2942747896366904"
"Paris 17e  Arrondissement";"Elem";"ce.0750321s@ac-paris.fr";"75017";"E.P.PR BLANCHE DE CASTILLE 8 ter rue Roger Bacon";"Paris";"8 Ter Rue Roger Bacon";"Privé";"48.88256723395801";"2.289450362092928"
"Paris 18e  Arrondissement";"Elem";"ce.0750337j@ac-paris.fr";"75018";"E.P.PR SAINT-JEAN DE MONTMARTRE 31 rue Caulaincourt";"Paris";"31 Rue Caulaincourt";"Privé";"48.88821536735607";"2.333774738186778"
"Paris 19e  Arrondissement";"Elem";"ce.0750349x@ac-paris.fr";"75019";"E.P.PR SAINT-GEORGES 17 rue Bouret";"Paris";"17 Rue Bouret";"Privé";"48.881097072033654";"2.375119309859386"
"Paris 20e  Arrondissement";"Elem";"ce.0750598t@ac-paris.fr";"75020";"E.P.PR NOTRE DAME DE LA CROIX 13 rue du Retrait";"Paris";"13 Rue Du Retrait";"Privé";"48.86820804554957";"2.3949439771377024"
"Paris 13e  Arrondissement";"Elem";"ce.0750815d@ac-paris.fr";"75013";"E.E.A.PU ARAGO D 30 boulevard Arago";"Paris";"30 Boulevard Arago";"Public";"48.835599770681675";"2.3474593725120436"
"Paris 19e  Arrondissement";"Elem";"ce.0750821k@ac-paris.fr";"75019";"E.E.PU BARBANEGRE EA 7 rue Barbanègre";"Paris";"7 Rue Barbanègre";"Public";"48.89213866232671";"2.3828617081915295"
"Paris 16e  Arrondissement";"Elem";"ce.0750822l@ac-paris.fr";"75016";"E.E.PU Daniel Dreyfous-Ducas 15 rue des Bauches";"Paris";"15 Rue Des Bauches";"Public";"48.85597979009138";"2.273565508947534"
"Paris  1er Arrondissement";"Elem";"ce.0750845l@ac-paris.fr";"75001";"E.E.PU CAMBON 28 rue Cambon";"Paris";"28 Rue Cambon";"Public";"48.868112482545946";"2.3268557756595905"
"Paris 12e  Arrondissement";"Elem";"ce.0750850s@ac-paris.fr";"75012";"E.E.PU CHARENTON S 315 rue de Charenton";"Paris";"315 Rue De Charenton";"Public";"48.83363085705185";"2.3951600517073506"
"Paris 19e  Arrondissement";"Elem";"ce.0750853v@ac-paris.fr";"75019";"E.E.PU CHEMINETS 16 rue des Cheminets";"Paris";"16 Rue Des Cheminets";"Public";"48.88764718123934";"2.3987165791284433"
"Paris 15e  Arrondissement";"Elem";"ce.0750863f@ac-paris.fr";"75015";"E.E.PU CORBON 3 rue Corbon";"Paris";"3 Rue Corbon";"Public";"48.83653967705104";"2.303300052844412"
"Paris 13e  Arrondissement";"Elem";"ce.0750864g@ac-paris.fr";"75013";"E.E.PU DAMESME 5 rue Damesme";"Paris";"5 Rue Damesme";"Public";"48.825097887417115";"2.355436556048602"
"Paris 20e  Arrondissement";"Elem";"ce.0750877w@ac-paris.fr";"75020";"E.E.PU EUGENE REISZ 4 rue Eugène Reisz";"Paris";"4 Rue Eugène Reisz";"Public";"48.85660879549742";"2.410899503060512"
"Paris 10e  Arrondissement";"Elem";"ce.0750878x@ac-paris.fr";"75010";"E.E.PU EUGENE VARLIN 10 rue Eugène Varlin";"Paris";"10 Rue Eugène Varlin";"Public";"48.87833743680041";"2.3647734771850106"
"Paris  8e  Arrondissement";"Elem";"ce.0750886f@ac-paris.fr";"75008";"E.E.PU FLORENCE 4 rue de Florence";"Paris";"4 Rue De Florence";"Public";"48.8822924757813";"2.3255993260810306"
"Paris 18e  Arrondissement";"Elem";"ce.0750897t@ac-paris.fr";"75018";"E.E.PU GUADELOUPE 2 rue de la Guadeloupe";"Paris";"2 Rue De La Guadeloupe";"Public";"48.89075296238113";"2.362632189916769"
"Paris 12e  Arrondissement";"Elem";"ce.0750918r@ac-paris.fr";"75012";"E.E.PU ROBERT-JEAN LONGUET-Ecole élémentaire 10 avenue Lamoricière";"Paris";"10 Avenue Lamoricière";"Public";"48.844867650489135";"2.4123376081373045"
"Paris 20e  Arrondissement";"Elem";"ce.0750924x@ac-paris.fr";"75020";"E.E.PU LESSEPS EA 11 rue de Lesseps";"Paris";"11 Rue De Lesseps";"Public";"48.85905159825972";"2.3997158246001296"
"Paris 19e  Arrondissement";"Elem";"ce.0750932f@ac-paris.fr";"75019";"E.E.PU MANIN EA 40 bis rue Manin";"Paris";"40 Bis Rue Manin";"Public";"48.88401213173277";"2.3907144223336223"
"Paris 16e  Arrondissement";"Elem";"ce.0750944u@ac-paris.fr";"75016";"E.E.A.PU MURAT 164 boulevard Murat";"Paris";"164 Boulevard Murat";"Public";"48.83888965329239";"2.2654040081509548"
"Paris  4e  Arrondissement";"Elem";"ce.0750947x@ac-paris.fr";"75004";"E.E.PU NEUVE ST PIERRE 15 rue Neuve Saint Pierre";"Paris";"15 Rue Neuve Saint Pierre";"Public";"48.85379108464315";"2.3631374681048087"
"Paris  8e  Arrondissement";"Elem";"ce.0750956g@ac-paris.fr";"75008";"E.P.PU PAUL BAUDRY 10 rue Paul Baubry";"Paris";"10 Rue Paul Baubry";"Public";"48.87234533310637";"2.3074033525485094"
"Paris 12e  Arrondissement";"Elem";"ce.0750969w@ac-paris.fr";"75012";"E.E.PU POMMARD 4 rue Pommard";"Paris";"4 Rue Pommard";"Public";"48.83564914929904";"2.3851286020129274"
"Paris 13e  Arrondissement";"Elem";"ce.0750976d@ac-paris.fr";"75013";"E.E.PU PROVIDENCE EA 5 rue de la Providence";"Paris";"5 Rue De La Providence";"Public";"48.82534838657764";"2.348883051584085"
"Paris  5e  Arrondissement";"Elem";"ce.0750987r@ac-paris.fr";"75005";"E.E.PU ROLLIN 10 rue Rollin";"Paris";"10 Rue Rollin";"Public";"48.84474858851431";"2.3508535718798056"
"Paris 19e  Arrondissement";"Elem";"ce.0751009p@ac-paris.fr";"75019";"E.E.PU TANGER EA 41 rue de Tanger";"Paris";"41 Rue De Tanger";"Public";"48.88776787271194";"2.370236149711425"
"Paris  9e  Arrondissement";"Elem";"ce.0751017y@ac-paris.fr";"75009";"E.E.PU VICTOIRE 16 rue de la Victoire";"Paris";"16 Rue De La Victoire";"Public";"48.87514840228213";"2.339189682704964"
"Paris  5e  Arrondissement";"Elem";"ce.0751032p@ac-paris.fr";"75005";"E.E.PU ARBALETE 41 rue de l'Arbalète";"Paris";"41 Rue De L'Arbalète";"Public";"48.83940237292651";"2.3464852774861096"
"Paris 12e  Arrondissement";"Elem";"ce.0751044c@ac-paris.fr";"75012";"E.E.PU BERCY 167 rue de Bercy";"Paris";"167 Rue De Bercy";"Public";"48.842606638555";"2.375238803201148"
"Paris  8e  Arrondissement";"Elem";"ce.0751048g@ac-paris.fr";"75008";"E.E.PU BIENFAISANCE 12 bis rue de la Bienfaisance";"Paris";"12 Bis Rue De La Bienfaisance";"Public";"48.87680391371556";"2.3198906717493797"
"Paris 19e  Arrondissement";"Elem";"ce.0751052l@ac-paris.fr";"75019";"E.E.PU EUGENIE COTTON EB 16 rue Eugénie Cotton";"Paris";"16 Rue Eugénie Cotton";"Public";"48.87874161706642";"2.3945243574707575"
"Paris 16e  Arrondissement";"Elem";"ce.0751053m@ac-paris.fr";"75016";"E.P.PU BOISSIERE 56 rue Boissière";"Paris";"56 Rue Boissière";"Public";"48.86814689419269";"2.2878884811139066"
"Paris 17e  Arrondissement";"Elem";"ce.0751064z@ac-paris.fr";"75017";"E.E.PU CAPITAINE LAGACHE 19 rue du Capitaine Lagache";"Paris";"19 Rue Du Capitaine Lagache";"Public";"48.892040273316894";"2.3255944496562635"
"Paris 18e  Arrondissement";"Elem";"ce.0751070f@ac-paris.fr";"75018";"E.E.PU CHAMPIONNET 69 rue Championnet";"Paris";"69 Rue Championnet";"Public";"48.895749682770315";"2.3451478463878983"
"Paris 18e  Arrondissement";"Elem";"ce.0751072h@ac-paris.fr";"75018";"E.E.PU CHARLES HERMITE 4 rue Charles Hermite";"Paris";"4 Rue Charles Hermite";"Public";"48.89989411610214";"2.368665374551161"
"Paris 13e  Arrondissement";"Elem";"ce.0751100n@ac-paris.fr";"75013";"E.E.PU FAGON 13 rue Fagon";"Paris";"13 Rue Fagon";"Public";"48.83254835085068";"2.356950586227918"
"Paris 15e  Arrondissement";"Elem";"ce.0751103s@ac-paris.fr";"75015";"E.E.PU FELIX FAURE 56 avenue Félix Faure";"Paris";"56 Avenue Félix Faure";"Public";"48.84069895621581";"2.2866148506690824"
"Paris 18e  Arrondissement";"Elem";"ce.0751116f@ac-paris.fr";"75018";"E.E.PU GUSTAVE ROUANET 7 rue Gustave Rouanet";"Paris";"7 Rue Gustave Rouanet";"Public";"48.89631491835427";"2.3403163668430906"
"Paris 18e  Arrondissement";"Elem";"ce.0751119j@ac-paris.fr";"75018";"E.E.PU HERMEL 20 rue Hermel";"Paris";"20 Rue Hermel";"Public";"48.891300858349105";"2.3445123325851465"
"Paris 11e  Arrondissement";"Elem";"ce.0751131x@ac-paris.fr";"75011";"E.E.PU KELLER EB 4 rue Keller";"Paris";"4 Rue Keller";"Public";"48.85361959403239";"2.376856657313405"
"Paris 20e  Arrondissement";"Elem";"ce.0751140g@ac-paris.fr";"75020";"E.E.PU LESSEPS EB 9 rue de Lesseps";"Paris";"9 Rue De Lesseps";"Public";"48.85871122284841";"2.4001695296048235"
"Paris 13e  Arrondissement";"Elem";"ce.0751141h@ac-paris.fr";"75013";"E.E.PU NORDMANN 140 rue Léon Maurice Nordmann";"Paris";"140 Rue Léon Maurice Nordmann";"Public";"48.83377401840659";"2.3431813348206365"
"Paris  6e  Arrondissement";"Elem";"ce.0751143k@ac-paris.fr";"75006";"E.E.PU LITTRE 6 rue Littré";"Paris";"6 Rue Littré";"Public";"48.84564274351848";"2.323773455259951"
"Paris 12e  Arrondissement";"Elem";"ce.0751150t@ac-paris.fr";"75012";"E.E.PU MARSOULAN 19 rue Marsoulan";"Paris";"19 Rue Marsoulan";"Public";"48.84639427255294";"2.4031565263534045"
"Paris 20e  Arrondissement";"Elem";"ce.0751165j@ac-paris.fr";"75020";"E.E.PU OLIVIER METRA EB 22 rue Olivier Métra";"Paris";"22 Rue Olivier Métra";"Public";"48.872893230155604";"2.39434012168656"
"Paris 10e  Arrondissement";"Elem";"ce.0751171r@ac-paris.fr";"75010";"E.E.PU ANNETTE ZAIDMAN - Ecole élémentaire 159 avenue Parmentier";"Paris";"159 Avenue Parmentier";"Public";"48.87169619806823";"2.3696029274704826"
"Paris 16e  Arrondissement";"Elem";"ce.0751175v@ac-paris.fr";"75016";"E.P.PU PAUL VALERY 18 rue Paul Valéry";"Paris";"18 Rue Paul Valéry";"Public";"48.870343062199204";"2.2900015650291734"
"Paris 20e  Arrondissement";"Elem";"ce.0751190l@ac-paris.fr";"75020";"E.E.PU PYRENEES EB 291 rue des Pyrénées";"Paris";"291 Rue Des Pyrénées";"Public";"48.86929140788255";"2.3948768630255843"
"Paris  5e  Arrondissement";"Elem";"ce.0751214m@ac-paris.fr";"75005";"E.E.PU ST JACQUES 28 rue Saint Jacques";"Paris";"28 Rue Saint Jacques";"Public";"48.851335091245254";"2.3456624057981226"
"Paris 20e  Arrondissement";"Elem";"ce.0751226a@ac-paris.fr";"75020";"E.E.PU TOURTILLE 38 rue de Tourtille";"Paris";"38 Rue De Tourtille";"Public";"48.87230759876451";"2.380425893296713"
"Paris 11e  Arrondissement";"Elem";"ce.0751227b@ac-paris.fr";"75011";"E.E.PU TROIS BORNES 39 rue des trois Bornes";"Paris";"39 Rue Des Trois Bornes";"Public";"48.8673489340204";"2.3746012609307763"
"Plaisir";"Mater";"ce.0780726r@ac-versailles.fr";"78370";"Ecole maternelle Danielle Casanova";"Yvelines";"01 Rue Robespierre";"Public";"48.82009946627654";"1.9581835684766251"
"Saulx-Marchais";"Elem";"ce.0780969e@ac-versailles.fr";"78650";"Ecole primaire";"Yvelines";"1 Rue De La Mairie";"Public";"48.83839046808753";"1.8357232654484628"
"Maurepas";"Elem";"ce.0782103m@ac-versailles.fr";"78310";"Ecole élémentaire La Malmedonne";"Yvelines";"Avenue Du Rouergue";"Public";"48.75954790152989";"1.941158983227863"
"Vitry-sur-Seine";"Elem";"ce.0940164t@ac-creteil.fr";"94400";"Ecole élémentaire Irène Joliot-Curie A";"Val-de-Marne";"Rue Saint Germain";"Public";"48.79014137840007";"2.39289285086392"
"Vincennes";"Elem";"ce.0940177g@ac-creteil.fr";"94300";"Ecole élémentaire Ouest";"Val-de-Marne";"22 Rue Victor Basch";"Public";"48.84766289161865";"2.4273706076048063"
"Vitry-sur-Seine";"Elem";"ce.0940198e@ac-creteil.fr";"94400";"Ecole élémentaire Henri Wallon A";"Val-de-Marne";"99 Rue Louise Aglaé Cretté";"Public";"48.79864967395887";"2.394310440782089"
"Champigny-sur-Marne";"Elem";"ce.0940211u@ac-creteil.fr";"94500";"Ecole élémentaire Albert Thomas";"Val-de-Marne";"54 Rue Karl Marx";"Public";"48.823130923667776";"2.5156742021274536"
"Fontenay-sous-Bois";"Elem";"ce.0940241b@ac-creteil.fr";"94120";"Ecole élémentaire d'application Pasteur A";"Val-de-Marne";"3 Rue Pierre Dulac";"Public";"48.847647829361996";"2.4645121101283824"
"Ivry-sur-Seine";"Elem";"ce.0940249k@ac-creteil.fr";"94200";"Ecole élémentaire Joliot-Curie A";"Val-de-Marne";"1 Rue Truillot";"Public";"48.8102687505295";"2.3914507071135223"
"Alfortville";"Elem";"ce.0940260x@ac-creteil.fr";"94140";"Ecole élémentaire Victor Hugo";"Val-de-Marne";"28 Rue Jules Guesde";"Public";"48.80471134906612";"2.4165057725103716"
"Thiais";"Elem";"ce.0940300r@ac-creteil.fr";"94320";"Ecole élémentaire Romain Gary";"Val-de-Marne";"6 Rue Romain Gary";"Public";"48.76689735375652";"2.380345140673305"
"Bry-sur-Marne";"Elem";"ce.0940301s@ac-creteil.fr";"94360";"Ecole élémentaire Henri Cahn";"Val-de-Marne";"26 Bis Boulevard Gallieni";"Public";"48.84173066072574";"2.5226423404807123"
"Orly";"Elem";"ce.0940318k@ac-creteil.fr";"94310";"Ecole élémentaire Jean Moulin";"Val-de-Marne";"87 Avenue De La Victoire";"Public";"48.7446179506554";"2.3960346723749315"
"Chevilly-Larue";"Elem";"ce.0940327v@ac-creteil.fr";"94550";"Ecole élémentaire Pasteur";"Val-de-Marne";"4 Avenue De La Croix Du Sud";"Public";"48.77027012711399";"2.3426443198510167"
"Fontenay-sous-Bois";"Elem";"ce.0940353y@ac-creteil.fr";"94120";"Ecole élémentaire Pasteur B";"Val-de-Marne";"4 Rue Pasteur";"Public";"48.84704304171377";"2.4640155004907913"
"Maisons-Alfort";"Elem";"ce.0940359e@ac-creteil.fr";"94700";"Ecole élémentaire Parmentier B";"Val-de-Marne";"6 Rue Paul Vaillant-Couturier";"Public";"48.803016338072766";"2.4294305974987154"
"Le Kremlin-Bicêtre";"Elem";"ce.0940361g@ac-creteil.fr";"94270";"Ecole élémentaire Pierre Brossolette";"Val-de-Marne";"3 Rue Pierre Brossolette";"Public";"48.81500261112575";"2.3593350071668704"
"Ivry-sur-Seine";"Elem";"ce.0940369r@ac-creteil.fr";"94200";"Ecole élémentaire Joliot Curie B";"Val-de-Marne";"23 Rue Saint Just";"Public";"48.811042010475454";"2.3892928655922248"
"Vitry-sur-Seine";"Elem";"ce.0940382e@ac-creteil.fr";"94400";"Ecole élémentaire Paul Eluard A";"Val-de-Marne";"3 Rue De Burnley";"Public";"48.78711603949975";"2.3874781645561822"
"Orly";"Elem";"ce.0940388l@ac-creteil.fr";"94310";"Ecole primaire Cité Jardins";"Val-de-Marne";"4 Rue Georges Baudelaire";"Public";"48.74691128303722";"2.3774283204607465"
"Champigny-sur-Marne";"Mater";"ce.0940407g@ac-creteil.fr";"94500";"Ecole maternelle Cités Jardins Albert Thomas";"Val-de-Marne";"46 Rue Charles Fourier";"Public";"48.8228892442289";"2.514848332960584"
"Vitry-sur-Seine";"Mater";"ce.0940408h@ac-creteil.fr";"94400";"Ecole maternelle Eva Salmon";"Val-de-Marne";"42 Rue Charles Fourier";"Public";"48.80276570572871";"2.408037121214883"
"Saint-Maur-des-Fossés";"Mater";"ce.0940409j@ac-creteil.fr";"94100";"Ecole maternelle les Mûriers";"Val-de-Marne";"3 Rue Chevalier";"Public";"48.79058871251985";"2.5046961403002506"
"Villejuif";"Mater";"ce.0940410k@ac-creteil.fr";"94800";"Ecole maternelle Marcel Cachin";"Val-de-Marne";"22 Rue De Chevilly";"Public";"48.786277612654644";"2.354301869114818"
"Vitry-sur-Seine";"Mater";"ce.0940414p@ac-creteil.fr";"94400";"Ecole maternelle Jean-Jacques Rousseau";"Val-de-Marne";"10 Avenue Colonel Fabien";"Public";"48.78206735482969";"2.3814797054799364"
"Le Kremlin-Bicêtre";"Mater";"ce.0940419v@ac-creteil.fr";"94270";"Ecole maternelle Suzanne Buisson";"Val-de-Marne";"31 Rue Anatole France";"Public";"48.80776506471508";"2.3609816453281853"
"Chevilly-Larue";"Mater";"ce.0940420w@ac-creteil.fr";"94550";"Ecole maternelle Paul Bert";"Val-de-Marne";"11 Rue Du Nivernais";"Public";"48.77362294779327";"2.357483411381545"
"Vincennes";"Mater";"ce.0940431h@ac-creteil.fr";"94300";"Ecole maternelle Ouest";"Val-de-Marne";"3 Rue De L'Egalité";"Public";"48.84819065733768";"2.4286552863696094"
"Nogent-sur-Marne";"Mater";"ce.0940434l@ac-creteil.fr";"94130";"Ecole maternelle Fontenay";"Val-de-Marne";"6 Rue De Fontenay";"Public";"48.83654009798619";"2.4736711407300405"
"Arcueil";"Mater";"ce.0940435m@ac-creteil.fr";"94110";"Ecole maternelle Pauline Kergomard";"Val-de-Marne";"49 Avenue Gabriel Péri";"Public";"48.80079843829231";"2.3438947306120057"
"Champigny-sur-Marne";"Mater";"ce.0940439s@ac-creteil.fr";"94500";"Ecole maternelle Centre Politzer";"Val-de-Marne";"9 Rue Gaston Soufflay";"Public";"48.81665545461892";"2.5103685889572946"
"Fresnes";"Mater";"ce.0940444x@ac-creteil.fr";"94260";"Ecole maternelle les Capucines";"Val-de-Marne";"3 Bis Rue Auguste Daix";"Public";"48.754131479205654";"2.3202726518799577"
"Saint-Maur-des-Fossés";"Mater";"ce.0940463t@ac-creteil.fr";"94100";"Ecole maternelle D Adamville";"Val-de-Marne";"58 Rue Jules Ferry";"Public";"48.79650763310324";"2.4897400434252246"
"Vincennes";"Mater";"ce.0940466w@ac-creteil.fr";"94300";"Ecole maternelle Roland Vernaudon";"Val-de-Marne";"5 Avenue Lamartine";"Public";"48.84711380441038";"2.4338834032087533"
"Maisons-Alfort";"Mater";"ce.0940467x@ac-creteil.fr";"94700";"Ecole maternelle Charles Péguy";"Val-de-Marne";"20 Avenue De La Liberté";"Public";"48.79548607616059";"2.4319551734266898"
"L'Haÿ-les-Roses";"Mater";"ce.0940470a@ac-creteil.fr";"94240";"Ecole maternelle Vallée aux Renards";"Val-de-Marne";"4 Rue Marc Sangnier";"Public";"48.76633273328417";"2.322255316973854"
"Saint-Maur-des-Fossés";"Mater";"ce.0940477h@ac-creteil.fr";"94100";"Ecole maternelle la Pie";"Val-de-Marne";"10 Rue Mirabeau";"Public";"48.790402279520805";"2.481315488699954"
"Orly";"Mater";"ce.0940478j@ac-creteil.fr";"94310";"Ecole maternelle Romain Rolland";"Val-de-Marne";"Avenue Molière";"Public";"48.747926436037865";"2.404343265958763"
"Choisy-le-Roi";"Mater";"ce.0940482n@ac-creteil.fr";"94600";"Ecole maternelle Danielle Casanova";"Val-de-Marne";"49 Rue De La Paix";"Public";"48.76519165316473";"2.4218822015605825"
"Ivry-sur-Seine";"Mater";"ce.0940485s@ac-creteil.fr";"94200";"Ecole maternelle Maurice Thorez";"Val-de-Marne";"62 Avenue Maurice Thorez";"Public";"48.81647241993982";"2.3765597143740695"
"Fontenay-sous-Bois";"Mater";"ce.0940487u@ac-creteil.fr";"94120";"Ecole maternelle Pasteur";"Val-de-Marne";"2 Rue Pasteur";"Public";"48.84700308557577";"2.4641303753596993"
"Chevilly-Larue";"Mater";"ce.0940497e@ac-creteil.fr";"94550";"Ecole maternelle Pierre-Curie";"Val-de-Marne";"13 Rue Du Lieutenant Le Coz";"Public";"48.770051488784006";"2.365585263580095"
"Ivry-sur-Seine";"Mater";"ce.0940500h@ac-creteil.fr";"94200";"Ecole maternelle Maximilien Robespierre";"Val-de-Marne";"7 Ter Rue Robespierre";"Public";"48.809556214462795";"2.385429427844871"
"Ivry-sur-Seine";"Mater";"ce.0940502k@ac-creteil.fr";"94200";"Ecole maternelle Joliot Curie";"Val-de-Marne";"21 Rue Saint Just";"Public";"48.81019241867294";"2.389532943958175"
"Créteil";"Mater";"ce.0940503l@ac-creteil.fr";"94000";"Ecole maternelle Les Buttes";"Val-de-Marne";"45 Avenue Sainte Marie";"Public";"48.79992028734445";"2.4609368266502356"
"Créteil";"Mater";"ce.0940504m@ac-creteil.fr";"94000";"Ecole maternelle Savignat";"Val-de-Marne";"2 Allée De La Côte D'Or";"Public";"48.775998760988365";"2.47215614311869"
"Champigny-sur-Marne";"Mater";"ce.0940512w@ac-creteil.fr";"94500";"Ecole maternelle Marcel Cachin";"Val-de-Marne";"87 Rue Diderot";"Public";"48.812892192823";"2.491976446908508"
"Choisy-le-Roi";"Mater";"ce.0940514y@ac-creteil.fr";"94600";"Ecole maternelle Henri Wallon";"Val-de-Marne";"37 Rue Frédéric Joliot-Curie";"Public";"48.77413521800982";"2.417210949862045"
"L'Haÿ-les-Roses";"Mater";"ce.0940542d@ac-creteil.fr";"94240";"Ecole maternelle les Garennes";"Val-de-Marne";"35 Rue Du 8 Mai 1945";"Public";"48.777655219352376";"2.3295291129442144"
"Valenton";"Elem";"ce.0940631a@ac-creteil.fr";"94460";"Ecole élémentaire Paul Eluard";"Val-de-Marne";"Rue Gaston Monmousseau";"Public";"48.74695203001656";"2.4697051727803103"
"Villeneuve-Saint-Georges";"Elem";"ce.0940644p@ac-creteil.fr";"94190";"Ecole élémentaire Marc Seguin";"Val-de-Marne";"111 Avenue Anatole France";"Public";"48.74708601081447";"2.4527547613174168"
"La Queue-en-Brie";"Elem";"ce.0940693t@ac-creteil.fr";"94510";"Ecole élémentaire Jean Jaurès";"Val-de-Marne";"42 Rue Jean Jaurès";"Public";"48.78480325529978";"2.5786469847870985"
"Sucy-en-Brie";"Elem";"ce.0940696w@ac-creteil.fr";"94370";"Ecole élémentaire Centre";"Val-de-Marne";"6 Rue Des Ecoles";"Public";"48.76925904110089";"2.5177864434510666"
"Sucy-en-Brie";"Elem";"ce.0940700a@ac-creteil.fr";"94370";"Ecole primaire Grand Val";"Val-de-Marne";"4 Rue Jean-Jacques Rousseau";"Public";"48.77587386648518";"2.5141613811903194"
"Villecresnes";"Elem";"ce.0940704e@ac-creteil.fr";"94440";"Ecole élémentaire Mélanie Bonis";"Val-de-Marne";"9 Rue Du Bois D'Auteuil";"Public";"48.71458810529251";"2.541734559215901"
"Villiers-sur-Marne";"Elem";"ce.0940708j@ac-creteil.fr";"94350";"Ecole élémentaire Jean Jaurès";"Val-de-Marne";"1 Rue Louise Adelaïde";"Public";"48.823301133040495";"2.5495587846912016"
"Ablon-sur-Seine";"Mater";"ce.0940715s@ac-creteil.fr";"94480";"Ecole maternelle Pierre et Marie Curie";"Val-de-Marne";"6 Rue Pierre Et Marie Curie";"Public";"48.72377558989552";"2.420434562734547"
"Villeneuve-le-Roi";"Mater";"ce.0940719w@ac-creteil.fr";"94290";"Ecole maternelle Cités Unies";"Val-de-Marne";"2 Rue Mascaux";"Public";"48.7343498345709";"2.4100417309134032"
"Villeneuve-Saint-Georges";"Mater";"ce.0940733l@ac-creteil.fr";"94190";"Ecole maternelle Anatole France";"Val-de-Marne";"36 Rue Anatole France";"Public";"48.741526463509075";"2.452327529119079"
"Villeneuve-Saint-Georges";"Mater";"ce.0940736p@ac-creteil.fr";"94190";"Ecole maternelle Condorcet";"Val-de-Marne";"2 Rue Condorcet";"Public";"48.736931199195084";"2.462808059632565"
"Villeneuve-Saint-Georges";"Mater";"ce.0940737r@ac-creteil.fr";"94190";"Ecole maternelle Saint-Exupéry";"Val-de-Marne";"8 Rue Saint Exupéry";"Public";"48.75250348450016";"2.4481127427445455"
"Valenton";"Mater";"ce.0940744y@ac-creteil.fr";"94460";"Ecole maternelle Danielle Casanova";"Val-de-Marne";"3 Place Paul Vaillant - Couturier";"Public";"48.745857950281604";"2.469418437627874"
"Bonneuil-sur-Marne";"Elem";"ce.0940756l@ac-creteil.fr";"94380";"Ecole élémentaire Romain Rolland A";"Val-de-Marne";"3 Avenue Romain Rolland";"Public";"48.76957232295779";"2.479496490911655"
"L'Haÿ-les-Roses";"Mater";"ce.0940906z@ac-creteil.fr";"94240";"Ecole maternelle Geneviève de Gaulle-Anthonioz";"Val-de-Marne";"7 Rue Olympe De Gouges";"Public";"48.77969896058526";"2.3653114711670837"
"Villiers-sur-Marne";"Elem";"ce.0940907a@ac-creteil.fr";"94350";"Ecole primaire Jean Renon";"Val-de-Marne";"2 Route De Combault";"Public";"48.8249918583486";"2.5545811532397806"
"Vitry-sur-Seine";"Mater";"ce.0940946t@ac-creteil.fr";"94400";"Ecole maternelle Eugénie Cotton";"Val-de-Marne";"31 Impasse André Kommer";"Public";"48.782591956669215";"2.377198603742301"
"Valenton";"Mater";"ce.0940947u@ac-creteil.fr";"94460";"Ecole maternelle Jean Lurçat";"Val-de-Marne";"Villa Des Polognes";"Public";"48.74169690973502";"2.4677404171746864"
"L'Haÿ-les-Roses";"Elem";"ce.0940953a@ac-creteil.fr";"94240";"Ecole élémentaire Lallier";"Val-de-Marne";"27 Rue Paul Hochart";"Public";"48.775081898126345";"2.355497730386455"
"Ablon-sur-Seine";"Elem";"ce.0940956d@ac-creteil.fr";"94480";"Ecole primaire privée Sacré-Coeur";"Val-de-Marne";"1 Rue D'Estienne D'Orves";"Privé";"48.72502244739228";"2.4171552364929547"
"Bonneuil-sur-Marne";"Elem";"ce.0940959g@ac-creteil.fr";"94380";"Ecole primaire privée Notre-Dame";"Val-de-Marne";"9 Place Henri Barbusse";"Privé";"48.77511211426778";"2.4881094497507403"
"Cachan";"Elem";"ce.0940961j@ac-creteil.fr";"94230";"Ecole primaire privée Saint Joseph";"Val-de-Marne";"2 Ter Rue De La Citadelle";"Privé";"48.798200724525785";"2.3361932498030415"
"Champigny-sur-Marne";"Elem";"ce.0940962k@ac-creteil.fr";"94500";"Ecole primaire privée Sainte Thérèse";"Val-de-Marne";"3 Rue Des Tilleuls";"Privé";"48.8239027027294";"2.504074566593993"
"Choisy-le-Roi";"Elem";"ce.0940968s@ac-creteil.fr";"94600";"Ecole primaire privée Saint André";"Val-de-Marne";"12 Avenue Léon Gourdault";"Privé";"48.763445288126505";"2.4058164609760806"
"Gentilly";"Elem";"ce.0940975z@ac-creteil.fr";"94250";"Ecole primaire privée Saint Joseph";"Val-de-Marne";"9 Rue Victor Hugo";"Privé";"48.81398064370755";"2.351611080861533"
"Maisons-Alfort";"Elem";"ce.0940987m@ac-creteil.fr";"94700";"Ecole primaire privée Notre-Dame";"Val-de-Marne";"56 Rue Raspail";"Privé";"48.80822259080488";"2.4423297972360913"
"Nogent-sur-Marne";"Elem";"ce.0940992t@ac-creteil.fr";"94130";"Ecole primaire privée Albert de Mun";"Val-de-Marne";"5 Avenue Georges Clémenceau";"Privé";"48.83634982247131";"2.470498701841852"
"Nogent-sur-Marne";"Elem";"ce.0940993u@ac-creteil.fr";"94130";"Ecole primaire privée Montalembert";"Val-de-Marne";"28 Boulevard Gambetta";"Privé";"48.83859441464278";"2.4720808599421282"
"Saint-Maur-des-Fossés";"Elem";"ce.0941005g@ac-creteil.fr";"94100";"Ecole primaire privée Jeanne d'Arc";"Val-de-Marne";"109 Boulevard De Créteil";"Privé";"48.79812013145357";"2.4880334291484485"
"Sucy-en-Brie";"Elem";"ce.0941007j@ac-creteil.fr";"94370";"Ecole primaire privée Petit-Val";"Val-de-Marne";"12 Avenue Albert Pleuvry";"Privé";"48.7688488553952";"2.5146635292123767"
"Villejuif";"Elem";"ce.0941056m@ac-creteil.fr";"94800";"Ecole élémentaire Henri Wallon";"Val-de-Marne";"29 Rue Sacco Et Vanzetti";"Public";"48.803532470489124";"2.3613071706385393"
"Vitry-sur-Seine";"Elem";"ce.0941061t@ac-creteil.fr";"94400";"Ecole élémentaire Eugenie Cotton";"Val-de-Marne";"31 Impasse André Kommer";"Public";"48.782591956669215";"2.377198603742301"
"Ormesson-sur-Marne";"Elem";"ce.0941110w@ac-creteil.fr";"94490";"Ecole élémentaire Anatole France";"Val-de-Marne";"53 Rue Du Stade";"Public";"48.78950763968097";"2.5475624403357213"
"Thiais";"Elem";"ce.0941116c@ac-creteil.fr";"94320";"Ecole élémentaire Charles Péguy";"Val-de-Marne";"91 Avenue Du Général De Gaulle";"Public";"48.767964475245144";"2.373869558967033"
"Saint-Maurice";"Elem";"ce.0941118e@ac-creteil.fr";"94410";"Ecole élémentaire d'application Centre";"Val-de-Marne";"49 Rue Du Maréchal Leclerc";"Public";"48.817959044753906";"2.425753362206776"
"Limeil-Brévannes";"Elem";"ce.0941121h@ac-creteil.fr";"94450";"Ecole élémentaire Anatole France";"Val-de-Marne";"22 Rue D'Alsace Lorraine";"Public";"48.75363113668175";"2.4884615180817122"
"Le Kremlin-Bicêtre";"Mater";"ce.0941136z@ac-creteil.fr";"94270";"Ecole maternelle Pauline Kergomard";"Val-de-Marne";"10 Rue Benoit Malon";"Public";"48.807374036369026";"2.351665981373366"
"Villejuif";"Mater";"ce.0941158y@ac-creteil.fr";"94800";"Ecole maternelle Robert Lebon";"Val-de-Marne";"31 Rue Lamartine";"Public";"48.780520055615455";"2.3641147426631237"
"Villejuif";"Mater";"ce.0941204y@ac-creteil.fr";"94800";"Ecole maternelle Henri Wallon";"Val-de-Marne";"29 Rue Sacco Et Vanzetti";"Public";"48.803532470489124";"2.3613071706385393"
"L'Haÿ-les-Roses";"Elem";"ce.0941209d@ac-creteil.fr";"94240";"Ecole élémentaire Geneviève De Gaulle-Anthonioz";"Val-de-Marne";"7-11 Rue Olympe De Gouges";"Public";"48.775081898126345";"2.355497730386455"
"Arcueil";"Elem";"ce.0941246u@ac-creteil.fr";"94110";"Ecole élémentaire Henri Barbusse";"Val-de-Marne";"10 Rue Henri Barbusse";"Public";"48.807583457776744";"2.336721976709893"
"Champigny-sur-Marne";"Elem";"ce.0941251z@ac-creteil.fr";"94500";"Ecole élémentaire Anatole France A";"Val-de-Marne";"92 Avenue Boileau";"Public";"48.805187033621486";"2.5539033918616583"
"Saint-Mandé";"Elem";"ce.0941271w@ac-creteil.fr";"94160";"Ecole élémentaire Charles Digeon";"Val-de-Marne";"24 Rue Du Commandant Mouchotte";"Public";"48.83733290252853";"2.4167632248978084"
"Villejuif";"Elem";"ce.0941277c@ac-creteil.fr";"94800";"Ecole élémentaire Jean Vilar";"Val-de-Marne";"10 Bis Rue René Hamon";"Public";"48.78920492399127";"2.3616200418803457"
"Arcueil";"Elem";"ce.0941316v@ac-creteil.fr";"94110";"Ecole élémentaire Jean Macé";"Val-de-Marne";"12 Rue Fernand Forest";"Public";"48.79919391101964";"2.3386720341723177"
"Maisons-Alfort";"Elem";"ce.0941324d@ac-creteil.fr";"94700";"Ecole élémentaire Victor Hugo";"Val-de-Marne";"85 Rue Victor Hugo";"Public";"48.799778194553454";"2.4425085688106822"
"Le Kremlin-Bicêtre";"Elem";"ce.0941328h@ac-creteil.fr";"94270";"Ecole primaire privée Jeanne d'Arc";"Val-de-Marne";"2 Avenue Du Repos";"Privé";"48.810062409426855";"2.3630614288199294"
"Limeil-Brévannes";"Mater";"ce.0941335r@ac-creteil.fr";"94450";"Ecole maternelle Rosa Luxemburg";"Val-de-Marne";"59 Avenue De Valenton";"Public";"48.74287279928496";"2.5007125695723014"
"Valenton";"Elem";"ce.0941339v@ac-creteil.fr";"94460";"Ecole élémentaire Jean Jaurès";"Val-de-Marne";"35 Rue Raspail";"Public";"48.765358126151675";"2.4467782025297056"
"Limeil-Brévannes";"Mater";"ce.0941369c@ac-creteil.fr";"94450";"Ecole maternelle André Malraux";"Val-de-Marne";"5 Rue Louise Du Pierry";"Public";"48.748759997858805";"2.479956931809968"
"Maisons-Alfort";"Elem";"ce.0941384u@ac-creteil.fr";"94700";"Ecole élémentaire Saint-Exupéry";"Val-de-Marne";"57 Bis Rue Gabriel Péri";"Public";"48.81414514211104";"2.437558684496064"
"Villiers-sur-Marne";"Mater";"ce.0941393d@ac-creteil.fr";"94350";"Ecole maternelle Charles Perrault";"Val-de-Marne";"25 Rue Du Maréchal Foch";"Public";"48.82876841743775";"2.537792707261699"
"Boissy-Saint-Léger";"Elem";"ce.0941402n@ac-creteil.fr";"94470";"Ecole élémentaire Jacques Prévert A";"Val-de-Marne";"2 Rue Jacques Prévert";"Public";"48.75445297926814";"2.5026734843937177"
"Alfortville";"Elem";"ce.0941442g@ac-creteil.fr";"94140";"Ecole élémentaire Montaigne";"Val-de-Marne";"2 Rue De Bordeaux";"Public";"48.787513909953354";"2.4274495612396736"
"Créteil";"Mater";"ce.0941445k@ac-creteil.fr";"94000";"Ecole maternelle Alain Gerbault";"Val-de-Marne";"1 Rue Charles Gounod";"Public";"48.78460293467398";"2.4509104307309078"
"La Queue-en-Brie";"Elem";"ce.0941447m@ac-creteil.fr";"94510";"Ecole élémentaire Jean Zay";"Val-de-Marne";"Rue Dunoyer De Segonzac";"Public";"48.78924637007771";"2.5766483313353623"
"Créteil";"Elem";"ce.0941450r@ac-creteil.fr";"94000";"Ecole élémentaire Alain Gerbaut";"Val-de-Marne";"1 Rue Charles Gounod";"Public";"48.78460293467398";"2.4509104307309078"
"Rungis";"Mater";"ce.0941484c@ac-creteil.fr";"94150";"Ecole maternelle Ecole Médicis";"Val-de-Marne";"3 Rue De L'Hôtel Dieu";"Public";"48.747787955535784";"2.3483826765727547"
"Fontenay-sous-Bois";"Elem";"ce.0941486e@ac-creteil.fr";"94120";"Ecole élémentaire Edouard Vaillant";"Val-de-Marne";"2 Rue Edouard Vaillant";"Public";"48.85081866218944";"2.48368496481814"
"Boissy-Saint-Léger";"Elem";"ce.0941487f@ac-creteil.fr";"94470";"Ecole élémentaire d'application Jacques Prévert B";"Val-de-Marne";"2 Rue Jacques Prévert";"Public";"48.75445297926814";"2.5026734843937177"
"Sucy-en-Brie";"Mater";"ce.0941495p@ac-creteil.fr";"94370";"Ecole maternelle les Bruyères";"Val-de-Marne";"30 Boulevard De La Liberté";"Public";"48.75840720190197";"2.54993506060891"
"Noiseau";"Mater";"ce.0941507c@ac-creteil.fr";"94880";"Ecole maternelle Albert Camus";"Val-de-Marne";"1 Rue Albert Camus";"Public";"48.77418032515611";"2.5442975072527076"
"Chennevières-sur-Marne";"Mater";"ce.0941511g@ac-creteil.fr";"94430";"Ecole maternelle Marcel Pagnol";"Val-de-Marne";"15 Rue Clément Ader";"Public";"48.79882618775844";"2.553786252130974"
"Le Plessis-Trévise";"Mater";"ce.0941545u@ac-creteil.fr";"94420";"Ecole maternelle la Maréchale";"Val-de-Marne";"206 Avenue De La Maréchale";"Public";"48.80837366136751";"2.5836117484299956"
"Maisons-Alfort";"Mater";"ce.0941547w@ac-creteil.fr";"94700";"Ecole maternelle Georges Pompidou";"Val-de-Marne";"16 Rue Georges Gaume";"Public";"48.80045847973871";"2.441427112177651"
"Vitry-sur-Seine";"Elem";"ce.0941608m@ac-creteil.fr";"94400";"Ecole élémentaire Paul Langevin";"Val-de-Marne";"97 Rue Paul Armangot";"Public";"48.77621142859572";"2.375971074880594"
"La Queue-en-Brie";"Elem";"ce.0941616w@ac-creteil.fr";"94510";"Ecole élémentaire Pauline Kergomard";"Val-de-Marne";"34 Allée Des Clématites";"Public";"48.7936029991489";"2.5614349303334834"
"Saint-Maur-des-Fossés";"Mater";"ce.0941624e@ac-creteil.fr";"94100";"Ecole maternelle Le Parc-Est";"Val-de-Marne";"12 Avenue De L'Est";"Public";"48.79939439823066";"2.5031258611347114"
"Villecresnes";"Mater";"ce.0941626g@ac-creteil.fr";"94440";"Ecole maternelle Réveillon";"Val-de-Marne";"2 Impasse Du Mont Ezard";"Public";"48.72232972884353";"2.5384924412514125"
"Fontenay-sous-Bois";"Elem";"ce.0941689a@ac-creteil.fr";"94120";"Ecole élémentaire Henri Wallon B";"Val-de-Marne";"48 Rue La Fontaine";"Public";"48.85820279010887";"2.479034982267691"
"Choisy-le-Roi";"Mater";"ce.0941696h@ac-creteil.fr";"94600";"Ecole maternelle Victor Hugo";"Val-de-Marne";"11 Rue Victor Jérôme";"Public";"48.768321264198";"2.416996938555595"
"Gentilly";"Elem";"ce.0941700m@ac-creteil.fr";"94250";"Ecole élémentaire Victor Hugo";"Val-de-Marne";"1 Allée Des Platanes";"Public";"48.81615261848798";"2.3542628802781445"
"Ivry-sur-Seine";"Elem";"ce.0941752u@ac-creteil.fr";"94200";"Ecole élémentaire d'application Albert Einstein";"Val-de-Marne";"9 Allée Du Parc";"Public";"48.814218073087766";"2.38567272563161"
"Thiais";"Mater";"ce.0941860l@ac-creteil.fr";"94320";"Ecole maternelle Jacques Prévert";"Val-de-Marne";"6 Avenue De La République";"Public";"48.765267763976006";"2.39263385108635"
"Créteil";"Mater";"ce.0941874b@ac-creteil.fr";"94000";"Ecole maternelle Gaston Defferre";"Val-de-Marne";"5 Rue Georges Ohm";"Public";"48.7749553611167";"2.45807441235879"
"Villeneuve-Saint-Georges";"Mater";"ce.0941946e@ac-creteil.fr";"94190";"Ecole maternelle Jean Zay";"Val-de-Marne";"8 Allée Mozart";"Public";"48.74784068180283";"2.4553228421995392"
"Joinville-le-Pont";"Elem";"ce.0942022m@ac-creteil.fr";"94340";"Ecole élémentaire Parangon";"Val-de-Marne";"41 Boulevard Maréchal Leclerc";"Public";"48.812898835381304";"2.4686750884747233"
"Maisons-Alfort";"Mater";"ce.0942040g@ac-creteil.fr";"94700";"Ecole maternelle Hector Berlioz";"Val-de-Marne";"9 Rue De Mesly";"Public";"48.79687205878278";"2.441886173955256"
"Orly";"Elem";"ce.0942081b@ac-creteil.fr";"94310";"Ecole élémentaire Irène Joliot-Curie";"Val-de-Marne";"15 Bis Rue Du Docteur Calmette";"Public";"48.748067325676224";"2.409348153452372"
"Bonneuil-sur-Marne";"Mater";"ce.0942091m@ac-creteil.fr";"94380";"Ecole maternelle Henri Arles";"Val-de-Marne";"5 Rue Auguste Delaune";"Public";"48.7635211472251";"2.4857415898811515"
"Bonneuil-sur-Marne";"Elem";"ce.0942092n@ac-creteil.fr";"94380";"Ecole élémentaire Henri Arles";"Val-de-Marne";"Rue Auguste Delaune";"Public";"48.76377184464312";"2.48568606100181"
"Le Kremlin-Bicêtre";"Mater";"ce.0942108f@ac-creteil.fr";"94270";"Ecole maternelle Robert Desnos";"Val-de-Marne";"Rue Paul Lafargue";"Public";"48.807402597485286";"2.3581252711865752"
"Chevilly-Larue";"Mater";"ce.0942135k@ac-creteil.fr";"94550";"Ecole maternelle Pasteur";"Val-de-Marne";"4 Avenue De La Croix Du Sud";"Public";"48.77027012711399";"2.3426443198510167"
"Saint-Maur-des-Fossés";"Elem";"ce.0942164s@ac-creteil.fr";"94100";"Ecole primaire Miss Cavell";"Val-de-Marne";"52 Avenue Miss Cavell";"Public";"48.799931702944406";"2.492511101278889"
"Vitry-sur-Seine";"Mater";"ce.0942189u@ac-creteil.fr";"94400";"Ecole maternelle Malassis-Gluck";"Val-de-Marne";"22 Voie Gluck";"Public";"48.79905806552986";"2.3747611057363156"
"Maisons-Alfort";"Elem";"ce.0942212u@ac-creteil.fr";"94700";"Ecole élémentaire Pasteur";"Val-de-Marne";"33 Rue Bourgelat";"Public";"48.81382446727715";"2.41957817139054"
"Villeneuve-le-Roi";"Elem";"ce.0942219b@ac-creteil.fr";"94290";"Ecole élémentaire Paul Painlevé";"Val-de-Marne";"100 Rue Paul Painlevé";"Public";"48.73885780459252";"2.414970580614992"
"Villejuif";"Elem";"ce.0942236v@ac-creteil.fr";"94800";"Ecole élémentaire Marcel Cachin";"Val-de-Marne";"22 Rue De Chevilly";"Public";"48.786277612654644";"2.354301869114818"
"Bry-sur-Marne";"Elem";"ce.0942273k@ac-creteil.fr";"94360";"Ecole primaire Paul Barilliet";"Val-de-Marne";"23 Rue Du 2 Décembre 1870";"Public";"48.8338304092904";"2.5291366379357108"
"Ivry-sur-Seine";"Elem";"ce.0942359d@ac-creteil.fr";"94200";"Ecole primaire Rosa Parks";"Val-de-Marne";"84 Avenue De Verdun";"Public";"48.80763451264925";"2.3738726191867636"
"Villiers-sur-Marne";"Mater";"ce.0942360e@ac-creteil.fr";"94350";"Ecole maternelle Théophile Gautier";"Val-de-Marne";"3 Rue Albert Schweitzer";"Public";"48.831386821189376";"2.5378893695155593"
"Thiais";"Elem";"ce.0942391n@ac-creteil.fr";"94320";"Ecole primaire privée Ozar Hatorah";"Val-de-Marne";"12 Rue Marcel Dadi";"Privé";"48.7533983493462";"2.4039380616814143"
"Choisy-le-Roi";"Mater";"ce.0942398w@ac-creteil.fr";"94600";"Ecole maternelle Paul Langevin";"Val-de-Marne";"29 Rue Albert 1Er";"Public";"48.75531828343413";"2.412947038613657"
"Vincennes";"Elem";"ce.0942421w@ac-creteil.fr";"94300";"Ecole primaire Simone Veil";"Val-de-Marne";"34 Rue Mirabeau";"Public";"48.85296687063419";"2.4375280605683227"
"Villeneuve-le-Roi";"Mater";"ce.0942442u@ac-creteil.fr";"94290";"Ecole maternelle Camille Claudel";"Val-de-Marne";"Rue Du Maréchal De Turenne";"Public";"48.74369467196243";"2.433938361788646"
"Villeneuve-Saint-Georges";"Mater";"ce.0942511u@ac-creteil.fr";"94190";"Ecole maternelle Anne Sylvestre";"Val-de-Marne";"1 Avenue Paul Verlaine";"Public";"48.73370501806856";"2.46383110872374"
"Chevilly-Larue";"Elem";"ce.0942569g@ac-creteil.fr";"94550";"Ecole primaire Frida Kahlo";"Val-de-Marne";"6 Promenade Arthur Rimbaud";"Public";"48.766281740830735";"2.3673984628177416"
"Alfortville";"Elem";"ce.0942616h@ac-creteil.fr";"94140";"Ecole élémentaire Simone Franceschi";"Val-de-Marne";"4 Rue De Bordeaux";"Public";"48.78756793631583";"2.4274625795628584"
"Epinay-sur-Seine";"Elem";"ce.0930161v@ac-creteil.fr";"93800";"Ecole élémentaire Jean-Jacques  Rousseau 1";"Seine-Saint-Denis";"1 Square De Cherbourg";"Public";"48.95922376573512";"2.29200264667821"
"Romainville";"Elem";"ce.0930193e@ac-creteil.fr";"93230";"Ecole élémentaire Henri Barbusse";"Seine-Saint-Denis";"4 Rue Jean Charcot";"Public";"48.87839515317355";"2.4408871402511747"
"Epinay-sur-Seine";"Elem";"ce.0930285e@ac-creteil.fr";"93800";"Ecole élémentaire Jean-Jacques Rousseau 2";"Seine-Saint-Denis";"1 Square De Cherbourg";"Public";"48.95922376573512";"2.29200264667821"
"Dugny";"Mater";"ce.0930465a@ac-creteil.fr";"93440";"Ecole maternelle Irène et Frédéric Joliot-Curie";"Seine-Saint-Denis";"Rue Henri Barbusse";"Public";"48.955428489171894";"2.4152093224960085"
"Drancy";"Mater";"ce.0930468d@ac-creteil.fr";"93700";"Ecole maternelle Jacqueline Quatremaire";"Seine-Saint-Denis";"64 Rue Jacqueline Quatremaire";"Public";"48.91875563163006";"2.460187574868561"
"Saint-Denis";"Elem";"ce.0930588j@ac-creteil.fr";"93380";"Ecole élémentaire Joliot-Curie 1";"Seine-Saint-Denis";"10 Rue Frédéric Joliot-Curie, Pierrefitte Sur Seine";"Public";"48.955135253083775";"2.363799857472817"
"Villepinte";"Elem";"ce.0930729m@ac-creteil.fr";"93420";"Ecole élémentaire Vert Galant 2";"Seine-Saint-Denis";"6 Impasse Du Chevalier De La Barre";"Public";"48.94771367170367";"2.5481099610170417"
"Gagny";"Mater";"ce.0930819k@ac-creteil.fr";"93220";"Ecole maternelle Victor Hugo";"Seine-Saint-Denis";"7 Rue Du 18 Juin 1940";"Public";"48.87831026482607";"2.5548723496808665"
"Drancy";"Mater";"ce.0931483g@ac-creteil.fr";"93700";"Ecole maternelle Jacques Jorissen";"Seine-Saint-Denis";"100 Rue Des Bois De Groslay";"Public";"48.91705435404382";"2.4696925896356454"
"Aubervilliers";"Mater";"ce.0932484v@ac-creteil.fr";"93300";"Ecole maternelle Françoise Dolto";"Seine-Saint-Denis";"14 Rue Paul Doumer";"Public";"48.91628928942387";"2.3870017217831383"
"Alfortville";"Mater";"ce.0942630y@ac-creteil.fr";"94140";"Ecole Maternelle Mariam Arabian";"Val-de-Marne";"2 Rue Komitas";"Privé";"48.7902123831754";"2.424324608595709"
"Romainville";"Elem";"ce.0930188z@ac-creteil.fr";"93230";"Ecole élémentaire Fraternité";"Seine-Saint-Denis";"5 Rue Louis Aubin";"Public";"48.87489495648632";"2.4443604769625398"
"Sevran";"Elem";"ce.0932666t@ac-creteil.fr";"93270";"Ecole - Groupe Scolaire Privé APCS";"Seine-Saint-Denis";"65 Rue Alfred Nobel";"Privé";"48.93316430216293";"2.51383774955748"
"Noisy-le-Sec";"Mater";"ce.0932873t@ac-creteil.fr";"93130";"Ecole maternelle Alice Guy";"Seine-Saint-Denis";"9 Rue Jean Renoir";"Public";"48.90255583438822";"2.4646293548265903"
"Dugny";"Elem";"ce.0932875v@ac-creteil.fr";"93440";"ECOLE ELEMENTAIRE LUCIE AUBRAC";"Seine-Saint-Denis";"1 Avenue Du Général De Gaulle";"Public";"48.94977205322069";"2.4153835219240016"
"Paris 14e  Arrondissement";"Mater";"ce.0751244v@ac-paris.fr";"75014";"E.M.PU ALESIA V 3 bis rue d'Alésia";"Paris";"3 Bis Rue D'Alésia";"Public";"48.82662382401784";"2.3398823896904255"
"Paris 18e  Arrondissement";"Mater";"ce.0751247y@ac-paris.fr";"75018";"E.M.PU AMIRAUX 19 rue des Amiraux";"Paris";"19 Rue Des Amiraux";"Public";"48.89461816990021";"2.350400922340084"
"Paris 17e  Arrondissement";"Mater";"ce.0751248z@ac-paris.fr";"75017";"E.M.PU ANDRE BRECHET 21 rue André Brechet";"Paris";"21 Rue André Brechet";"Public";"48.89885879259754";"2.326848335246739"
"Paris 14e  Arrondissement";"Mater";"ce.0751250b@ac-paris.fr";"75014";"E.M.PU CHANTIN 22 rue Antoine Chantin";"Paris";"22 Rue Antoine Chantin";"Public";"48.82728228048132";"2.3225336561230154"
"Paris 19e  Arrondissement";"Mater";"ce.0751253e@ac-paris.fr";"75019";"E.M.PU ARMAND CARREL E 47 rue Armand Carrel";"Paris";"47 Rue Armand Carrel";"Public";"48.88270044792767";"2.3757846031517014"
"Paris 11e  Arrondissement";"Mater";"ce.0751257j@ac-paris.fr";"75011";"E.M.PU PRESENTATION 4 bis rue de la Présentation";"Paris";"4 Bis Rue De La Présentation";"Public";"48.871010204708156";"2.3770276106658534"
"Paris 20e  Arrondissement";"Mater";"ce.0751263r@ac-paris.fr";"75020";"E.M.PU BIDASSOA 21 rue de la Bidassoa";"Paris";"21 Rue De La Bidassoa";"Public";"48.86611790901911";"2.3936855064667992"
"Paris  5e  Arrondissement";"Mater";"ce.0751270y@ac-paris.fr";"75005";"E.M.PU BUFFON 15 bis rue Buffon";"Paris";"15 Bis Rue Buffon";"Public";"48.842546850834665";"2.3618673418315503"
"Paris 17e  Arrondissement";"Mater";"ce.0751271z@ac-paris.fr";"75017";"E.M.PU C. LAGACHE 21 rue du Capitaine Lagache";"Paris";"21 Rue Du Capitaine Lagache";"Public";"48.89214369663275";"2.3252753293689974"
"Paris 16e  Arrondissement";"Mater";"ce.0751277f@ac-paris.fr";"75016";"E.M.PU CHARDON LAGACHE 64 rue Chardon Lagache";"Paris";"64 Rue Chardon Lagache";"Public";"48.84236115916087";"2.264221417856412"
"Paris 13e  Arrondissement";"Mater";"ce.0751292x@ac-paris.fr";"75013";"E.M.PU DOMREMY 15 rue de Domrémy";"Paris";"15 Rue De Domrémy";"Public";"48.83027004166403";"2.3730040936938193"
"Paris  2e  Arrondissement";"Mater";"ce.0751296b@ac-paris.fr";"75002";"E.M.PU DUSSOUBS B 12 rue dussoubs";"Paris";"12 Rue Dussoubs";"Public";"48.865144020116";"2.3486855580862818"
"Paris 14e  Arrondissement";"Mater";"ce.0751316y@ac-paris.fr";"75014";"E.M.PU HIPPOLYTE MAINDRON Y 48 rue Hippolyte Maindron";"Paris";"48 Rue Hippolyte Maindron";"Public";"48.83040540353324";"2.3205586733648844"
"Paris 13e  Arrondissement";"Elem";"ce.0751325h@ac-paris.fr";"75013";"E.P.PU KUSS 8 rue Kuss";"Paris";"8 Rue Kuss";"Public";"48.82223081817797";"2.351305541799141"
"Paris 15e  Arrondissement";"Mater";"ce.0751326j@ac-paris.fr";"75015";"E.M.PU LACORDAIRE J 5 rue Lacordaire";"Paris";"5 Rue Lacordaire";"Public";"48.844069371285435";"2.2844362253059067"
"Paris 12e  Arrondissement";"Mater";"ce.0751328l@ac-paris.fr";"75012";"E.M.PU CARNOT 16 boulevard Carnot";"Paris";"16 Boulevard Carnot";"Public";"48.84472883123978";"2.413005491038156"
"Paris  5e  Arrondissement";"Mater";"ce.0751334t@ac-paris.fr";"75005";"E.M.PU LYONNAIS 22 rue des Lyonnais";"Paris";"22 Rue Des Lyonnais";"Public";"48.838519129528564";"2.3464731898711633"
"Paris 20e  Arrondissement";"Mater";"ce.0751337w@ac-paris.fr";"75020";"E.M.PU MARAICHERS 31 rue des Maraîchers";"Paris";"31 Rue Des Maraîchers";"Public";"48.850974901653125";"2.407181490114442"
"Paris 20e  Arrondissement";"Mater";"ce.0751342b@ac-paris.fr";"75020";"E.M.PU MARYSE HILSZ B 18 rue Maryse Hilsz";"Paris";"18 Rue Maryse Hilsz";"Public";"48.85061916066282";"2.412917335047071"
"Paris 14e  Arrondissement";"Mater";"ce.0751345e@ac-paris.fr";"75014";"E.M.PU MAURICE ROUVIER E 2 rue Maurice Rouvier";"Paris";"2 Rue Maurice Rouvier";"Public";"48.830600078351814";"2.3105721558905192"
"Paris  5e  Arrondissement";"Mater";"ce.0751348h@ac-paris.fr";"75005";"E.M.PU MOUFFETARD 29 rue Mouffetard";"Paris";"29 Rue Mouffetard";"Public";"48.843987136720145";"2.34942006107922"
"Paris 18e  Arrondissement";"Mater";"ce.0751355r@ac-paris.fr";"75018";"E.M.PU ORSEL 56 rue d'Orsel";"Paris";"56 Rue D'Orsel";"Public";"48.883553827597304";"2.3408666610778117"
"Paris 17e  Arrondissement";"Mater";"ce.0751367d@ac-paris.fr";"75017";"E.M.PU PEREIRE D 221 boulevard Pereire";"Paris";"221 Boulevard Pereire";"Public";"48.88045424724599";"2.2893755605600066"
"Paris 12e  Arrondissement";"Mater";"ce.0751369f@ac-paris.fr";"75012";"E.M.PU PICPUS F 56 rue de Picpus";"Paris";"56 Rue De Picpus";"Public";"48.843591478385505";"2.3966223289339585"
"Paris 13e  Arrondissement";"Mater";"ce.0751375m@ac-paris.fr";"75013";"E.M.PU PORTE D'IVRY M 53 avenue de la Porte d'Ivry";"Paris";"53 Avenue De La Porte D'Ivry";"Public";"48.82118499014748";"2.369493139299385"
"Paris 10e  Arrondissement";"Mater";"ce.0751379s@ac-paris.fr";"75010";"E.M.PU RECOLLETS S 23 passage des Récollets";"Paris";"23 Passage Des Récollets";"Public";"48.87458869523627";"2.3606594622842954"
"Paris 12e  Arrondissement";"Mater";"ce.0751384x@ac-paris.fr";"75012";"E.M.PU REUILLY X 59 rue de Reuilly";"Paris";"59 Rue De Reuilly";"Public";"48.845678164066626";"2.3886853189105373"
"Paris 15e  Arrondissement";"Mater";"ce.0751388b@ac-paris.fr";"75015";"E.M.PU MADEMOISELLE B 83 rue Mademoiselle";"Paris";"83 Rue Mademoiselle";"Public";"48.84335943606445";"2.300498690539156"
"Paris 17e  Arrondissement";"Mater";"ce.0751402s@ac-paris.fr";"75017";"E.M.PU COLONEL MOLL S 16 rue du Colonel Moll";"Paris";"16 Rue Du Colonel Moll";"Public";"48.87801325190952";"2.290101525583631"
"Paris  1er Arrondissement";"Mater";"ce.0751403t@ac-paris.fr";"75001";"E.M.PU ST GERMAIN L'AUXERROIS 6 rue Saint-Germain l'Auxerrois";"Paris";"6 Rue Saint-Germain L'Auxerrois";"Public";"48.85821813148911";"2.3453865095401367"
"Paris 11e  Arrondissement";"Mater";"ce.0751409z@ac-paris.fr";"75011";"E.M.PU SOUZY 4 cité Souzy";"Paris";"4 Cité Souzy";"Public";"48.851740751426604";"2.3886932379655637"
"Paris 13e  Arrondissement";"Mater";"ce.0751410a@ac-paris.fr";"75013";"E.M.PU TOLBIAC 157 rue de Tolbiac";"Paris";"157 Rue De Tolbiac";"Public";"48.82603410537416";"2.3562654165931205"
"Paris 13e  Arrondissement";"Elem";"ce.0751417h@ac-paris.fr";"75013";"E.P.A.PU VANDREZANNE H 40 rue Vandrezanne";"Paris";"40 Rue Vandrezanne";"Public";"48.8278592334122";"2.3531534571571338"
"Paris 15e  Arrondissement";"Mater";"ce.0751428v@ac-paris.fr";"75015";"E.M.PU VOLONTAIRES 17 rue des Volontaires";"Paris";"17 Rue Des Volontaires";"Public";"48.84232965351907";"2.307453418521385"
"Paris  5e  Arrondissement";"Elem";"ce.0751437e@ac-paris.fr";"75005";"E.E.PU CARDINAL LEMOINE 24 rue du Cardinal Lemoine";"Paris";"24 Rue Du Cardinal Lemoine";"Public";"48.848272837245666";"2.3532816335978493"
"Paris 18e  Arrondissement";"Elem";"ce.0751443l@ac-paris.fr";"75018";"E.E.PU FRANCOISE DORLEAC EA 8 place Francoise Dorléac";"Paris";"8 Place Francoise Dorléac";"Public";"48.900063676474744";"2.337456147773793"
"Paris 19e  Arrondissement";"Mater";"ce.0751727v@ac-paris.fr";"75019";"E.M.PU CAMBRAI 5 bis rue Cambrai";"Paris";"5 Bis Rue De Cambrai";"Public";"48.894774780599555";"2.378036258767616"
"Paris 18e  Arrondissement";"Elem";"ce.0752079c@ac-paris.fr";"75018";"E.E.PU PHILIPPE DE GIRARD 58 rue Philippe de Girard";"Paris";"58 Rue Philippe De Girard";"Public";"48.88636540006199";"2.361158540048855"
"Paris 14e  Arrondissement";"Elem";"ce.0752246j@ac-paris.fr";"75014";"E.E.PU ALAIN FOURNIER J 1 square Alain Fournier";"Paris";"1 Square Alain Fournier";"Public";"48.82832410607111";"2.3076748902086424"
"Paris 10e  Arrondissement";"Elem";"ce.0752261a@ac-paris.fr";"75010";"E.P.PU MARCEL MARCEAU-Ecole Polyvalente 15 rue de Lancry";"Paris";"15 Rue De Lancry";"Public";"48.86956780258605";"2.3603434622187907"
"Paris 12e  Arrondissement";"Elem";"ce.0752330a@ac-paris.fr";"75012";"E.E.PU BIGNON 4 rue Bignon";"Paris";"4 Rue Bignon";"Public";"48.840431341846525";"2.388516595302695"
"Paris 15e  Arrondissement";"Elem";"ce.0752332c@ac-paris.fr";"75015";"E.P.PU MIOLLIS 33 bis rue Miollis";"Paris";"33 Bis Rue Miollis";"Public";"48.84538480596576";"2.302346505577818"
"Paris 20e  Arrondissement";"Elem";"ce.0752369t@ac-paris.fr";"75020";"E.E.PU Yvonne Hagnauer 40 rue des Pyrénées";"Paris";"40 Rue Des Pyrénées";"Public";"48.85107125152477";"2.406479925480279"
"Paris  1er Arrondissement";"Elem";"ce.0752401c@ac-paris.fr";"75001";"E.E.PU ARBRE SEC 15 rue de l'Arbre Sec";"Paris";"15 Rue De L'Arbre Sec";"Public";"48.8596506775319";"2.341921452331555"
"Paris 12e  Arrondissement";"Mater";"ce.0752405g@ac-paris.fr";"75012";"E.M.PU JACQUES HILLAIRET 40 rue Jacques Hillairet";"Paris";"40 Rue Jacques Hillairet";"Public";"48.843125722756035";"2.3888487900672284"
"Paris 19e  Arrondissement";"Mater";"ce.0752573p@ac-paris.fr";"75019";"E.M.PU TANDOU P 22 rue Tandou";"Paris";"22 Rue Tandou";"Public";"48.886467663289416";"2.3806215232393573"
"Paris  5e  Arrondissement";"Mater";"ce.0752617m@ac-paris.fr";"75005";"E.M.PU MOUFFETARD M 97 rue Mouffetard";"Paris";"97 Rue Mouffetard";"Public";"48.84127448139115";"2.3497182527576768"
"Paris 19e  Arrondissement";"Mater";"ce.0752627y@ac-paris.fr";"75019";"E.M.PU ARCHEREAU ILOT RIQUET 26 rue Archereau";"Paris";"26 Rue Archereau";"Public";"48.890475723996566";"2.373147875267947"
"Paris  2e  Arrondissement";"Elem";"ce.0752632d@ac-paris.fr";"75002";"E.E.PU JUSSIENNE 3 rue de la Jussienne";"Paris";"3 Rue De La Jussienne";"Public";"48.86529969723712";"2.3440911268279776"
"Paris  3e  Arrondissement";"Elem";"ce.0752635g@ac-paris.fr";"75003";"E.P.PU VAUCANSON 6 rue Vaucanson";"Paris";"6 Rue Vaucanson";"Public";"48.867117831272516";"2.3567883155918112"
"Paris 12e  Arrondissement";"Elem";"ce.0752638k@ac-paris.fr";"75012";"E.E.PU CHARLES BAUDELAIRE K 8 rue Charles Baudelaire";"Paris";"8 Rue Charles Baudelaire";"Public";"48.84883029920782";"2.3764655907067844"
"Paris 13e  Arrondissement";"Elem";"ce.0752639l@ac-paris.fr";"75013";"E.E.PU DUNOIS L 64 rue dunois";"Paris";"64 Rue Dunois";"Public";"48.8327480762663";"2.366909305716027"
"Paris 17e  Arrondissement";"Elem";"ce.0752642p@ac-paris.fr";"75017";"E.E.A.PU BESSIERES P 92 boulevard Bessières";"Paris";"92 Boulevard Bessières";"Public";"48.89660384035012";"2.318990943725245"
"Paris 20e  Arrondissement";"Elem";"ce.0752644s@ac-paris.fr";"75020";"E.E.PU SORBIER 15 rue Sorbier";"Paris";"15 Rue Sorbier";"Public";"48.86643376304837";"2.3921264385226686"
"Paris  9e  Arrondissement";"Mater";"ce.0752762v@ac-paris.fr";"75009";"E.M.PU GRANGE BATELIERE 11 rue de la Grange Batelière";"Paris";"11 Rue De La Grange Batelière";"Public";"48.87301661268386";"2.342063429221977"
"Paris 12e  Arrondissement";"Mater";"ce.0752771e@ac-paris.fr";"75012";"E.M.PU PICPUS 47 rue de Picpus";"Paris";"47 Rue De Picpus";"Public";"48.8432971393514";"2.3971080889164535"
"Paris 14e  Arrondissement";"Elem";"ce.0752778m@ac-paris.fr";"75014";"E.E.PU ALESIA M 188 rue d'Alésia";"Paris";"188 Rue D'Alésia";"Public";"48.832507039957605";"2.3128097276083017"
"Paris 15e  Arrondissement";"Mater";"ce.0752779n@ac-paris.fr";"75015";"E.M.PU PROCESSION 66 rue de la Procession";"Paris";"66 Rue De La Procession";"Public";"48.836574327744735";"2.309430454181443"
"Paris 15e  Arrondissement";"Mater";"ce.0752832w@ac-paris.fr";"75015";"E.M.PU EMERIAU W 16 rue Emeriau";"Paris";"16 Rue Emeriau";"Public";"48.85134315625109";"2.287856462614045"
"Paris 19e  Arrondissement";"Mater";"ce.0752835z@ac-paris.fr";"75019";"E.M.PU EIDERS 5 allée des Eiders";"Paris";"5 Allée Des Eiders";"Public";"48.8942959379877";"2.3791713001483834"
"Paris 20e  Arrondissement";"Mater";"ce.0752960k@ac-paris.fr";"75020";"E.M.PU MOURAUD 9 rue Mouraud";"Paris";"9 Rue Mouraud";"Public";"48.854931785033955";"2.4074935461290177"
"Paris 16e  Arrondissement";"Elem";"ce.0752973z@ac-paris.fr";"75016";"E.P.PR BETH ZALMI 16-20 rue Pétrarque";"Paris";"16 Rue Pétrarque";"Privé";"48.861961715325904";"2.283461225936481"
"Paris 10e  Arrondissement";"Mater";"ce.0753049g@ac-paris.fr";"75010";"E.M.PU ECLUSES ST MARTIN 28 rue des Ecluses St Martin";"Paris";"28 Rue Des Ecluses St Martin";"Public";"48.87726862154388";"2.366223610827472"
"Paris 13e  Arrondissement";"Mater";"ce.0753123m@ac-paris.fr";"75013";"E.M.PU CHAT.DES RENTIERS 40 rue Château des Rentiers";"Paris";"40 Rue Château Des Rentiers";"Public";"48.82495685820618";"2.36998283073966"
"Paris 18e  Arrondissement";"Mater";"ce.0753127s@ac-paris.fr";"75018";"E.M.PU RICHOMME 18 rue Richomme";"Paris";"18 Rue Richomme";"Public";"48.88635535866386";"2.351428596415421"
"Paris 20e  Arrondissement";"Elem";"ce.0753197t@ac-paris.fr";"75020";"E.E.PU MOURAUD T 5 rue Mouraud";"Paris";"5 Rue Mouraud";"Public";"48.85477101805568";"2.4077188858990137"
"Paris 14e  Arrondissement";"Elem";"ce.0753205b@ac-paris.fr";"75014";"E.E.PU JEAN ZAY 18 rue Jean Zay";"Paris";"18 Rue Jean Zay";"Public";"48.837620617643125";"2.3206376510068174"
"Paris 13e  Arrondissement";"Mater";"ce.0753255f@ac-paris.fr";"75013";"E.M.PU CROULEBARBE 5 rue de Croulebarbe";"Paris";"5 Rue De Croulebarbe";"Public";"48.83440829107069";"2.352790182651275"
"Paris 15e  Arrondissement";"Mater";"ce.0753258j@ac-paris.fr";"75015";"E.M.PU DE LA SAIDA OLIVIER DE SERRES J 20 rue de la Saïda";"Paris";"20 Rue De La Saïda";"Public";"48.831997287153136";"2.2955289233016583"
"Paris 15e  Arrondissement";"Mater";"ce.0753259k@ac-paris.fr";"75015";"E.M.PU FRANCOIS COPPEE K 10 rue François Coppée";"Paris";"10 Rue François Coppée";"Public";"48.83992686114802";"2.287598246998809"
"Paris 19e  Arrondissement";"Elem";"ce.0753267u@ac-paris.fr";"75019";"E.E.PU MATHIS 14 rue Mathis";"Paris";"14 Rue Mathis";"Public";"48.890864822037464";"2.3754985166825096"
"Paris 16e  Arrondissement";"Elem";"ce.0753269w@ac-paris.fr";"75016";"E.E.A.PU PARC DES PRINCES W 23 avenue du Parc des Princes";"Paris";"23 Avenue Du Parc Des Princes";"Public";"48.84091776809184";"2.2546495464959806"
"Paris 20e  Arrondissement";"Mater";"ce.0753337v@ac-paris.fr";"75020";"E.M.PU AMANDIERS 90 rue des Amandiers";"Paris";"90 Rue Des Amandiers";"Public";"48.86696678375716";"2.3894197251051685"
"Paris 17e  Arrondissement";"Mater";"ce.0753340y@ac-paris.fr";"75017";"E.M.PU VILLIERS 22 avenue de la Porte de Villiers";"Paris";"22 Avenue De La Porte De Villiers";"Public";"48.8849512775866";"2.2855054253815106"
"Paris 18e  Arrondissement";"Elem";"ce.0753418h@ac-paris.fr";"75018";"E.P.PU MAURICE GENEVOIX 3 rue Maurice Genevoix";"Paris";"3 Rue Maurice Genevoix";"Public";"48.894454701940255";"2.3604646122940087"
"Paris 14e  Arrondissement";"Mater";"ce.0753436c@ac-paris.fr";"75014";"E.M.PU OUEST 13 rue de l'Ouest";"Paris";"13 Rue De L'Ouest";"Public";"48.83719841860574";"2.3219946827848843"
"Paris 18e  Arrondissement";"Mater";"ce.0753581k@ac-paris.fr";"75018";"E.M.PU RUISSEAU 6 rue du Ruisseau";"Paris";"6 Rue Du Ruisseau";"Public";"48.891708014252345";"2.3398851135537013"
"Paris 12e  Arrondissement";"Mater";"ce.0753747r@ac-paris.fr";"75012";"E.M.PU ARMAND ROUSSEAU 13 avenue Armand Rousseau";"Paris";"13 Avenue Armand Rousseau";"Public";"48.83651220699134";"2.409152517034959"
"Paris 19e  Arrondissement";"Mater";"ce.0754310c@ac-paris.fr";"75019";"E.M.PU DARIUS MILHAUD 53 allée Darius Milhaud";"Paris";"53 Allée Darius Milhaud";"Public";"48.884683039551426";"2.390893394029011"
"Paris 17e  Arrondissement";"Elem";"ce.0754322r@ac-paris.fr";"75017";"E.E.PU CHAMPERRET 7 avenue de la Porte Champerret";"Paris";"7 Avenue De La Porte Champerret";"Public";"48.88609223405406";"2.2869639437884315"
"Paris 18e  Arrondissement";"Mater";"ce.0754730j@ac-paris.fr";"75018";"E.M.PU EMILE DUPLOYE 27 rue Emile duployé";"Paris";"27 Rue Emile Duployé";"Public";"48.8898998624681";"2.3551403583949884"
"Paris 13e  Arrondissement";"Elem";"horizonmontessori@noos.fr";"75013";"E.P.PR HORIZON MONTESSORI 6 rue Gourdault";"Paris";"6 Rue Gourdault";"Privé";"48.83185769436078";"2.371512371568836"
"Paris 17e  Arrondissement";"Elem";"contact@stewartintschool.com";"75017";"E.P.PR PETITE EC BILING STEWART INTER 8 place de la Porte Champerret";"Paris";"8 Place De La Porte Champerret";"Privé";"48.886045228891824";"2.2908607106131416"
"Paris 19e  Arrondissement";"Elem";"secretariat@plaisirdenfance.com";"75019";"E.P.PR MONTESSORI PLAISIR D'ENFANCE 56 rue du Pré Saint Gervais";"Paris";"56 Rue Du Pré Saint Gervais";"Privé";"48.878386893493094";"2.3971204861273723"
"Paris 13e  Arrondissement";"Elem";"ce.0755009m@ac-paris.fr";"75013";"E.P.A.PU 44 ENFANTS D' IZIEU 2 place des 44 Enfants d'Izieu";"Paris";"2 Place Des 44 Enfants D'Izieu";"Public";"48.821637005346645";"2.3562570516781256"
"Paris 19e  Arrondissement";"Elem";"ce.0755037t@ac-paris.fr";"75019";"E.P.PU HENRI NOGUERES 10 rue Henri Nogueres";"Paris";"10 Rue Henri Nogueres";"Public";"48.88463815084214";"2.374684082980867"
"Paris 15e  Arrondissement";"Elem";"ce.0755063w@ac-paris.fr";"75015";"E.P.PU CONVENTION 78 rue de la Convention";"Paris";"78 Rue De La Convention";"Public";"48.842398638419596";"2.2847861807251184"
"Paris 18e  Arrondissement";"Elem";"ce.0755102n@ac-paris.fr";"75018";"E.P.PU SIMPLON 14 rue du Simplon";"Paris";"14 Rue Du Simplon";"Public";"48.893573489214425";"2.3514573395066902"
"Paris 18e  Arrondissement";"Elem";"ce.0755103p@ac-paris.fr";"75018";"E.P.PU PAJOL 11 rue Pajol";"Paris";"11 Rue Pajol";"Public";"48.885522405207425";"2.3605920424466613"
"Paris 17e  Arrondissement";"Elem";"ce.0755191k@ac-paris.fr";"75017";"E.P.PR ALLIANCE RACHI 2 rue Emile Borel";"Paris";"2 Rue Emile Borel";"Privé";"48.89912931347455";"2.322511254822599"
"Paris 19e  Arrondissement";"Elem";"ce.0755591v@ac-paris.fr";"75019";"E.P.PU CLAUDE BERNARD 118 boulevard Mac Donald";"Paris";"118 Boulevard Macdonald";"Public";"48.89908795378738";"2.381345722081325"
"Paris 17e  Arrondissement";"Elem";"ce.0755710z@ac-paris.fr";"75017";"E.P.PU BERNARD BUFFET 14 rue Bernard Buffet";"Paris";"14 Rue Bernard Buffet";"Public";"48.89168844280712";"2.3160465716875818"
"Paris 16e  Arrondissement";"Mater";"assomption@lapetiteecoledubonpasteur.com";"75016";"E.M.PR LA PETITE ECOLE DU BON PASTEUR 90 rue de l'Assomption";"Paris";"90 Rue De L'Assomption";"Privé";"48.8555522692599";"2.266289408092725"
"Paris 16e  Arrondissement";"Elem";"info@ecole-canadienne-paris.com";"75016";"E.P.PR ECOLE CANADIENNE INTERNATIONALE DE PARIS 91 boulevard Exelmans";"Paris";"91 Boulevard Exelmans";"Privé";"48.84431275949621";"2.258534888903189"
"Paris 17e  Arrondissement";"Elem";"contact@montessoriparis17.com";"75017";"E.P.PR MONTESSORI PARIS 17 33 boulevard Berthier";"Paris";"33 Boulevard Berthier";"Privé";"48.887993591506635";"2.3001009342185803"
"Paris 16e  Arrondissement";"Mater";"aurore@concordiaschoolparis.fr";"75016";"E.M.PR CONCORDIA BILINGUAL SCHOOL 41 avenue de la Grande Armée";"Paris";"41 Avenue De La Grande Armée";"Privé";"48.8753013021585";"2.289118643889522"
"Paris  6e  Arrondissement";"Mater";"annelaure.roussel@doucesmaternelles.com";"75006";"E.M.PR Douces Maternelles Saint Michel 84 boulevard Saint Michel";"Paris";"84 Boulevard Saint Michel";"Privé";"48.842276772295186";"2.33782287993217"
"Paris 15e  Arrondissement";"Elem";"contact@lespetitscrayons.com";"75015";"E.E.PR LES PETITS CRAYONS";"Paris";"28 Rue Saint Lambert";"Privé";"48.837297780310266";"2.2919544641303506"
"Paris 17e  Arrondissement";"Mater";"direction@preschoolbatignolles.com";"75017";"E.M.PR LA PRESCHOOL DES BATIGNOLLES 49 rue Lemercier";"Paris";"49 Rue Lemercier";"Privé";"48.88725592085173";"2.3224202652874975"
"Paris  5e  Arrondissement";"Mater";"contact@montessori-smallworld.com";"75005";"E.M.PR MONTESSORI SMALL WORLD";"Paris";"11 Rue Flatters";"Privé";"48.83809008165041";"2.3459703762338218"
"Paris 16e  Arrondissement";"Mater";"contact@at-montessori.com";"75016";"E.M.PR AT MONTESSORI RANELAGH 49 rue de Ranelagh";"Paris";"49 Rue De Ranelagh";"Privé";"48.85430591538262";"2.274872681176125"
"Everly";"Elem";"ce.0770066d@ac-creteil.fr";"77157";"Ecole élémentaire";"Seine-et-Marne";"16 Rue De La Mairie";"Public";"48.46737260410325";"3.2524145993939784"
"Jaulnes";"Elem";"ce.0770071j@ac-creteil.fr";"77480";"Ecole élémentaire";"Seine-et-Marne";"6 Rue De Courbeton";"Public";"48.41773477574932";"3.2709419617059665"
"Brie-Comte-Robert";"Elem";"ce.0770085z@ac-creteil.fr";"77170";"Ecole élémentaire Louis Pasteur";"Seine-et-Marne";"Rue Pasteur";"Public";"48.6936286189231";"2.617140263395341"
"Evry-Grégy-sur-Yerre";"Elem";"ce.0770095k@ac-creteil.fr";"77166";"Ecole primaire La Clef des Champs";"Seine-et-Marne";"Rue Du Savoir";"Public";"48.649705143734266";"2.641048428874994"
"Limoges-Fourches";"Mater";"ce.0770104v@ac-creteil.fr";"77550";"Ecole maternelle Les Merisiers";"Seine-et-Marne";"1 Place Du Souvenir";"Public";"48.62653826772486";"2.6650522380838395"
"Recloses";"Elem";"ce.0770126u@ac-creteil.fr";"77760";"Ecole élémentaire";"Seine-et-Marne";"6 Rue Des Ecoles";"Public";"48.347678401737134";"2.642479411798915"
"Chaintreaux";"Elem";"ce.0770138g@ac-creteil.fr";"77460";"Ecole primaire";"Seine-et-Marne";"3 Rue De La Mairie";"Public";"48.199452461585444";"2.8203107435552814"
"Féricy";"Elem";"ce.0770162h@ac-creteil.fr";"77133";"Ecole élémentaire";"Seine-et-Marne";"1 Rue De Ferland";"Public";"48.45832292927629";"2.800839723917951"
"Villeparisis";"Mater";"ce.0770208h@ac-creteil.fr";"77270";"Ecole maternelle République";"Seine-et-Marne";"30 Rue De La République";"Public";"48.93769047928562";"2.616215060931244"
"Chelles";"Mater";"ce.0770212m@ac-creteil.fr";"77500";"Ecole maternelle Georges Fournier";"Seine-et-Marne";"59 Avenue Hénin";"Public";"48.881376591701155";"2.578891056921345"
"Guérard";"Elem";"ce.0770234l@ac-creteil.fr";"77580";"Ecole élémentaire du Rempart";"Seine-et-Marne";"Avenue De La Binache";"Public";"48.82036567155695";"2.960458844639785"
"Mauperthuis";"Elem";"ce.0770236n@ac-creteil.fr";"77120";"Ecole élémentaire";"Seine-et-Marne";"Rue Du Parc";"Public";"48.768924196799574";"3.037284413426276"
"Mouroux";"Elem";"ce.0770237p@ac-creteil.fr";"77120";"Ecole élémentaire Fernand Picot";"Seine-et-Marne";"67 Avenue Du Général De Gaulle";"Public";"48.824118421373086";"3.0402372779489353"
"Boutigny";"Elem";"ce.0770247a@ac-creteil.fr";"77470";"Ecole primaire Les Prés Verts";"Seine-et-Marne";"26 Rue De La Fontaine";"Public";"48.919190326409115";"2.9282955902344208"
"Esbly";"Mater";"ce.0770257l@ac-creteil.fr";"77450";"Ecole maternelle les Couleurs";"Seine-et-Marne";"Rue Du Parc";"Public";"48.90274664570956";"2.814161185797608"
"Saint-Fiacre";"Elem";"ce.0770265v@ac-creteil.fr";"77470";"Ecole élémentaire  La Pierre à Polir";"Seine-et-Marne";"11 Rue Saint Jean";"Public";"48.92322299624865";"2.9548293704059136"
"Serris";"Elem";"ce.0770269z@ac-creteil.fr";"77700";"Ecole élémentaire Jean de La Fontaine";"Seine-et-Marne";"18 Bis Rue De La Garenne";"Public";"48.84561427949196";"2.790136485095216"
"Villiers-sur-Morin";"Elem";"ce.0770271b@ac-creteil.fr";"77580";"Ecole élémentaire Patrick Thémereau";"Seine-et-Marne";"Rue Du Touarte";"Public";"48.858167028288086";"2.8801823724084996"
"Saint-Soupplets";"Elem";"ce.0770276g@ac-creteil.fr";"77165";"Ecole élémentaire Henri Caroly";"Seine-et-Marne";"32 Rue Du Général Maunoury";"Public";"49.0398134472608";"2.8068238380541715"
"Monthyon";"Elem";"ce.0770286t@ac-creteil.fr";"77122";"Ecole primaire Marcel Pagnol";"Seine-et-Marne";"92 Rue De La République";"Public";"49.01003839947622";"2.8335743682621706"
"Mauregard";"Elem";"ce.0770290x@ac-creteil.fr";"77990";"Ecole primaire Jacqueline Auriol";"Seine-et-Marne";"2 Rue Moret";"Public";"49.0318784844415";"2.5805900959970627"
"Longperrier";"Elem";"ce.0770292z@ac-creteil.fr";"77230";"Ecole élémentaire Les Bergers";"Seine-et-Marne";"32 Ruelle Des Bergers";"Public";"49.05270232607521";"2.6624295934101543"
"Jutigny";"Elem";"ce.0770308s@ac-creteil.fr";"77650";"Ecole élémentaire";"Seine-et-Marne";"15 Rue De L'Eglise";"Public";"48.498650362974736";"3.2324885301156687"
"Ussy-sur-Marne";"Elem";"ce.0770321f@ac-creteil.fr";"77260";"Ecole primaire";"Seine-et-Marne";"2 A Rue De Changis";"Public";"48.95499926107914";"3.069160768118744"
"Pierre-Levée";"Elem";"ce.0770329p@ac-creteil.fr";"77580";"Ecole élémentaire";"Seine-et-Marne";"Place De La Mairie";"Public";"48.90023024770425";"3.040300196224549"
"Citry";"Elem";"ce.0770340b@ac-creteil.fr";"77730";"Ecole primaire";"Seine-et-Marne";"Rue De L'Eglise";"Public";"48.96933244344915";"3.237659358532474"
"Changis-sur-Marne";"Elem";"ce.0770341c@ac-creteil.fr";"77660";"Ecole primaire Les Tilleuls";"Seine-et-Marne";"4 Place Cruchaudeau";"Public";"48.95841032474349";"3.013936841398263"
"Marolles-en-Brie";"Elem";"ce.0770361z@ac-creteil.fr";"77120";"Ecole primaire";"Seine-et-Marne";"Place De La Mairie";"Public";"48.77598605111288";"3.162334376461774"
"Saint-Rémy-de-la-Vanne";"Elem";"ce.0770367f@ac-creteil.fr";"77320";"Ecole élémentaire du Bourg";"Seine-et-Marne";"Place De La Mairie";"Public";"48.792076390139975";"3.232806334667593"
"Avon";"Elem";"ce.0770373m@ac-creteil.fr";"77210";"Ecole élémentaire Haut Changis";"Seine-et-Marne";"4 Rue Du Haut Changis";"Public";"48.41700706454922";"2.730686284283868"
"Vulaines-sur-Seine";"Elem";"ce.0770393j@ac-creteil.fr";"77870";"Ecole élémentaire Les Orangers";"Seine-et-Marne";"3 Place Charles De Gaulle";"Public";"48.43043985601383";"2.7645783099276"
"Chalifert";"Elem";"ce.0770398p@ac-creteil.fr";"77144";"Ecole primaire Clos de la Fontaine";"Seine-et-Marne";"Allée Jean De La Fontaine";"Public";"48.88799240370375";"2.7694186390727658"
"Chanteloup-en-Brie";"Elem";"ce.0770404w@ac-creteil.fr";"77600";"Ecole élémentaire du Loupiot";"Seine-et-Marne";"17 Route Du Moulin Bourcier";"Public";"48.85647270677467";"2.7364549230247075"
"Chelles";"Elem";"ce.0770407z@ac-creteil.fr";"77500";"Ecole élémentaire Pierre et Marie Curie";"Seine-et-Marne";"Rue Du 11 Novembre";"Public";"48.876614288641484";"2.593598681404887"
"Chelles";"Elem";"ce.0770409b@ac-creteil.fr";"77500";"Ecole élémentaire Arcades Fleuries";"Seine-et-Marne";"Rue Des Arcades Fleuries";"Public";"48.880088895040515";"2.618923439005966"
"Chelles";"Elem";"ce.0770423s@ac-creteil.fr";"77500";"Ecole élémentaire Jean-Baptiste Delambre";"Seine-et-Marne";"21 Avenue Delambre";"Public";"48.90261541540004";"2.5937148940593975"
"Lagny-sur-Marne";"Elem";"ce.0770443n@ac-creteil.fr";"77400";"Ecole élémentaire Leclerc";"Seine-et-Marne";"15 Rue Simone Veil";"Public";"48.87381278843716";"2.6974150705338262"
"Lagny-sur-Marne";"Mater";"ce.0770445r@ac-creteil.fr";"77400";"Ecole maternelle Leclerc";"Seine-et-Marne";"23 Avenue De Rothschild";"Public";"48.872946804548086";"2.695309676954889"
"Lesches";"Mater";"ce.0770449v@ac-creteil.fr";"77450";"Ecole maternelle Marcel Pagnol";"Seine-et-Marne";"3 Place Jean Rostand";"Public";"48.90952930503508";"2.7822865875960896"
"Montévrain";"Elem";"ce.0770451x@ac-creteil.fr";"77144";"Ecole primaire Le Verger";"Seine-et-Marne";"20 Bis Rue Mauregard";"Public";"48.8754061571825";"2.7477733788344954"
"Torcy";"Elem";"ce.0770461h@ac-creteil.fr";"77200";"Ecole élémentaire Bel Air";"Seine-et-Marne";"1 Rue Du Bel Air";"Public";"48.85110760227219";"2.6408331919397297"
"Douy-la-Ramée";"Elem";"ce.0770478b@ac-creteil.fr";"77139";"Ecole élémentaire";"Seine-et-Marne";"24 Grande Rue";"Public";"49.066628645658696";"2.881351309305805"
"Ocquerre";"Elem";"ce.0770488m@ac-creteil.fr";"77440";"Ecole élémentaire";"Seine-et-Marne";"3 Grande Rue";"Public";"49.03830188342093";"3.05661135327778"
"Flagy";"Elem";"ce.0770503d@ac-creteil.fr";"77940";"Ecole primaire";"Seine-et-Marne";"11 Rue D'Episy";"Public";"48.31093425388868";"2.92314743357695"
"Germigny-l'Evêque";"Elem";"ce.0770522z@ac-creteil.fr";"77910";"Ecole primaire La Pinède";"Seine-et-Marne";"Allée Des Noyers";"Public";"48.99602538054778";"2.948702731781041"
"Mareuil-lès-Meaux";"Elem";"ce.0770525c@ac-creteil.fr";"77100";"Ecole élémentaire Les Hirondelles";"Seine-et-Marne";"5 Place Jean Jaurès";"Public";"48.92635604803718";"2.859606496688645"
"Meaux";"Elem";"ce.0770530h@ac-creteil.fr";"77100";"Ecole élémentaire Georges Guynemer";"Seine-et-Marne";"11 Rue Georges Guynemer";"Public";"48.95124764389063";"2.8929348198867153"
"Meaux";"Elem";"ce.0770544y@ac-creteil.fr";"77100";"Ecole élémentaire Compayre groupe 1";"Seine-et-Marne";"2 Rue Winston Churchill";"Public";"48.9502631215545";"2.9059813137605492"
"Meaux";"Mater";"ce.0770547b@ac-creteil.fr";"77100";"Ecole maternelle du Temple";"Seine-et-Marne";"Place Du Temple";"Public";"48.95807440068431";"2.8877125702477904"
"Livry-sur-Seine";"Elem";"ce.0770567y@ac-creteil.fr";"77000";"Ecole élémentaire";"Seine-et-Marne";"Rue Des Chanois";"Public";"48.513633746751715";"2.679627098501608"
"Maincy";"Elem";"ce.0770568z@ac-creteil.fr";"77950";"Ecole élémentaire Jean de La Fontaine";"Seine-et-Marne";"3 Rue Alfred Sommier";"Public";"48.54842361056026";"2.7012565777651867"
"Melun";"Elem";"ce.0770570b@ac-creteil.fr";"77000";"Ecole élémentaire Héloïse";"Seine-et-Marne";"7 Rue Gatelliet";"Public";"48.534120074485074";"2.6521488579244314"
"Melun";"Elem";"ce.0770572d@ac-creteil.fr";"77000";"Ecole élémentaire d'application Armand Cassagne";"Seine-et-Marne";"10 Place Chapu";"Public";"48.53326733981663";"2.65806281827351"
"Melun";"Elem";"ce.0770581n@ac-creteil.fr";"77000";"Ecole élémentaire Simone Veil";"Seine-et-Marne";"27 Rue De Montaigu";"Public";"48.549704084039625";"2.651790730156604"
"Melun";"Elem";"ce.0770584s@ac-creteil.fr";"77000";"Ecole élémentaire d'application Pasteur";"Seine-et-Marne";"64 Rue Du Général De Gaulle";"Public";"48.542482726163264";"2.6606309005842164"
"Vaux-le-Pénil";"Elem";"ce.0770599h@ac-creteil.fr";"77000";"Ecole élémentaire Beuve et Gantier";"Seine-et-Marne";"Place Beuve Et Gantier";"Public";"48.52535320825174";"2.682857269067771"
"Vert-Saint-Denis";"Elem";"ce.0770602l@ac-creteil.fr";"77240";"Ecole primaire Louis Pasteur";"Seine-et-Marne";"32 Rue Du Seigle";"Public";"48.571361643689976";"2.6099793376358957"
"Perthes";"Elem";"ce.0770624k@ac-creteil.fr";"77930";"Ecole élémentaire des Tilleuls";"Seine-et-Marne";"Rue De Melun";"Public";"48.47777881087238";"2.558121410135944"
"Saint-Martin-en-Bière";"Elem";"ce.0770638a@ac-creteil.fr";"77630";"Ecole élémentaire du Menhir";"Seine-et-Marne";"16 Rue Des Brandons";"Public";"48.437123340667554";"2.567389388574901"
"La Brosse-Montceaux";"Elem";"ce.0770641d@ac-creteil.fr";"77940";"Ecole élémentaire";"Seine-et-Marne";"6 Rue Jacquine";"Public";"48.345064610829084";"3.0199044643740316"
"La Grande-Paroisse";"Elem";"ce.0770648l@ac-creteil.fr";"77130";"Ecole élémentaire Clovis Moriot";"Seine-et-Marne";"Place De La Mairie";"Public";"48.38643063484044";"2.900430445839704"
"Saint-Germain-Laval";"Elem";"ce.0770666f@ac-creteil.fr";"77130";"Ecole élémentaire Courbeton";"Seine-et-Marne";"Rue De La Fontaine Froide";"Public";"48.41012822672951";"2.9858720692169807"
"Varennes-sur-Seine";"Elem";"ce.0770671l@ac-creteil.fr";"77130";"Ecole primaire Louis Aragon";"Seine-et-Marne";"Rue De La Grande Garenne";"Public";"48.374577763390505";"2.9413995884959365"
"Champagne-sur-Seine";"Mater";"ce.0770676s@ac-creteil.fr";"77430";"Ecole maternelle Henri Mauge";"Seine-et-Marne";"Rue Grande";"Public";"48.39765459398763";"2.8030595231833395"
"Dormelles";"Elem";"ce.0770677t@ac-creteil.fr";"77130";"Ecole élémentaire";"Seine-et-Marne";"14 Rue De La Mairie";"Public";"48.31528938103353";"2.902979428808424"
"Moret-Loing-et-Orvanne";"Elem";"ce.0770679v@ac-creteil.fr";"77250";"Ecole primaire du Marais";"Seine-et-Marne";"26 Rue Grande, Episy";"Public";"48.33425860664147";"2.7847064563747503"
"Moret-Loing-et-Orvanne";"Elem";"ce.0770683z@ac-creteil.fr";"77250";"Ecole élémentaire Les Columières";"Seine-et-Marne";"27 Avenue Georges Clemenceau, Moret Sur Loing";"Public";"48.3693837737069";"2.8145656437197353"
"Villemer";"Mater";"ce.0770699s@ac-creteil.fr";"77250";"Ecole maternelle";"Seine-et-Marne";"4 Rue De La Mairie";"Public";"48.30026912451039";"2.8257923982950883"
"Montereau-Fault-Yonne";"Elem";"ce.0770703w@ac-creteil.fr";"77130";"Ecole élémentaire Petit Vaugirard";"Seine-et-Marne";"5 Rue De La Pepiniere Royale";"Public";"48.386685754650124";"2.9517649270169795"
"Clos-Fontaine";"Elem";"ce.0770712f@ac-creteil.fr";"77370";"Ecole élémentaire Clos-Fontaine";"Seine-et-Marne";"7 Rue De Nangis";"Public";"48.60857624101718";"3.0167383377881585"
"Fontenailles";"Mater";"ce.0770715j@ac-creteil.fr";"77370";"Ecole maternelle Les Charmilles";"Seine-et-Marne";"176 Rue Maurice Wanlin";"Public";"48.55457905511636";"2.952964125084782"
"Jouy-le-Châtel";"Elem";"ce.0770739k@ac-creteil.fr";"77970";"Ecole primaire Colette Loze";"Seine-et-Marne";"5 Rue Du Pressoir";"Public";"48.664558415685285";"3.1266292519561505"
"Nangis";"Mater";"ce.0770744r@ac-creteil.fr";"77370";"Ecole maternelle Noas";"Seine-et-Marne";"17 Bis Rue Noas Daumesnil";"Public";"48.5566661161649";"3.016200053130375"
"Bourron-Marlotte";"Elem";"ce.0770753a@ac-creteil.fr";"77780";"Ecole élémentaire Jules Renard";"Seine-et-Marne";"Allée Des Ecoles";"Public";"48.33858785107215";"2.700586497292983"
"Moncourt-Fromonville";"Elem";"ce.0770762k@ac-creteil.fr";"77140";"Ecole primaire Etienne Dailly";"Seine-et-Marne";"30 Route De Moret";"Public";"48.30450883451233";"2.7036770039005433"
"Nemours";"Elem";"ce.0770768s@ac-creteil.fr";"77140";"Ecole primaire Jacques David";"Seine-et-Marne";"6 Rue Jean Macé";"Public";"48.26364544153566";"2.702005265535405"
"Chenoise-Cucharmoy";"Elem";"ce.0770781f@ac-creteil.fr";"77160";"Ecole primaire";"Seine-et-Marne";"7 Rue Dimeresse, Chenoise Cucharmoy";"Public";"48.615428204227214";"3.193004645156424"
"Longueville";"Elem";"ce.0770785k@ac-creteil.fr";"77650";"Ecole élémentaire Marceau Couillet";"Seine-et-Marne";"2 Rue Des Arches";"Public";"48.51756342706303";"3.2445478513418413"
"Poigny";"Elem";"ce.0770788n@ac-creteil.fr";"77160";"Ecole primaire";"Seine-et-Marne";"Rue Des Grattons";"Public";"48.539771907430094";"3.2842995275098765"
"Provins";"Mater";"ce.0770791s@ac-creteil.fr";"77160";"Ecole maternelle Coudoux";"Seine-et-Marne";"8 Rue Des Coudoux";"Public";"48.56837336364958";"3.291369927693655"
"Rebais";"Elem";"ce.0770814s@ac-creteil.fr";"77510";"Ecole élémentaire";"Seine-et-Marne";"31 Rue Du Docteur Farny";"Public";"48.8482029713392";"3.232965764588741"
"Saint-Cyr-sur-Morin";"Elem";"ce.0770817v@ac-creteil.fr";"77750";"Ecole élémentaire Pierre Mac Orlan";"Seine-et-Marne";"2 A Rue Des Montgoins";"Public";"48.907864010210645";"3.1814451608243726"
"Courpalay";"Elem";"ce.0770831k@ac-creteil.fr";"77540";"Ecole élémentaire La Fayette";"Seine-et-Marne";"2 Rue De Changeard";"Public";"48.64781906432683";"2.9616562034904996"
"Dammartin-sur-Tigeaux";"Elem";"ce.0770833m@ac-creteil.fr";"77163";"Ecole primaire";"Seine-et-Marne";"Allée Du Parc";"Public";"48.813778474183266";"2.9228940599994924"
"Touquin";"Elem";"ce.0770849e@ac-creteil.fr";"77131";"Ecole élémentaire Saint Etienne";"Seine-et-Marne";"2 Rue Du Pressoir";"Public";"48.73513023066827";"3.006583743300755"
"Chaumes-en-Brie";"Mater";"ce.0770860s@ac-creteil.fr";"77390";"Ecole maternelle";"Seine-et-Marne";"Chemin De L'Abbaye";"Public";"48.66317490473695";"2.8396451682076043"
"Liverdy-en-Brie";"Elem";"ce.0770867z@ac-creteil.fr";"77220";"Ecole primaire";"Seine-et-Marne";"1 Rue De Meaux";"Public";"48.70005976834007";"2.775415323738112"
"Tournan-en-Brie";"Elem";"ce.0770889y@ac-creteil.fr";"77220";"Ecole élémentaire Odette Marteau";"Seine-et-Marne";"1 Rue De La Corderie";"Public";"48.738628641363114";"2.7671150785741547"
"Saint-Martin-des-Champs";"Elem";"ce.0771013h@ac-creteil.fr";"77320";"Ecole élémentaire";"Seine-et-Marne";"4 Rue Du Pressoir";"Public";"48.778097758080484";"3.334513335531991"
"Ferrières-en-Brie";"Elem";"ce.0771038k@ac-creteil.fr";"77164";"Ecole élémentaire La Taffarette";"Seine-et-Marne";"3 Rue Maryse Bastié";"Public";"48.82194716407047";"2.703477281633085"
"Villevaudé";"Elem";"ce.0771047v@ac-creteil.fr";"77410";"Ecole primaire Ivan Peyches";"Seine-et-Marne";"Rue Adèle Claret";"Public";"48.912371596194546";"2.669042856764551"
"Meaux";"Mater";"ce.0771058g@ac-creteil.fr";"77100";"Ecole maternelle Grosse Pierre";"Seine-et-Marne";"Rue Du Dr Jean-Louis Happert";"Public";"48.96085817707763";"2.8974598113867693"
"Melun";"Mater";"ce.0771066r@ac-creteil.fr";"77000";"Ecole maternelle Françoise Dolto";"Seine-et-Marne";"27 Rue De Montaigu";"Public";"48.549704084039625";"2.651790730156604"
"Chelles";"Mater";"ce.0771067s@ac-creteil.fr";"77500";"Ecole maternelle Calmette";"Seine-et-Marne";"13 Avenue Delambre";"Public";"48.90261541540004";"2.5937148940593975"
"Bourron-Marlotte";"Mater";"ce.0771109m@ac-creteil.fr";"77780";"Ecole maternelle Charles Moreau-Vauthier";"Seine-et-Marne";"4 Rue Jules Duquesne";"Public";"48.34122664671303";"2.7092342449834734"
"Soignolles-en-Brie";"Elem";"ce.0771122b@ac-creteil.fr";"77111";"Ecole primaire";"Seine-et-Marne";"7 Impasse Des Ecoles";"Public";"48.65341404046428";"2.700051588391807"
"Gretz-Armainvilliers";"Elem";"ce.0771124d@ac-creteil.fr";"77220";"Ecole élémentaire Victor Hugo";"Seine-et-Marne";"8 Boulevard Romain Rolland";"Public";"48.74069946554761";"2.723444570080633"
"Chelles";"Mater";"ce.0771142y@ac-creteil.fr";"77500";"Ecole maternelle Chantereine";"Seine-et-Marne";"1 Rue Henrion";"Public";"48.89669667088434";"2.615921212481315"
"Melun";"Mater";"ce.0771144a@ac-creteil.fr";"77000";"Ecole maternelle Beauregard";"Seine-et-Marne";"6 Square Alphonse De Lamartine";"Public";"48.552325980756635";"2.6470999637534653"
"Melun";"Elem";"ce.0771286e@ac-creteil.fr";"77000";"Ecole primaire privée Sainte-Marie";"Seine-et-Marne";"10 Boulevard Gambetta";"Privé";"48.53788516101027";"2.661312224633935"
"Nemours";"Elem";"ce.0771292l@ac-creteil.fr";"77140";"Ecole primaire privée Sainte-Marie";"Seine-et-Marne";"6 Avenue Gambetta";"Privé";"48.26846537072521";"2.69597003183542"
"Cesson";"Mater";"ce.0771308d@ac-creteil.fr";"77240";"Ecole maternelle Jules Ferry";"Seine-et-Marne";"12 Rue D'Aulnoy";"Public";"48.567474679103114";"2.6048008869906427"
"Nangis";"Mater";"ce.0771326y@ac-creteil.fr";"77370";"Ecole maternelle Les Rossignots";"Seine-et-Marne";"8 Mail Couperin";"Public";"48.552515257024325";"3.018423645454644"
"Dammarie-les-Lys";"Elem";"ce.0771330c@ac-creteil.fr";"77190";"Ecole élémentaire François de Tessan";"Seine-et-Marne";"227 Allée De La Justice";"Public";"48.50861001071303";"2.6152073468278156"
"Gretz-Armainvilliers";"Mater";"ce.0771350z@ac-creteil.fr";"77220";"Ecole maternelle Georges Travers";"Seine-et-Marne";"2 Avenue Adrien Ledoux";"Public";"48.73820794508655";"2.733672609430149"
"Chelles";"Elem";"ce.0771369v@ac-creteil.fr";"77500";"Ecole primaire Les Tournelles";"Seine-et-Marne";"1 Rue Sainte Bathilde";"Public";"48.87622095818971";"2.5921797066806147"
"Sainte-Colombe";"Elem";"ce.0771384l@ac-creteil.fr";"77650";"Ecole primaire Armand François";"Seine-et-Marne";"7 Chemin Du Marais";"Public";"48.53007011301929";"3.253218833217541"
"Voulx";"Mater";"ce.0771412s@ac-creteil.fr";"77940";"Ecole maternelle Les Aulnes";"Seine-et-Marne";"8 Rue De La Berle";"Public";"48.28277599891271";"2.964035558327474"
"Moret-Loing-et-Orvanne";"Elem";"ce.0771426g@ac-creteil.fr";"77250";"Ecole élémentaire Ravanne";"Seine-et-Marne";"Rue De Ravanne, Ecuelles";"Public";"48.367893933981634";"2.8289467639854946"
"Bagneaux-sur-Loing";"Mater";"ce.0771438v@ac-creteil.fr";"77167";"Ecole maternelle Paul Lopez";"Seine-et-Marne";"Place De L'Hôtel De Ville";"Public";"48.23080163035746";"2.7057663392937976"
"Fontainebleau";"Elem";"ce.0771445c@ac-creteil.fr";"77300";"Ecole élémentaire Lagorsse";"Seine-et-Marne";"20 Rue Emile Cheysson";"Public";"48.415039349689586";"2.704179693946698"
"Fontainebleau";"Elem";"ce.0771446d@ac-creteil.fr";"77300";"Ecole élémentaire Saint Merry";"Seine-et-Marne";"6 Rue Saint Merry";"Public";"48.40186139793201";"2.689513269702059"
"Gouaix";"Elem";"ce.0771463x@ac-creteil.fr";"77114";"Ecole élémentaire";"Seine-et-Marne";"3 Grande Rue";"Public";"48.48344765411551";"3.293211155486133"
"Melun";"Elem";"ce.0771464y@ac-creteil.fr";"77000";"Ecole élémentaire Les Capucins";"Seine-et-Marne";"19 Route De Voisenon";"Public";"48.55167040002037";"2.66298733284984"
"Pontault-Combault";"Elem";"ce.0771481s@ac-creteil.fr";"77340";"Ecole primaire Pablo Neruda";"Seine-et-Marne";"82 Rue De L'Orme Au Charron";"Public";"48.79854218983659";"2.612374631080095"
"La Ferté-sous-Jouarre";"Mater";"ce.0771489a@ac-creteil.fr";"77260";"Ecole maternelle Les petits meuliers";"Seine-et-Marne";"33 Bis Rue De Condé";"Public";"48.946453046913184";"3.13212250673748"
"Meaux";"Elem";"ce.0771490b@ac-creteil.fr";"77100";"Ecole élémentaire Condorcet 2";"Seine-et-Marne";"Mail Des Corses";"Public";"48.94899817732768";"2.900766760106867"
"Othis";"Elem";"ce.0771497j@ac-creteil.fr";"77280";"Ecole primaire Les Huants";"Seine-et-Marne";"Rue Des Froids Vents";"Public";"49.0737236170733";"2.6811726531603703"
"Roissy-en-Brie";"Elem";"ce.0771498k@ac-creteil.fr";"77680";"Ecole élémentaire les Sapins";"Seine-et-Marne";"2 Rue La Pérouse";"Public";"48.79057297210976";"2.6568585122077297"
"Dammartin-en-Goële";"Mater";"ce.0771510y@ac-creteil.fr";"77230";"Ecole maternelle Eaubonne";"Seine-et-Marne";"Rue Saint-Guinfort";"Public";"49.054162160204285";"2.673010445295057"
"Brie-Comte-Robert";"Elem";"ce.0771527s@ac-creteil.fr";"77170";"Ecole élémentaire  Moulin Fleuri";"Seine-et-Marne";"24 Rue Saint Lazare";"Public";"48.69538883033886";"2.603638212882013"
"Lésigny";"Elem";"ce.0771531w@ac-creteil.fr";"77150";"Ecole élémentaire Villefermoy";"Seine-et-Marne";"Rue De Villefermoy";"Public";"48.732808690400006";"2.597000515893045"
"Roissy-en-Brie";"Elem";"ce.0771534z@ac-creteil.fr";"77680";"Ecole élémentaire Pommier Picard";"Seine-et-Marne";"Rue Eugène Delacroix";"Public";"48.795922208131756";"2.66436227658967"
"Brie-Comte-Robert";"Mater";"ce.0771537c@ac-creteil.fr";"77170";"Ecole maternelle Le Moulin Fleuri";"Seine-et-Marne";"28 Rue Saint Lazare";"Public";"48.694492437516516";"2.6045621158183616"
"Samoreau";"Mater";"ce.0771547n@ac-creteil.fr";"77210";"Ecole maternelle";"Seine-et-Marne";"2 Rue Des Pas Roches";"Public";"48.423160017986866";"2.7548574138375796"
"Emerainville";"Elem";"ce.0771553v@ac-creteil.fr";"77184";"Ecole élémentaire La Mare l'Embûche";"Seine-et-Marne";"Rue D'Emery, La Mare D'Embuche";"Public";"48.81132900338951";"2.6217734913782254"
"Le Châtelet-en-Brie";"Mater";"ce.0771571p@ac-creteil.fr";"77820";"Ecole maternelle les Grands Jardins";"Seine-et-Marne";"Place De L'Eglise";"Public";"48.5051106282873";"2.7939908159631877"
"Chelles";"Elem";"ce.0771573s@ac-creteil.fr";"77508";"Ecole élémentaire Bickart";"Seine-et-Marne";"Rue Alphonse Bordereau";"Public";"48.881514227415856";"2.5876876095276486"
"Claye-Souilly";"Elem";"ce.0771575u@ac-creteil.fr";"77410";"Ecole élémentaire Maryse Bastie";"Seine-et-Marne";"Rue De Grand Champ";"Public";"48.93893679036345";"2.6839604182602383"
"Dampmart";"Elem";"ce.0771578x@ac-creteil.fr";"77400";"Ecole élémentaire Les Vallières";"Seine-et-Marne";"24 Rue Emile Blanchet";"Public";"48.88699886688183";"2.7388532537613184"
"Maincy";"Mater";"ce.0771584d@ac-creteil.fr";"77950";"Ecole maternelle Charles Le Brun";"Seine-et-Marne";"3 Rue De La Bordière";"Public";"48.54955902052865";"2.7009628663091148"
"Le Mée-sur-Seine";"Elem";"ce.0771585e@ac-creteil.fr";"77350";"Ecole élémentaire Plein Ciel";"Seine-et-Marne";"182 Allée Du Soleil";"Public";"48.54631589388915";"2.643750628307084"
"Noisiel";"Elem";"ce.0771590k@ac-creteil.fr";"77186";"Ecole élémentaire la Ferme du Buisson";"Seine-et-Marne";"1 Bis Cours Du Buisson";"Public";"48.84481448036989";"2.6225715010006945"
"Noisiel";"Mater";"ce.0771592m@ac-creteil.fr";"77186";"Ecole maternelle la Ferme du Buisson";"Seine-et-Marne";"1 Cours Du Buisson";"Public";"48.84385420322428";"2.62008359369759"
"Presles-en-Brie";"Mater";"ce.0771596s@ac-creteil.fr";"77220";"Ecole maternelle Maurice André";"Seine-et-Marne";"Rue De L'Abbé Noël";"Public";"48.712055713484325";"2.7404275454691303"
"Torcy";"Mater";"ce.0771600w@ac-creteil.fr";"77200";"Ecole maternelle Bel Air";"Seine-et-Marne";"5 Rue Du Perrier";"Public";"48.85263900877154";"2.6392854026381967"
"Verneuil-l'Etang";"Mater";"ce.0771603z@ac-creteil.fr";"77390";"Ecole maternelle Lamartine";"Seine-et-Marne";"Rue Lamartine";"Public";"48.64252497527497";"2.834007737185086"
"Champs-sur-Marne";"Mater";"ce.0771625y@ac-creteil.fr";"77420";"Ecole maternelle les Pyramides";"Seine-et-Marne";"Allée De Giseh";"Public";"48.852840899675776";"2.5868583198301462"
"Dammarie-les-Lys";"Mater";"ce.0771629c@ac-creteil.fr";"77190";"Ecole maternelle Jacques Monod";"Seine-et-Marne";"20 Place Messence";"Public";"48.51632181687306";"2.6353357395896686"
"Roissy-en-Brie";"Elem";"ce.0771640p@ac-creteil.fr";"77680";"Ecole primaire Pierre et Marie Curie";"Seine-et-Marne";"Rue Charles Vaillant";"Public";"48.791798479543075";"2.6643357187522785"
"Saint-Pierre-lès-Nemours";"Mater";"ce.0771644u@ac-creteil.fr";"77140";"Ecole maternelle Clos Saint Jean";"Seine-et-Marne";"3 Rue Du Clos Saint Jean";"Public";"48.270927450322";"2.6800712436768475"
"Savigny-le-Temple";"Mater";"ce.0771646w@ac-creteil.fr";"77176";"Ecole maternelle les Ormes";"Seine-et-Marne";"3 Place Des Ecrins";"Public";"48.60596033400099";"2.5620421739035053"
"Coubert";"Mater";"ce.0771675c@ac-creteil.fr";"77170";"Ecole maternelle Les Coccinelles";"Seine-et-Marne";"Rue De La Mairie";"Public";"48.67156187164573";"2.6957673560676203"
"Fontenay-Trésigny";"Mater";"ce.0771676d@ac-creteil.fr";"77610";"Ecole maternelle Paul Langevin";"Seine-et-Marne";"Rue Branly";"Public";"48.70642744375671";"2.87702957329507"
"Lizy-sur-Ourcq";"Mater";"ce.0771677e@ac-creteil.fr";"77440";"Ecole maternelle Bellevue";"Seine-et-Marne";"5 Rue Du Général De Gaulle";"Public";"49.029265148752785";"3.0202035877941724"
"Mouroux";"Mater";"ce.0771681j@ac-creteil.fr";"77120";"Ecole maternelle les Chicotets";"Seine-et-Marne";"130 Impasse Des Pinsons, Les Chicotets";"Public";"48.82727407840568";"3.037937732491067"
"Rebais";"Mater";"ce.0771689t@ac-creteil.fr";"77510";"Ecole maternelle";"Seine-et-Marne";"Avenue Georges Clemenceau";"Public";"48.848885591280435";"3.2338736420685197"
"Trilport";"Elem";"ce.0771696a@ac-creteil.fr";"77470";"Ecole primaire La Charmoye";"Seine-et-Marne";"57 Rue Albert Schweitzer";"Public";"48.96312591005995";"2.953782736813949"
"Guérard";"Mater";"ce.0771723e@ac-creteil.fr";"77580";"Ecole maternelle de la Prairie";"Seine-et-Marne";"Impasse Des Buttes";"Public";"48.8223439772563";"2.9596714760793557"
"Saint-Fargeau-Ponthierry";"Mater";"ce.0771772h@ac-creteil.fr";"77310";"Ecole maternelle Alphonse Fercot";"Seine-et-Marne";"Rue Du Puits Beau";"Public";"48.55726574330726";"2.527633194333997"
"Chelles";"Mater";"ce.0771778p@ac-creteil.fr";"77500";"Ecole maternelle le Parc";"Seine-et-Marne";"8 Rue Adolphe Besson";"Public";"48.875874436062674";"2.589990059916168"
"Le Mée-sur-Seine";"Mater";"ce.0771783v@ac-creteil.fr";"77350";"Ecole maternelle le Breau";"Seine-et-Marne";"1 Rue Alexandre Dumas";"Public";"48.54320369154945";"2.6274117833526374"
"Cesson";"Mater";"ce.0771785x@ac-creteil.fr";"77240";"Ecole maternelle Jacques Prévert";"Seine-et-Marne";"12 Avenue De La Zibeline";"Public";"48.556917124620796";"2.5977227962082883"
"Fontenay-Trésigny";"Elem";"ce.0771788a@ac-creteil.fr";"77610";"Ecole élémentaire Paul Langevin";"Seine-et-Marne";"Rue Branly";"Public";"48.70642744375671";"2.87702957329507"
"Pontault-Combault";"Elem";"ce.0771797k@ac-creteil.fr";"77340";"Ecole primaire Jean Rostand";"Seine-et-Marne";"30 Avenue Georges Ohnet";"Public";"48.801006878870936";"2.5999385324706368"
"Jouarre";"Mater";"ce.0771823n@ac-creteil.fr";"77640";"Ecole maternelle Jussieu";"Seine-et-Marne";"Rue De La Chapelle";"Public";"48.924404618667445";"3.1341326213426552"
"Savigny-le-Temple";"Elem";"ce.0771838e@ac-creteil.fr";"77176";"Ecole élémentaire Desirée Clary";"Seine-et-Marne";"2 Place Du Miroir D'Eau";"Public";"48.60179213610251";"2.5667751653318027"
"Torcy";"Elem";"ce.0771845m@ac-creteil.fr";"77200";"Ecole élémentaire Beauregard";"Seine-et-Marne";"34 Rue Beauregard";"Public";"48.84891731135566";"2.643100828350109"
"Juilly";"Mater";"ce.0771848r@ac-creteil.fr";"77230";"Ecole maternelle";"Seine-et-Marne";"7 Rue De Saint-Mard";"Public";"49.01714183621522";"2.7052160960672023"
"Noisiel";"Elem";"ce.0771852v@ac-creteil.fr";"77186";"Ecole primaire Bois de La Grange";"Seine-et-Marne";"7 Place Du Bois De La Grange";"Public";"48.83931889328666";"2.620108476686452"
"Saint-Fargeau-Ponthierry";"Mater";"ce.0771854x@ac-creteil.fr";"77310";"Ecole maternelle Les Bordes";"Seine-et-Marne";"23 Rue Des Marronniers";"Public";"48.53123290513779";"2.532868317033562"
"Champs-sur-Marne";"Elem";"ce.0771867l@ac-creteil.fr";"77420";"Ecole élémentaire le Nesles";"Seine-et-Marne";"Boulevard Du Nesles";"Public";"48.848863216604705";"2.582995252757961"
"Savigny-le-Temple";"Mater";"ce.0771891m@ac-creteil.fr";"77176";"Ecole maternelle les Régalles";"Seine-et-Marne";"23 Rue Des Alouettes";"Public";"48.60363861590922";"2.555962207901829"
"Seine-Port";"Mater";"ce.0771892n@ac-creteil.fr";"77240";"Ecole maternelle";"Seine-et-Marne";"12 Rue Pavée";"Public";"48.55625899732395";"2.5512982215467965"
"Emerainville";"Mater";"ce.0771899w@ac-creteil.fr";"77184";"Ecole maternelle Jean Jaurès";"Seine-et-Marne";"Rue Louise Michel";"Public";"48.80995241307613";"2.624449647804623"
"Emerainville";"Elem";"ce.0771900x@ac-creteil.fr";"77184";"Ecole élémentaire Jean Jaurès";"Seine-et-Marne";"Rue Louise Michel";"Public";"48.80995241307613";"2.624449647804623"
"Noisiel";"Elem";"ce.0771906d@ac-creteil.fr";"77186";"Ecole élémentaire Les Tilleuls";"Seine-et-Marne";"43 Allée Voltaire";"Public";"48.84557397353164";"2.6187425092954832"
"Savigny-le-Temple";"Elem";"ce.0771907e@ac-creteil.fr";"77176";"Ecole élémentaire les Régalles";"Seine-et-Marne";"23 Rue Des Alouettes";"Public";"48.60363861590922";"2.555962207901829"
"Champs-sur-Marne";"Elem";"ce.0771942t@ac-creteil.fr";"77420";"Ecole élémentaire Pablo Picasso";"Seine-et-Marne";"Allée Des Noyers";"Public";"48.84167360104646";"2.607091592718117"
"Champs-sur-Marne";"Mater";"ce.0771943u@ac-creteil.fr";"77420";"Ecole maternelle Pablo Picasso";"Seine-et-Marne";"Allée Des Noyers";"Public";"48.84167360104646";"2.607091592718117"
"Nangis";"Elem";"ce.0771955g@ac-creteil.fr";"77370";"Ecole élémentaire Le Château";"Seine-et-Marne";"Mail Pierre Britaud";"Public";"48.55494301093365";"3.012600530469291"
"Ferrières-en-Brie";"Mater";"ce.0772003j@ac-creteil.fr";"77164";"Ecole maternelle La Taffarette";"Seine-et-Marne";"3 Rue Maryse Bastié";"Public";"48.82194716407047";"2.703477281633085"
"Villeneuve-sur-Bellot";"Mater";"ce.0772008p@ac-creteil.fr";"77510";"Ecole maternelle";"Seine-et-Marne";"8 Rue Montflageol";"Public";"48.86278548007452";"3.3400526974497344"
"Meaux";"Mater";"ce.0772009r@ac-creteil.fr";"77100";"Ecole maternelle Paul Bert groupe 2";"Seine-et-Marne";"Rue Réné Bazin";"Public";"48.951297103646404";"2.9193573180038177"
"Lognes";"Elem";"ce.0772011t@ac-creteil.fr";"77185";"Ecole élémentaire Le Four";"Seine-et-Marne";"2 Allée Grande Des Charmilles";"Public";"48.8352631342267";"2.6361128639916416"
"Montigny-Lencoup";"Mater";"ce.0772060w@ac-creteil.fr";"77520";"Ecole maternelle";"Seine-et-Marne";"1 Rue André Chénier";"Public";"48.453041275373806";"3.0596522170755325"
"Balloy";"Elem";"ce.0772062y@ac-creteil.fr";"77118";"Ecole élémentaire";"Seine-et-Marne";"Place De La Mairie";"Public";"48.39808822395772";"3.1466483367824085"
"Bezalles";"Mater";"ce.0772072j@ac-creteil.fr";"77970";"Ecole maternelle de La Légende";"Seine-et-Marne";"Place De La Mairie";"Public";"48.67799642410683";"3.242338494360442"
"Combs-la-Ville";"Mater";"ce.0772074l@ac-creteil.fr";"77380";"Ecole maternelle les Quincarnelles";"Seine-et-Marne";"2 Avenue Jean Jaurès";"Public";"48.654805840469706";"2.565312497380846"
"Combs-la-Ville";"Elem";"ce.0772083w@ac-creteil.fr";"77380";"Ecole élémentaire les Quincarnelles";"Seine-et-Marne";"2 Avenue Jean Jaurès";"Public";"48.654805840469706";"2.565312497380846"
"Moissy-Cramayel";"Elem";"ce.0772088b@ac-creteil.fr";"77550";"Ecole élémentaire Fosse Cornue";"Seine-et-Marne";"215 Rue De La Croix Saint-Roch";"Public";"48.621202490589575";"2.5913254923495486"
"Saint-Thibault-des-Vignes";"Elem";"ce.0772089c@ac-creteil.fr";"77400";"Ecole élémentaire Marie Curie";"Seine-et-Marne";"26 Rue De L'Etang De La Loy";"Public";"48.85400684853845";"2.6688207388260303"
"Lieusaint";"Mater";"ce.0772103t@ac-creteil.fr";"77127";"Ecole maternelle Jules Ferry";"Seine-et-Marne";"Rue Dumaine";"Public";"48.6300953649239";"2.546894135231476"
"Moissy-Cramayel";"Elem";"ce.0772111b@ac-creteil.fr";"77550";"Ecole élémentaire Les Marronniers";"Seine-et-Marne";"717 Rue Des Pièces De Lugny";"Public";"48.62153977240412";"2.5832676343031094"
"Sancy-lès-Provins";"Elem";"ce.0772124r@ac-creteil.fr";"77320";"Ecole primaire Montsanmartin";"Seine-et-Marne";"3 Rue De La Mairie";"Public";"48.696358377186144";"3.3914804498828874"
"Bransles";"Elem";"ce.0772129w@ac-creteil.fr";"77620";"Ecole primaire Gilbert Verrin";"Seine-et-Marne";"8 Rue Du Gué";"Public";"48.15144620787907";"2.8327994812215906"
"Torcy";"Mater";"ce.0772158c@ac-creteil.fr";"77200";"Ecole maternelle Victor Hugo";"Seine-et-Marne";"1 Rue Victor Hugo";"Public";"48.8444661737364";"2.6454149972393295"
"Dhuisy";"Elem";"ce.0772177y@ac-creteil.fr";"77440";"Ecole primaire";"Seine-et-Marne";"Place De La Mairie";"Public";"49.03984241472742";"3.159344864186159"
"Champagne-sur-Seine";"Mater";"ce.0772178z@ac-creteil.fr";"77430";"Ecole maternelle les Chaillots";"Seine-et-Marne";"Rue Léon Jouhaux";"Public";"48.39631121286066";"2.8084413654837452"
"Meaux";"Mater";"ce.0772203b@ac-creteil.fr";"77100";"Ecole maternelle Luxembourg";"Seine-et-Marne";"8 Rue Tronchet";"Public";"48.953260042138645";"2.8786606732094873"
"Moissy-Cramayel";"Mater";"ce.0772206e@ac-creteil.fr";"77550";"Ecole maternelle d'application Les Hauldres";"Seine-et-Marne";"224 Rue Bajot";"Public";"48.6300357218561";"2.5884570246159915"
"Pontault-Combault";"Mater";"ce.0772233j@ac-creteil.fr";"77340";"Ecole maternelle Pablo Picasso";"Seine-et-Marne";"98 Rue Robespierre";"Public";"48.79577992891572";"2.616473648340665"
"Crouy-sur-Ourcq";"Mater";"ce.0772251d@ac-creteil.fr";"77840";"Ecole maternelle";"Seine-et-Marne";"6 Rue Daguin De Beauval";"Public";"49.090554372652946";"3.0769656847232225"
"Saint-Thibault-des-Vignes";"Mater";"ce.0772256j@ac-creteil.fr";"77400";"Ecole maternelle Pierre Villette";"Seine-et-Marne";"43 Rue Des Sablons";"Public";"48.855019458069606";"2.6720728912435217"
"Vaux-le-Pénil";"Elem";"ce.0772258l@ac-creteil.fr";"77000";"Ecole élémentaire Gaston Dumont";"Seine-et-Marne";"Rue Des 3 Rodes";"Public";"48.525732300000676";"2.693980529410181"
"Boissy-le-Châtel";"Elem";"ce.0772303k@ac-creteil.fr";"77169";"Ecole élémentaire la Mare Garenne";"Seine-et-Marne";"Rue De La Mare Garenne";"Public";"48.819224408560395";"3.1362045324756003"
"Saint-Cyr-sur-Morin";"Mater";"ce.0772344e@ac-creteil.fr";"77750";"Ecole maternelle Les Petits Aventuriers";"Seine-et-Marne";"5 Rue D'Archets";"Public";"48.90679678990766";"3.1830689351643078"
"Bailly-Romainvilliers";"Mater";"ce.0772419l@ac-creteil.fr";"77700";"Ecole maternelle les Girandoles";"Seine-et-Marne";"12 Rue De Paris";"Public";"48.84599302710297";"2.817647462602429"
"Meaux";"Elem";"ce.0772460f@ac-creteil.fr";"77100";"Ecole élémentaire Saint Exupéry";"Seine-et-Marne";"Avenue Henri Dunant";"Public";"48.94940189222386";"2.894396779738091"
"Bussy-Saint-Georges";"Elem";"ce.0772486j@ac-creteil.fr";"77600";"Ecole élémentaire Charles Perrault";"Seine-et-Marne";"30 Boulevard Thibault De Champagne";"Public";"48.839371148682815";"2.7153295174980214"
"Tournan-en-Brie";"Elem";"ce.0772488l@ac-creteil.fr";"77220";"Ecole élémentaire Claude Santarelli";"Seine-et-Marne";"2 Rue Baden Powell";"Public";"48.74424901021214";"2.7566999255598645"
"Moissy-Cramayel";"Mater";"ce.0772504d@ac-creteil.fr";"77550";"Ecole maternelle Chanteloup";"Seine-et-Marne";"465 Avenue Des Meuniers";"Public";"48.63487101733467";"2.584438541800407"
"Magny-le-Hongre";"Mater";"ce.0772509j@ac-creteil.fr";"77700";"Ecole maternelle Les Semailles";"Seine-et-Marne";"43 Rue Des Labours";"Public";"48.86507114218996";"2.8111726996416837"
"Villeparisis";"Mater";"ce.0772555j@ac-creteil.fr";"77270";"Ecole maternelle Pauline Kergomard";"Seine-et-Marne";"Rue Des Tilleuls";"Public";"48.9539140329046";"2.6128701319188647"
"Serris";"Elem";"ce.0772577h@ac-creteil.fr";"77700";"Ecole élémentaire Jules Verne";"Seine-et-Marne";"1 Place De Gibraltar";"Public";"48.852339277852884";"2.786973646871434"
"Mareuil-lès-Meaux";"Mater";"ce.0772582n@ac-creteil.fr";"77100";"Ecole maternelle La Marelle";"Seine-et-Marne";"14 Rue De L'Abbé Petitot";"Public";"48.92740990373812";"2.861078939426941"
"Lieusaint";"Elem";"ce.0772594b@ac-creteil.fr";"77127";"Ecole élémentaire Le Petit Prince";"Seine-et-Marne";"7 Boulevard Olympe De Gouges";"Public";"48.63694109588002";"2.5522513964404556"
"Moissy-Cramayel";"Mater";"ce.0772632t@ac-creteil.fr";"77550";"Ecole maternelle Jatteau";"Seine-et-Marne";"529 Avenue De L'Europe";"Public";"48.629039448526584";"2.577264357083549"
"Coulommiers";"Mater";"ce.0772653r@ac-creteil.fr";"77120";"Ecole maternelle Jean de La Fontaine";"Seine-et-Marne";"39 Rue Des Caillets";"Public";"48.82057998417693";"3.0938747268845836"
"Lizy-sur-Ourcq";"Elem";"ce.0772671k@ac-creteil.fr";"77440";"Ecole élémentaire Monnet-Dès";"Seine-et-Marne";"104 Rue Jean Jaurès";"Public";"49.02491215482277";"3.0253156056224393"
"Saint-Fargeau-Ponthierry";"Elem";"ce.0772673m@ac-creteil.fr";"77310";"Ecole primaire Marie Curie";"Seine-et-Marne";"22 Rue Marie Curie";"Public";"48.52248792254898";"2.5453752847860835"
"Ozouer-le-Voulgis";"Elem";"ce.0772675p@ac-creteil.fr";"77390";"Ecole primaire";"Seine-et-Marne";"Place De La Mairie";"Public";"48.659450652100304";"2.773910131969569"
"Itteville";"Mater";"ce.0911730l@ac-versailles.fr";"91760";"Ecole maternelle Pablo Picasso";"Essonne";"Avenue Du 19 Mars 1962";"Public";"48.53110063010479";"2.3483609306622992"
"Paray-Vieille-Poste";"Mater";"ce.0911732n@ac-versailles.fr";"91550";"Ecole maternelle Paul Bert";"Essonne";"Rue De Kruft";"Public";"48.713550857180095";"2.367873759572601"
"Brunoy";"Elem";"direction@ecole-la-montessorine.fr";"91800";"Ecole primaire privée La Montessorine";"Essonne";"23 Rue Du Verger";"Privé";"48.68891474210058";"2.492813097907231"
"Evry-Courcouronnes";"Mater";"ce.0911852u@ac-versailles.fr";"91000";"Ecole maternelle Les Coquibus";"Essonne";"37 Allée Jean Rostand, Evry";"Public";"48.62406605437314";"2.4332564581162246"
"Villemoisson-sur-Orge";"Elem";"ce.0911882b@ac-versailles.fr";"91360";"Ecole primaire Les Erables";"Essonne";"6 Bis Avenue De Séquigny";"Public";"48.656980333334744";"2.3351123934308604"
"Evry-Courcouronnes";"Mater";"ce.0911911h@ac-versailles.fr";"91000";"Ecole maternelle d'application Condorcet";"Essonne";"Rue De L'Orge, Evry";"Public";"48.61650673415312";"2.4355944302062627"
