"commune";"type_ecole";"mail";"code_postal";"nom_etablissement";"departement";"adresse";"statut";"latitude";"longitude"
"Concarneau";"Elem";"ec.0290361k@ac-rennes.fr";"29900";"Ecole élémentaire publique Beuzec Conq";"Finistère";"6 Rue De Garlodic";"Public";"47.888171138835276";"-3.90079006800359"
"Concarneau";"Elem";"ec.0290365p@ac-rennes.fr";"29900";"Ecole primaire publique Keramporiel";"Finistère";"17 Rue Des Grillons";"Public";"47.90112017066767";"-3.9148306701477655"
"Concarneau";"Elem";"ec.0290367s@ac-rennes.fr";"29900";"Ecole primaire publique Kerandon";"Finistère";"1 Avenue Du Saule";"Public";"47.88332585651416";"-3.918980365044669"
"Concarneau";"Elem";"ec.0290368t@ac-rennes.fr";"29900";"Ecole primaire publique Lanriec";"Finistère";"182 Rue De Lanriec";"Public";"47.86851032809935";"-3.88557958694573"
"Quimper";"Elem";"ec.0290405h@ac-rennes.fr";"29000";"Ecole primaire publique Jean Monnet";"Finistère";"10  Rue De Rosmadec";"Public";"47.99415219208247";"-4.118470483661914"
"Quimper";"Elem";"ec.0290410n@ac-rennes.fr";"29000";"Ecole primaire publique Yves Le Manchec";"Finistère";"75 Rue De La Terre Noire";"Public";"47.99812684580982";"-4.126139709901604"
"Douarnenez";"Elem";"ec.0290432m@ac-rennes.fr";"29100";"Ecole élémentaire publique Marie Curie";"Finistère";"3 Rue De L'Hôpital";"Public";"48.09187498329073";"-4.327119785877136"
"Douarnenez";"Elem";"ec.0290437t@ac-rennes.fr";"29100";"Ecole primaire publique Jules Verne";"Finistère";"Rue Jules Verne";"Public";"48.09258639588428";"-4.3397468612316805"
"Coray";"Elem";"ec.0290443z@ac-rennes.fr";"29370";"Ecole primaire publique Leurgadoret";"Finistère";"Chemin De Leurgadoret";"Public";"48.062020646030035";"-3.833759847397008"
"Leuhan";"Elem";"ec.0290445b@ac-rennes.fr";"29390";"Ecole primaire publique de Leuhan";"Finistère";"6 Rue De L'Ecole";"Public";"48.098099216009985";"-3.784780521970124"
"Le Relecq-Kerhuon";"Mater";"ec.0290507u@ac-rennes.fr";"29480";"Ecole maternelle publique Jean Moulin";"Finistère";"Rue Jean Moulin";"Public";"48.40955332450276";"-4.395709724244804"
"Pont-l'Abbé";"Mater";"ec.0290556x@ac-rennes.fr";"29120";"Ecole maternelle publique Kerarthur";"Finistère";"Rue Du Penquer";"Public";"47.865073269598746";"-4.216230027751803"
"Rosporden";"Mater";"ec.0290575t@ac-rennes.fr";"29140";"Ecole maternelle publique Ernest Renan";"Finistère";"42 Rue Ernest Renan";"Public";"47.96170467756704";"-3.83337060110631"
"Le Cloître-Pleyben";"Elem";"ec.0290578w@ac-rennes.fr";"29190";"Ecole primaire publique des Lutins";"Finistère";"13 Rue De La Mairie";"Public";"48.25701788852936";"-3.8904405443318786"
"Lothey";"Elem";"ec.0290583b@ac-rennes.fr";"29190";"Ecole primaire publique de Lothey";"Finistère";"9 Rue De L'Ecole";"Public";"48.180739016073794";"-4.026899361537318"
"Cléden-Poher";"Elem";"ec.0290593m@ac-rennes.fr";"29270";"Ecole primaire publique Per Jakez Hélias";"Finistère";"11 Route De Pont Gonan";"Public";"48.23491765893707";"-3.6708895390229475"
"Kergloff";"Elem";"ec.0290594n@ac-rennes.fr";"29270";"Ecole primaire publique Anjela Duval";"Finistère";"Rue Jules Ferry";"Public";"48.27421858809321";"-3.6193100604925625"
"Cast";"Elem";"ec.0290622u@ac-rennes.fr";"29150";"Ecole Primaire publique Les mille couleurs";"Finistère";"Rue D'Ys";"Public";"48.15560373503477";"-4.140670148805711"
"Locronan";"Elem";"ec.0290627z@ac-rennes.fr";"29180";"Ecole primaire publique Anne de Bretagne";"Finistère";"Venelle Toul Prichen";"Public";"48.09863817995594";"-4.209080230626423"
"Plonévez-Porzay";"Elem";"ec.0290631d@ac-rennes.fr";"29550";"Ecole primaire publique de Plonévez-Porzay";"Finistère";"Rue Des Eglantines";"Public";"48.1257829099095";"-4.224140222283982"
"Gouesnach";"Elem";"ec.0290695y@ac-rennes.fr";"29950";"Ecole primaire publique de l'Odet";"Finistère";"5 Rue Hent Reuniou";"Public";"47.911822314319316";"-4.1135106741849885"
"Combrit";"Elem";"ec.0290702f@ac-rennes.fr";"29120";"Ecole primaire publique Sainte-Marine";"Finistère";"54 Rue De L'Odet";"Public";"47.87372368674301";"-4.125270305681195"
"Guilvinec";"Elem";"ec.0290704h@ac-rennes.fr";"29730";"Ecole primaire publique Jean Le Brun";"Finistère";"Rue Du Château";"Public";"47.79932245747561";"-4.285619957572342"
"Penmarch";"Elem";"ec.0290711r@ac-rennes.fr";"29760";"Ecole primaire publique Auguste Dupouy";"Finistère";"Rue Mathurin Méheut";"Public";"47.810060837369946";"-4.340379699625501"
"Plobannalec-Lesconil";"Elem";"ec.0290719z@ac-rennes.fr";"29740";"Ecole primaire publique Docteur Fleming";"Finistère";"8 Rue Du Docteur Fleming";"Public";"47.795578244017754";"-4.2175795788028605"
"Melgven";"Elem";"ec.0290742z@ac-rennes.fr";"29140";"Ecole primaire publique Cadol";"Finistère";"62 Hameau De Cadol";"Public";"47.93981929674269";"-3.8558298726270213"
"Ile-de-Sein";"Elem";"ec.0290770e@ac-rennes.fr";"29990";"Ecole primaire publique de l'Ile de Sein";"Finistère";"10 Rue Fernand Crouton";"Public";"48.03725633934324";"-4.851259543959852"
"Gourlizon";"Elem";"ec.0290771f@ac-rennes.fr";"29710";"Ecole primaire publique Léon Goraguer";"Finistère";"Route De Plogastel";"Public";"48.019329641938995";"-4.265570237862491"
"Peumerit";"Elem";"ec.0290773h@ac-rennes.fr";"29710";"Ecole primaire publique Les Trois Pommiers";"Finistère";"Route De Plogastel";"Public";"47.94082493841534";"-4.309590040075907"
"Ergué-Gabéric";"Elem";"ec.0290785w@ac-rennes.fr";"29500";"Ecole élémentaire publique Lestonan";"Finistère";"Hameau De Lestonan";"Public";"48.018678007866484";"-4.021610025398312"
"Ergué-Gabéric";"Elem";"ec.0290786x@ac-rennes.fr";"29500";"Ecole primaire publique Lestonan";"Finistère";"1 Rue Du Menez";"Public";"48.01889606366955";"-4.022480659268507"
"Quimper";"Elem";"ec.0290788z@ac-rennes.fr";"29000";"Ecole primaire publique Léon Blum";"Finistère";"9 Avenue Léon Blum";"Public";"47.98452421234748";"-4.074969720833914"
"Brest";"Elem";"ec.0290809x@ac-rennes.fr";"29200";"Ecole primaire publique Jacquard";"Finistère";"11 Rue Jacquard";"Public";"48.403061504808996";"-4.4772795200255375"
"Bohars";"Elem";"ec.0290821k@ac-rennes.fr";"29820";"Ecole primaire publique de Bohars";"Finistère";"3 Rue Prosper Salaün";"Public";"48.42947543341622";"-4.514520595037525"
"Guilers";"Elem";"ec.0290822l@ac-rennes.fr";"29820";"Ecole élémentaire publique Chateaubriand";"Finistère";"12 Rue Alexandre Le Monnier";"Public";"48.423121920964775";"-4.557870324750518"
"Coat-Méal";"Elem";"ec.0290882b@ac-rennes.fr";"29870";"Ecole primaire publique Penn ar C'hoat";"Finistère";"2 Rue De La Fontaine";"Public";"48.507209923376635";"-4.542880026143759"
"Plouguerneau";"Elem";"ec.0290887g@ac-rennes.fr";"29880";"Ecole primaire publique du Phare";"Finistère";"132 Place Du Dolmen, Bourg De Lilia";"Public";"48.61832008776494";"-4.553769772836492"
"Le Relecq-Kerhuon";"Elem";"ec.0290900w@ac-rennes.fr";"29480";"Ecole élémentaire publique Jean Moulin";"Finistère";"Rue Jean Moulin";"Public";"48.40964439690782";"-4.396030668603512"
"Saint-Urbain";"Elem";"ec.0290919s@ac-rennes.fr";"29800";"Ecole primaire publique de Saint-Urbain";"Finistère";"190 Place De La Mairie";"Public";"48.40121071025369";"-4.227030046979429"
"La Forest-Landerneau";"Elem";"ec.0290922v@ac-rennes.fr";"29800";"Ecole primaire publique Georges Brassens";"Finistère";"Route De Rulan";"Public";"48.42895100202706";"-4.317069508830402"
"La Martyre";"Elem";"ec.0290932f@ac-rennes.fr";"29800";"Ecole élémentaire publique de La Martyre";"Finistère";"1 Rue Des Ormes";"Public";"48.448429428239535";"-4.162419988733185"
"Saint-Sauveur";"Elem";"ec.0290938m@ac-rennes.fr";"29400";"Ecole primaire publique de Saint-Sauveur";"Finistère";"40 Rue De Saint-Thegonnec";"Public";"48.45947302869064";"-3.9902301482516296"
"Saint-Martin-des-Champs";"Elem";"ec.0290966t@ac-rennes.fr";"29600";"Ecole élémentaire publique Jules Ferry";"Finistère";"Allée Verte";"Public";"48.577188777912475";"-3.8459598232288266"
"Plounéour-Brignogan-plages";"Elem";"ec.0290994y@ac-rennes.fr";"29890";"Ecole primaire publique Jean Guillou";"Finistère";"10 Avenue Du Général De Gaulle, Brignogan-Plages";"Public";"48.663346477579104";"-4.325949941003188"
"Le Drennec";"Elem";"ec.0290995z@ac-rennes.fr";"29860";"Ecole primaire publique Des Sources";"Finistère";"7 Rue Des Ecoles";"Public";"48.53275865555716";"-4.369760586640219"
"Locquirec";"Elem";"ec.0291036u@ac-rennes.fr";"29241";"Ecole primaire publique Yvonne Folgalvez";"Finistère";"13 Rue Des Ecoles";"Public";"48.69184264345766";"-3.6529893009252854"
"Gourhel";"Elem";"ec.0560799p@ac-rennes.fr";"56800";"Ecole primaire publique de Gourhel";"Morbihan";"Place De L'Ecole";"Public";"47.93722795075247";"-2.361049765785897"
"Brest";"Elem";"ec.0290863f@ac-rennes.fr";"29200";"Ecole primaire publique Kerisbian";"Finistère";"8 Rue Du Docteur Floch";"Public";"48.403393941081674";"-4.4833950741875555"
"Brest";"Elem";"ec.0290874t@ac-rennes.fr";"29200";"Ecole primaire publique Jacques Kerhoas";"Finistère";"2 Place Vinet";"Public";"48.399336165563454";"-4.4548596302992545"
"Guitté";"Elem";"ec.0221415u@ac-rennes.fr";"22350";"Ecole primaire privée Sacré Coeur";"Côtes-d'Armor";"6 Rue Du Calvaire";"Privé";"48.297220368404375";"-2.0931006386721145"
"Trévou-Tréguignec";"Elem";"ce.0221424d@ac-rennes.fr";"22660";"Ecole primaire publique de Trévou Tréguignec";"Côtes-d'Armor";"Place Du 19 Mars 1962";"Public";"48.811473763366024";"-3.358860478661904"
"Saint-Carreuc";"Elem";"ce.0221434p@ac-rennes.fr";"22150";"Ecole primaire publique de Saint Carreuc";"Côtes-d'Armor";"Rue Du Gué";"Public";"48.39697864018107";"-2.7333503670966968"
"La Roche-Jaudy";"Elem";"ce.0221437t@ac-rennes.fr";"22450";"Ecole primaire publique de Pommerit Jaudy";"Côtes-d'Armor";"1 Rue De L'Ecole, Pommerit-Jaudy";"Public";"48.73114807231883";"-3.2416172775321472"
"Moustéru";"Elem";"ce.0221439v@ac-rennes.fr";"22200";"Ecole primaire publique de Mousteru";"Côtes-d'Armor";"Bourg";"Public";"48.518199162038925";"-3.2400404977585393"
"Belle-Isle-en-Terre";"Elem";"ce.0221444a@ac-rennes.fr";"22810";"Ecole primaire publique de Belle Isle en Terre";"Côtes-d'Armor";"Rue De Locmaria";"Public";"48.54964787250715";"-3.3952302676283277"
"Gomené";"Elem";"ce.0221455m@ac-rennes.fr";"22230";"ECOLE PRIMAIRE PUBLIQUE";"Côtes-d'Armor";"Bourg";"Public";"48.173938480914195";"-2.486409999824422"
"Goudelin";"Elem";"ce.0221456n@ac-rennes.fr";"22290";"Ecole primaire publique de Goudelin";"Côtes-d'Armor";"1 Rue Des Ecoles";"Public";"48.60577239606936";"-3.017484439401068"
"Jugon-les-Lacs";"Elem";"ce.0221459s@ac-rennes.fr";"22270";"Ecole primaire publique de Jugon les Lacs";"Côtes-d'Armor";"2 Impasse La Marette";"Public";"48.40827478530046";"-2.328299811570647"
"Plaintel";"Mater";"ecole.0221478m@ac-rennes.fr";"22940";"Ecole maternelle publique Pauline Kergomard";"Côtes-d'Armor";"Rue Beau Chemin";"Public";"48.40585925258887";"-2.8135503426650463"
"Corlay";"Elem";"ce.0221483t@ac-rennes.fr";"22320";"Ecole primaire publique de Corlay";"Côtes-d'Armor";"Rue Fargantine";"Public";"48.31539018524423";"-3.0588005162993"
"Lanrelas";"Elem";"ecole.0221485v@ac-rennes.fr";"22250";"Ecole primaire publique Des Menhirs";"Côtes-d'Armor";"14 Rue Du Bourgneuf";"Public";"48.24899980037611";"-2.2925690371774157"
"Plouër-sur-Rance";"Elem";"ce.0221496g@ac-rennes.fr";"22490";"Ecole primaire publique de Plouer sur Rance";"Côtes-d'Armor";"14 Rue Des Écoles";"Public";"48.52609638638311";"-2.001768360121048"
"Pluzunet";"Elem";"ce.0221499k@ac-rennes.fr";"22140";"Ecole primaire publique de Pluzunet";"Côtes-d'Armor";"14 Rue Louis Guegan";"Public";"48.63864805655853";"-3.369610178866581"
"Plounévez-Quintin";"Elem";"ce.0221508v@ac-rennes.fr";"22110";"Ecole primaire publique de Plounevez Quintin";"Côtes-d'Armor";"1 Rue De L'Ecole";"Public";"48.28897536137722";"-3.2274198737424498"
"Pordic";"Elem";"ecole.0221524m@ac-rennes.fr";"22590";"Ecole élémentaire publique Francois Rouxel";"Côtes-d'Armor";"20 Rue De La Croix Blanche";"Public";"48.56884684941122";"-2.812850452214536"
"Languédias";"Elem";"ecole.0221528s@ac-rennes.fr";"22980";"ECOLE PRIMAIRE PUBLIQUE LES PICOTOUS";"Côtes-d'Armor";"Bourg";"Public";"48.38916258678025";"-2.21150019467972"
"Ploufragan";"Mater";"ecole.0221530u@ac-rennes.fr";"22440";"Ecole maternelle publique de Poufragan";"Côtes-d'Armor";"2 Rue Anne Frank";"Public";"48.488372312740836";"-2.792749979276788"
"Plouha";"Elem";"ecole.0221536a@ac-rennes.fr";"22580";"Ecole primaire publique Mona et Jacques OZOUF";"Côtes-d'Armor";"17 Avenue Laënnec";"Public";"48.67563639052464";"-2.931902184344332"
"Trémuson";"Mater";"ce.0221548n@ac-rennes.fr";"22440";"Ecole maternelle publique de Trémuson";"Côtes-d'Armor";"1 Place De Jersey";"Public";"48.52471243744388";"-2.848379489140026"
"Paimpol";"Elem";"ec.0221563e@ac-rennes.fr";"22500";"Ecole primaire privée Sainte Elisabeth";"Côtes-d'Armor";"4 Rue Henri Dunant";"Privé";"48.781321947226765";"-3.0507106131903163"
"Plédran";"Mater";"ce.0221576u@ac-rennes.fr";"22960";"Ecole maternelle publique de Plédran";"Côtes-d'Armor";"Allée Des Ecoliers";"Public";"48.442629437832686";"-2.7485157057635226"
"Le Vieux-Marché";"Elem";"ce.0221592l@ac-rennes.fr";"22420";"Ecole primaire publique de Le Vieux  Marché";"Côtes-d'Armor";"20 Rue Pen Ar Pavé";"Public";"48.603846895430934";"-3.448809969769297"
"Grâces";"Mater";"ce.0221601w@ac-rennes.fr";"22200";"Ecole maternelle publique de Graces";"Côtes-d'Armor";"Rue André Bardoux";"Public";"48.55745567555272";"-3.1846893983955953"
"Dinan";"Elem";"ecole.0221625x@ac-rennes.fr";"22100";"Ecole primaire publique La Ruche";"Côtes-d'Armor";"Rue Maurice Tardivel";"Public";"48.46140631658586";"-2.0441100919147295"
"Pommerit-le-Vicomte";"Elem";"ce.0221669v@ac-rennes.fr";"22200";"Ecole primaire publique de Pommerit le Vicomte";"Côtes-d'Armor";"2 Rue Réné-Guy Cadou";"Public";"48.619413978111055";"-3.0887794656030882"
"Guingamp";"Elem";"ec.0221799l@ac-rennes.fr";"22200";"Ecole primaire privée Diwan";"Côtes-d'Armor";"Rue Des Ecoles Saint-Sauveur";"Privé";"48.56296287289007";"-3.156350077027508"
"Sibiril";"Elem";"ec.0291083v@ac-rennes.fr";"29250";"Ecole primaire publique Jules Verne";"Finistère";"Rue Du Cloître";"Public";"48.66452807482147";"-4.063050111662416"
"Trézilidé";"Mater";"ec.0291084w@ac-rennes.fr";"29440";"Ecole maternelle publique Henri Matisse";"Finistère";"Le Bourg";"Public";"48.60928235023866";"-4.087520279375131"
"Brest";"Elem";"ec.0291115e@ac-rennes.fr";"29200";"Ecole primaire publique Lucie et Raymond Aubrac";"Finistère";"44 Bis Rue De Kermenguy";"Public";"48.403396350970404";"-4.502650607062386"
"Quimper";"Elem";"ec.0291145m@ac-rennes.fr";"29000";"Ecole primaire publique Pauline Kergomard";"Finistère";"6 Place Du Cosmos";"Public";"47.98783030445563";"-4.06637960142557"
"Elliant";"Mater";"ec.0291158b@ac-rennes.fr";"29370";"Ecole maternelle publique d'Elliant";"Finistère";"9 Rue Pasteur";"Public";"47.99514543364753";"-3.8858403897612384"
"Lannilis";"Elem";"ec.0291185f@ac-rennes.fr";"29870";"Ecole primaire publique Kergroas - Mona Ozouf";"Finistère";"4 Rue De Kergroas";"Public";"48.567624821692554";"-4.517900522608096"
"Brest";"Mater";"ec.0291230e@ac-rennes.fr";"29200";"Ecole maternelle privée de l'Ange Gardien";"Finistère";"26 Rue De Lostallen";"Privé";"48.40546476965736";"-4.490809678063757"
"Saint-Pol-de-Léon";"Mater";"ec.0291240r@ac-rennes.fr";"29250";"Ecole maternelle privée Sainte Marie";"Finistère";"16 Rue Sainte Marie";"Privé";"48.676578234596654";"-3.9904195679874674"
"Guilers";"Elem";"ec.0291250b@ac-rennes.fr";"29820";"Ecole primaire privée Sainte Thérèse";"Finistère";"2 Rue Des Ecoles, Croas Lann";"Privé";"48.42112914525137";"-4.559679344381396"
"Saint-Pabu";"Elem";"ec.0291262p@ac-rennes.fr";"29830";"Ecole primaire privée Saint Martin";"Finistère";"32 Rue Du Bourg";"Privé";"48.565524369842706";"-4.602727912762829"
"Plougonvelin";"Elem";"ec.0291275d@ac-rennes.fr";"29217";"Ecole primaire privée Sacré-Coeur";"Finistère";"5 Rue De Mezou Vilin";"Privé";"48.342940474836176";"-4.72046009000189"
"Landéda";"Elem";"ec.0291301g@ac-rennes.fr";"29870";"Ecole primaire privée Notre-Dame des Anges";"Finistère";"231 Rue Ty Korn";"Privé";"48.585355426092825";"-4.575420733061916"
"Loperhet";"Elem";"ec.0291316y@ac-rennes.fr";"29470";"Ecole primaire privée Sainte Brigide";"Finistère";"50 Rue Sainte Brigide";"Privé";"48.37495163157919";"-4.3023803900472295"
"Landerneau";"Elem";"ec.0291322e@ac-rennes.fr";"29800";"Ecole primaire privée Saint Julien";"Finistère";"13 Rue De Brest";"Privé";"48.45035080562295";"-4.254320406998493"
"Châteauneuf-du-Faou";"Elem";"ec.0291335u@ac-rennes.fr";"29520";"Ecole primaire privée Saint Michel";"Finistère";"3 Rue Jean Berthélémé";"Privé";"48.18660343566778";"-3.8160195249049136"
"Crozon";"Elem";"ec.0291350k@ac-rennes.fr";"29160";"Ecole primaire privée Sainte Anne";"Finistère";"8 Rue Graveran";"Privé";"48.24543864311964";"-4.487470258888734"
"Saint-Thégonnec Loc-Eguiner";"Elem";"ec.0291368e@ac-rennes.fr";"29410";"Ecole primaire privée Sainte Jeanne d'Arc";"Finistère";"4 Place De La Mairie, Loc Eguiner St Thegonnec";"Privé";"48.4624357688879";"-3.9700294078647813"
"Taulé";"Elem";"ec.0291383w@ac-rennes.fr";"29670";"Ecole primaire privée Saint Joseph";"Finistère";"13 Place De La Mairie";"Privé";"48.60356498811868";"-3.900810130562479"
"Guimiliau";"Elem";"ec.0291386z@ac-rennes.fr";"29400";"Ecole primaire privée Saint Joseph";"Finistère";"8 Route De Kermat";"Privé";"48.489284733736696";"-3.9958194313257103"
"Lampaul-Guimiliau";"Elem";"ec.0291387a@ac-rennes.fr";"29400";"Ecole primaire privée Saint Joseph";"Finistère";"8 Rue Du Stade";"Privé";"48.49138870060955";"-4.0411993627637885"
"Guissény";"Elem";"ec.0291398m@ac-rennes.fr";"29880";"Ecole primaire privée Sainte Jeanne d'Arc";"Finistère";"15 Rue François Broc'H";"Privé";"48.635766833003174";"-4.405513612932529"
"Kerlouan";"Elem";"ec.0291400p@ac-rennes.fr";"29890";"Ecole primaire privée Sainte Anne";"Finistère";"11 Rue Sainte Anne";"Privé";"48.64656224224315";"-4.365239484568235"
"Cléder";"Elem";"ec.0291417h@ac-rennes.fr";"29233";"Ecole primaire privée Saint Joseph";"Finistère";"7 Rue Du Pont Jégu, Bp 3";"Privé";"48.663114238598766";"-4.101079452673309"
"La Forêt-Fouesnant";"Elem";"ec.0291441j@ac-rennes.fr";"29940";"Ecole primaire privée Notre-Dame d'Izel Vor";"Finistère";"Impasse De La Baie";"Privé";"47.907049918370895";"-3.9794105344311177"
"Combrit";"Elem";"ec.0291445n@ac-rennes.fr";"29120";"Ecole primaire privée Notre-Dame de la Clarté";"Finistère";"5 Rue Ar Vidouden";"Privé";"47.88713696719152";"-4.1572494911938715"
"Pouldreuzic";"Elem";"ec.0291479a@ac-rennes.fr";"29710";"Ecole primaire privée Notre-Dame de Lorette";"Finistère";"9 Rue De L'Ecole Des Filles";"Privé";"47.95274514868495";"-4.361120203243888"
"Briec";"Elem";"ec.0291494s@ac-rennes.fr";"29510";"Ecole primaire privée Sainte Anne";"Finistère";"9 Rue De La Résistance";"Privé";"48.10220783195896";"-3.9974098227311807"
"Edern";"Elem";"ec.0291495t@ac-rennes.fr";"29510";"Ecole primaire privée Saint Joseph";"Finistère";"39 Grand'Rue";"Privé";"48.1035516512623";"-3.9790400282783587"
"Quimper";"Elem";"ec.0291514n@ac-rennes.fr";"29336";"Ecole primaire privée Sainte Bernadette";"Finistère";"27 Rue Sainte Bernadette";"Privé";"47.98586215342515";"-4.118479449409003"
"Guipavas";"Elem";"ec.0291552e@ac-rennes.fr";"29490";"Ecole primaire publique Maurice Henensal";"Finistère";"Rue Alfred De Musset";"Public";"48.41491311053518";"-4.447469859831261"
"Logonna-Daoulas";"Elem";"ec.0291554g@ac-rennes.fr";"29460";"Ecole primaire publique de Logonna-Daoulas";"Finistère";"5 Rue Des Ecoles";"Public";"48.321222948468616";"-4.297989623262344"
"Lanmeur";"Elem";"ec.0291560n@ac-rennes.fr";"29620";"Ecole primaire publique Les Quatre Vents";"Finistère";"4 Rue Des Quatre Vents";"Public";"48.64376240945602";"-3.717570213009725"
"Trégourez";"Elem";"ec.0291576f@ac-rennes.fr";"29970";"Ecole primaire publique de Trégourez";"Finistère";"20 Rue De La Mairie";"Public";"48.10476249350785";"-3.861689573837293"
"Pont-de-Buis-lès-Quimerch";"Elem";"ec.0291580k@ac-rennes.fr";"29590";"Ecole primaire publique Josette et Jean Cornec";"Finistère";"Rue Albert Louppe";"Public";"48.282309281709125";"-4.105069531257434"
"Fouesnant";"Elem";"ec.0291583n@ac-rennes.fr";"29170";"Ecole élémentaire publique Kerourgué";"Finistère";"63 Rue De Kerourgue";"Public";"47.89336042537015";"-4.013160440741293"
"Moëlan-sur-Mer";"Elem";"ec.0291593z@ac-rennes.fr";"29350";"Ecole primaire publique de Moëlan-sur-Mer";"Finistère";"20 Rue Des Ecoles";"Public";"47.81400462122811";"-3.6267505406988256"
"Locunolé";"Elem";"ec.0291600g@ac-rennes.fr";"29310";"Ecole primaire publique Bertrand Ollivier";"Finistère";"Route De L'Ecole";"Public";"47.93699499155687";"-3.4797302340399345"
"Saint-Goazec";"Elem";"ec.0291630p@ac-rennes.fr";"29520";"Ecole primaire publique des Sources";"Finistère";"1 Rue Jean-Francois Le Page";"Public";"48.162894729331406";"-3.7840497025876596"
"Crozon";"Elem";"ec.0291674m@ac-rennes.fr";"29160";"Ecole primaire publique de Saint-Fiacre";"Finistère";"Le Fret";"Public";"48.284598412675614";"-4.508649524723485"
"Ergué-Gabéric";"Elem";"ec.0291676p@ac-rennes.fr";"29500";"Ecole élémentaire publique d'Ergué-Gabéric";"Finistère";"Rue Du Douric";"Public";"47.997236451800966";"-4.028480622566978"
"Pleyben";"Elem";"ec.0291691f@ac-rennes.fr";"29190";"Ecole primaire publique Per-Jakez Hélias";"Finistère";"4 Place Pierre Cloarec";"Public";"48.22849812574211";"-3.9702415850900588"
"Plougonven";"Mater";"ec.0291695k@ac-rennes.fr";"29640";"Ecole maternelle publique Albert Larher";"Finistère";"Place De La Mairie";"Public";"48.519418387172685";"-3.712849458192243"
"Lesneven";"Elem";"ec.0291718k@ac-rennes.fr";"29260";"Ecole élémentaire publique Jacques Prévert";"Finistère";"12 Rue Connétable De Richemont";"Public";"48.575246189095395";"-4.326079418651524"
"Saint-Divy";"Elem";"ec.0291745p@ac-rennes.fr";"29800";"Ecole primaire publique Jean de La Fontaine";"Finistère";"Le Bourg";"Public";"48.45372612053309";"-4.335520645051122"
"Châteaulin";"Elem";"ec.0291749u@ac-rennes.fr";"29150";"Ecole primaire privée Saint Joseph";"Finistère";"Rue De La Plaine, Bp 94";"Privé";"48.19422690772963";"-4.093416836010834"
"Plogonnec";"Elem";"ec.0291761g@ac-rennes.fr";"29180";"Ecole primaire publique Paul Gauguin";"Finistère";"Rue Du Stade";"Public";"48.076209896641025";"-4.19201056975696"
"Landerneau";"Elem";"ec.0291806f@ac-rennes.fr";"29800";"Ecole primaire privée Saint Nicolas";"Finistère";"20 Rue De L'Odet, Kergreis";"Privé";"48.45222268181555";"-4.279970071718242"
"Brest";"Elem";"ec.0291984z@ac-rennes.fr";"29200";"Ecole primaire publique Jean Macé";"Finistère";"2 Rue Benjamin Delessert";"Public";"48.386400622877055";"-4.485960201062092"
"Quimper";"Elem";"ec.0291993j@ac-rennes.fr";"29000";"Ecole primaire privée Diwan";"Finistère";"25 Allée De Kermoguer";"Privé";"48.01007135057221";"-4.08893064573757"
"Concarneau";"Elem";"ec.0292017k@ac-rennes.fr";"29900";"Ecole élémentaire publique Centre Ville";"Finistère";"11 Bis Rue Des Ecoles";"Public";"47.87300007458398";"-3.919780600426603"
"Saint-Jean-du-Doigt";"Mater";"ec.0292071u@ac-rennes.fr";"29630";"Ecole maternelle publique Duchesse Anne";"Finistère";"Le Bourg";"Public";"48.69455831573067";"-3.772969914423867"
"Plouédern";"Elem";"ec.0292120x@ac-rennes.fr";"29800";"Ecole primaire privée Saint Edern";"Finistère";"155 Rue Des Ecoles";"Privé";"48.4819512851361";"-4.245930083092803"
"Plédran";"Elem";"ce.0220212l@ac-rennes.fr";"22960";"Ecole élémentaire publique de Plédran";"Côtes-d'Armor";"6 Rue Des Écoles";"Public";"48.444060769387995";"-2.747738475493218"
"Fréhel";"Elem";"ce.0220219u@ac-rennes.fr";"22240";"Ecole primaire publique de Fréhel";"Côtes-d'Armor";"Rue De L'Orme, Pleherel";"Public";"48.62762204295196";"-2.36563035470249"
"Plénée-Jugon";"Elem";"ecole.0220239r@ac-rennes.fr";"22640";"Ecole élémentaire publique Vent d'Eveil";"Côtes-d'Armor";"2 Rue Jules Ferry";"Public";"48.36726422377108";"-2.404930040306893"
"Plérin";"Elem";"ecole.0220246y@ac-rennes.fr";"22190";"Ecole primaire publique Port Horel";"Côtes-d'Armor";"22A Rue Du Moulin À Vent Saint Laurent, St Laurent";"Public";"48.54245201340532";"-2.7351690918770055"
"Plestan";"Elem";"ecole.0220262r@ac-rennes.fr";"22640";"Ecole primaire publique Eugène Besnard";"Côtes-d'Armor";"48 Rue De Penthièvre";"Public";"48.42598235934511";"-2.4514903643751995"
"Ploeuc-L'Hermitage";"Elem";"ce.0220291x@ac-rennes.fr";"22150";"Ecole élémentaire publique de Ploeuc sur Lié";"Côtes-d'Armor";"Rue  Du 19 Mars 1962";"Public";"48.346367692663854";"-2.751927819610686"
"Plouguenast-Langast";"Elem";"ce.0220337x@ac-rennes.fr";"22150";"Ecole primaire publique de Plouguenast";"Côtes-d'Armor";"Rue Fulgence Bienvenue, Plouguenast";"Public";"48.282662043329566";"-2.706917985150055"
"Tréglamus";"Elem";"ce.0220380u@ac-rennes.fr";"22540";"Ecole primaire publique de Tréglamus";"Côtes-d'Armor";"2 Rue Croas Lein";"Public";"48.556427832372755";"-3.270909598588352"
"Trégueux";"Elem";"ecole.0220390e@ac-rennes.fr";"22950";"Ecole primaire publique Le Créac'h";"Côtes-d'Armor";"16 Rue Camp De Peran";"Public";"48.467842869372205";"-2.767539948501185"
"Saint-Pôtan";"Elem";"ce.0220426u@ac-rennes.fr";"22550";"Ecole primaire publique de St Potan";"Côtes-d'Armor";"2 Rue Langlais De Prémorvan";"Public";"48.55754936516032";"-2.2903394610928802"
"Taden";"Elem";"ce.0220451w@ac-rennes.fr";"22100";"Ecole primaire publique de Taden";"Côtes-d'Armor";"Trelat";"Public";"48.49987832143575";"-2.0699305158783248"
"Taden";"Mater";"ecole.0220453y@ac-rennes.fr";"22100";"Ecole maternelle publique Du Moulin";"Côtes-d'Armor";"2 Rue De Montpertuis";"Public";"48.47599540344234";"-2.0200606621661077"
"Trébry";"Elem";"ecole.0220463j@ac-rennes.fr";"22510";"Ecole primaire publique Pierre Simon";"Côtes-d'Armor";"6 Rue Du Mont Bel Air";"Public";"48.354456794008875";"-2.549964782508595"
"Trédias";"Elem";"ce.0220471t@ac-rennes.fr";"22250";"Ecole primaire publique de Trédias";"Côtes-d'Armor";"Bourg";"Public";"48.35835086003701";"-2.237409409878561"
"Saint-Brandan";"Elem";"ecole.0220479b@ac-rennes.fr";"22800";"Ecole primaire publique Les Chrysalides";"Côtes-d'Armor";"3 Rue Camareux";"Public";"48.38767302326235";"-2.87014015173006"
"Saint-Brieuc";"Mater";"ecole.0220491p@ac-rennes.fr";"22000";"Ecole maternelle publique Curie";"Côtes-d'Armor";"7 Rue Curie";"Public";"48.507431767291656";"-2.7541699821788184"
"Saint-Brieuc";"Elem";"ecole.0220504d@ac-rennes.fr";"22000";"Ecole élémentaire publique Hoche";"Côtes-d'Armor";"84 Boulevard Hoche";"Public";"48.50530135336336";"-2.768690561527554"
"Saint-Brieuc";"Elem";"ecole.0220519v@ac-rennes.fr";"22000";"Ecole primaire publique  Les Merles";"Côtes-d'Armor";"44 Rue Des Merles";"Public";"48.51873151052854";"-2.751979381646036"
"Saint-Glen";"Elem";"ce.0220538r@ac-rennes.fr";"22510";"Ecole primaire publique de St Glen";"Côtes-d'Armor";"9 Rue De L'Ecole";"Public";"48.35720490942811";"-2.522950055368048"
"Le Mené";"Elem";"ce.0220551e@ac-rennes.fr";"22330";"Ecole primaire publique LE MENE EST";"Côtes-d'Armor";"Rue Pierre Gineste, Collinee";"Public";"48.29671910915312";"-2.5134633320702244"
"Saint-Julien";"Elem";"ecole.0220555j@ac-rennes.fr";"22940";"Ecole primaire publique Les Plantes";"Côtes-d'Armor";"Rue Des Chênes";"Public";"48.45260491902989";"-2.810008396625372"
"Saint-Juvat";"Elem";"ecole.0220557l@ac-rennes.fr";"22630";"Ecole primaire publique 1001 Fleurs";"Côtes-d'Armor";"Bourg";"Public";"48.35297865204057";"-2.0448802043190364"
"Saint-Laurent";"Elem";"ecole.0220559n@ac-rennes.fr";"22140";"Ecole primaire publique Jean Luc Huitorel";"Côtes-d'Armor";"9 Rue De L'Ecole";"Public";"48.618585242113646";"-3.233600308035596"
"Saint-Lormel";"Elem";"ce.0220561r@ac-rennes.fr";"22130";"Ecole primaire publique de St Lormel";"Côtes-d'Armor";"26 Rue Saint-Pierre";"Public";"48.5498370114056";"-2.232369762955373"
"Saint-Maudan";"Elem";"ce.0220564u@ac-rennes.fr";"22600";"Ecole primaire publique de St Maudan";"Côtes-d'Armor";"1 Rue De L'Ecole";"Public";"48.112472385204356";"-2.7754205397678464"
"Plourhan";"Elem";"ecole.0220595c@ac-rennes.fr";"22410";"Ecole primaire publique Lucie Aubrac";"Côtes-d'Armor";"5 Rue Des Ecoles";"Public";"48.630624426578194";"-2.871459828223633"
"Plufur";"Elem";"ce.0220609t@ac-rennes.fr";"22310";"Ecole primaire publique de Plufur";"Côtes-d'Armor";"21 Rue Jules Ferry";"Public";"48.60753405607232";"-3.5747396084073424"
"Pontrieux";"Elem";"ecole.0220628n@ac-rennes.fr";"22260";"Ecole primaire publique Les Korrigans";"Côtes-d'Armor";"16 Rue Des Galeries";"Public";"48.6982717361238";"-3.162829676159173"
"Quemperven";"Elem";"ce.0220643e@ac-rennes.fr";"22450";"Ecole primaire publique de Quemperven";"Côtes-d'Armor";"16 Rue De La Mairie";"Public";"48.724002703326526";"-3.3231303234349805"
"Quessoy";"Elem";"ce.0220646h@ac-rennes.fr";"22120";"ECOLE PRIMAIRE PUBLIQUE L'ARGENTAIE QUESSOY";"Côtes-d'Armor";"4 Rue Des Ecrivains";"Public";"48.42254093248535";"-2.6588701868447226"
"Ruca";"Elem";"ce.0220666e@ac-rennes.fr";"22550";"Ecole primaire publique de Ruca";"Côtes-d'Armor";"2 Rue André Bellec, Bourg";"Public";"48.56753847407509";"-2.339074189182186"
"Lamballe-Armor";"Elem";"ce.0220680v@ac-rennes.fr";"22400";"Ecole primaire publique de Morieux";"Côtes-d'Armor";"2 Rue De Rintru, Morieux";"Public";"48.52205048428287";"-2.606734463405356"
"Corseul";"Elem";"ce.0220807h@ac-rennes.fr";"22130";"Ecole primaire publique de Corseul";"Côtes-d'Armor";"20 Rue César Mulon";"Public";"48.482885806698114";"-2.168850261950934"
"Grâces";"Elem";"ce.0220824b@ac-rennes.fr";"22200";"Ecole élémentaire publique de Graces";"Côtes-d'Armor";"32 Rue De L'Église";"Public";"48.55690963761232";"-3.1854539885961795"
"Guenroc";"Elem";"ecole.0220827e@ac-rennes.fr";"22350";"Ecole primaire publique RPI Petite Campagne 01";"Côtes-d'Armor";"5 Rue Du Margat";"Public";"48.31609890131179";"-2.0771295779739063"
"Guingamp";"Elem";"ecole.0220829g@ac-rennes.fr";"22200";"Ecole primaire publique F. Leizour";"Côtes-d'Armor";"Rue Du Grand Trotrieux";"Public";"48.559655157254426";"-3.151370463024674"
"Le Foeil";"Elem";"ce.0220859p@ac-rennes.fr";"22800";"Ecole primaire publique de Le Foeil";"Côtes-d'Armor";"Bourg";"Public";"48.42890826600102";"-2.915269924482173"
"Glomel";"Elem";"ce.0220863u@ac-rennes.fr";"22110";"Ecole primaire publique de Glomel";"Côtes-d'Armor";"10 Rue Du Menhir";"Public";"48.22279365568833";"-3.3928496706179123"
"Hillion";"Elem";"ecole.0220878k@ac-rennes.fr";"22120";"Ecole primaire publique St René";"Côtes-d'Armor";"2 Rue Des Vergers";"Public";"48.48666791736406";"-2.6406206439987647"
"Lamballe-Armor";"Elem";"ecole.0220899h@ac-rennes.fr";"22400";"Ecole primaire publique Mathurin Méheut";"Côtes-d'Armor";"17 Rue Notre Dame";"Public";"48.47026517588317";"-2.5137495201879494"
"Languenan";"Elem";"ce.0220920f@ac-rennes.fr";"22130";"Ecole primaire publique de Languenan";"Côtes-d'Armor";"3 Rue De L'Arguenon, 3, Rue De L'Arguenon";"Public";"48.51108145432053";"-2.1308644106677583"
"Loudéac";"Mater";"ecole.0220993k@ac-rennes.fr";"22600";"Ecole maternelle publique Centre";"Côtes-d'Armor";"3 Rue Du Docteur Lecomte";"Public";"48.178673721344616";"-2.759239915887394"
"Matignon";"Elem";"ce.0221007a@ac-rennes.fr";"22550";"Ecole primaire publique de Matignon";"Côtes-d'Armor";"Rue Des Guerches";"Public";"48.59730870586291";"-2.293889788345104"
"Saint-Brieuc";"Mater";"ecole.0221040l@ac-rennes.fr";"22000";"Ecole maternelle publique Guy Ropartz";"Côtes-d'Armor";"Rue Guy Ropartz";"Public";"48.51721438289562";"-2.760290045178259"
"Saint-Brieuc";"Elem";"ecole.0221043p@ac-rennes.fr";"22000";"Ecole primaire publique La Brèche Aux Cornes";"Côtes-d'Armor";"2 Rue Octave Louis Aubert";"Public";"48.51635534130939";"-2.74086949840215"
"Loudéac";"Elem";"ecole.0221045s@ac-rennes.fr";"22600";"Ecole élémentaire publique Jules Verne";"Côtes-d'Armor";"37 Rue Théodore Botrel";"Public";"48.183703338606435";"-2.770900701093843"
"Merdrignac";"Elem";"ecole.0221090r@ac-rennes.fr";"22230";"Ecole primaire publique de Merdrignac";"Côtes-d'Armor";"Rue Jules Ferry";"Public";"48.18869019761787";"-2.4099601118591174"
"Kermaria-Sulard";"Elem";"ec.0221139u@ac-rennes.fr";"22450";"Ecole primaire privée Notre Dame";"Côtes-d'Armor";"4 Rue De La Croix Blanche";"Privé";"48.771634490470866";"-3.369324817369387"
"Lamballe-Armor";"Elem";"ec.0221140v@ac-rennes.fr";"22400";"Ecole primaire privée Notre Dame";"Côtes-d'Armor";"8 Rue Druette";"Privé";"48.46409303581829";"-2.51169695863977"
"Le Mené";"Elem";"ec.0221150f@ac-rennes.fr";"22330";"Ecole primaire privée Saint Joseph";"Côtes-d'Armor";"5  Rue Des Fournils, Langourla";"Privé";"48.284195420266926";"-2.4170603781647984"
"Langueux";"Elem";"ec.0221152h@ac-rennes.fr";"22360";"Ecole primaire privée Notre Dame";"Côtes-d'Armor";"19 Bis Rue De Saint-Ilan";"Privé";"48.498301399390584";"-2.714219438880372"
"Maël-Carhaix";"Elem";"ec.0221168a@ac-rennes.fr";"22340";"Ecole primaire privée Sacré Coeur";"Côtes-d'Armor";"1 Rue Du Foyer Logement";"Privé";"48.28290604464898";"-3.426090094437459"
"Moncontour";"Elem";"ec.0221175h@ac-rennes.fr";"22510";"Ecole primaire privée La Providence";"Côtes-d'Armor";"4 Rue De La Poterie";"Privé";"48.36092411238065";"-2.6330696377546547"
"La Motte";"Elem";"ec.0221176j@ac-rennes.fr";"22600";"Ecole primaire privée Notre Dame de Lourdes";"Côtes-d'Armor";"1 Place De L'Eglise";"Privé";"48.23609360202112";"-2.7326504892851613"
"Perros-Guirec";"Elem";"ec.0221189y@ac-rennes.fr";"22700";"Ecole primaire privée Saint Yves";"Côtes-d'Armor";"13 Rue Sergent L'Heveder";"Privé";"48.80960696215694";"-3.4458798843653886"
"Plaine-Haute";"Elem";"ec.0221190z@ac-rennes.fr";"22800";"Ecole primaire privée Sainte Anne";"Côtes-d'Armor";"6 Impasse Porte Carfot";"Privé";"48.445121409900736";"-2.853220382009603"
"Lamballe-Armor";"Elem";"ec.0221196f@ac-rennes.fr";"22400";"Ecole primaire privée Sainte Anne";"Côtes-d'Armor";"18 Rue De La Mer, Planguenoual";"Privé";"48.50951219926308";"-2.6083525804115366"
"Plémy";"Elem";"ec.0221208u@ac-rennes.fr";"22150";"Ecole primaire privée Sacré Coeur";"Côtes-d'Armor";"7 Route De Moncontour";"Privé";"48.3372588072679";"-2.683070647816271"
"Pleslin-Trigavou";"Elem";"ec.0221219f@ac-rennes.fr";"22490";"Ecole primaire privée Saint Joseph";"Côtes-d'Armor";"16 Rue Du Stade";"Privé";"48.53242890144026";"-2.05660053401015"
"Pleubian";"Elem";"ec.0221224l@ac-rennes.fr";"22610";"Ecole primaire privée Saint Georges";"Côtes-d'Armor";"8 Route De Pleumeur Gautier";"Privé";"48.84098686702757";"-3.1400904719943408"
"Pleudihen-sur-Rance";"Elem";"ec.0221228r@ac-rennes.fr";"22690";"Ecole primaire privée Notre Dame";"Côtes-d'Armor";"3 Rue De Bellevue";"Privé";"48.50845090584425";"-1.9518998939760146"
"Châtelaudren-Plouagat";"Elem";"ec.0221237a@ac-rennes.fr";"22170";"Ecole primaire privée Sainte Thérèse";"Côtes-d'Armor";"11 Cote Aux Goupils";"Privé";"48.53566943211247";"-2.9933061056744164"
"Plouaret";"Elem";"ec.0221238b@ac-rennes.fr";"22420";"Ecole primaire privée Saint Louis";"Côtes-d'Armor";"250 Rue Du Général De Gaulle";"Privé";"48.60981383846629";"-3.476230588196562"
"Pordic";"Elem";"ec.0221279w@ac-rennes.fr";"22590";"Ecole primaire privée Sainte Anne";"Côtes-d'Armor";"7 Rue Des Ecoles";"Privé";"48.570091978107456";"-2.815679866602931"
"Prat";"Elem";"ec.0221280x@ac-rennes.fr";"22140";"Ecole primaire privée Saint Joseph";"Côtes-d'Armor";"3 Place De L'Eglise";"Privé";"48.675917322698524";"-3.2976600020487625"
"Quintin";"Elem";"ec.0221288f@ac-rennes.fr";"22800";"Ecole primaire privée Notre Dame";"Côtes-d'Armor";"1 Rue Du Bourg Jugne";"Privé";"48.404307411584696";"-2.9085905947334667"
"La Roche-Jaudy";"Elem";"ec.0221290h@ac-rennes.fr";"22450";"Ecole primaire privée Sainte Catherine";"Côtes-d'Armor";"1 Rue Pouamon, La Roche Derrien";"Privé";"48.74772204053797";"-3.2611189512198635"
"Saint-Alban";"Elem";"ec.0221296p@ac-rennes.fr";"22400";"Ecole primaire privée Saint Guillaume";"Côtes-d'Armor";"27 Rue De L'Eglise";"Privé";"48.55666524614065";"-2.532699455949384"
"Saint-Barnabé";"Elem";"ec.0221297r@ac-rennes.fr";"22600";"Ecole primaire privée Sainte Jeanne d'Arc";"Côtes-d'Armor";"3 Rue Jeanne D'Arc";"Privé";"48.13783878403799";"-2.702299433480563"
"Saint-Brieuc";"Elem";"ec.0221301v@ac-rennes.fr";"22000";"Ecole primaire privée La Providence";"Côtes-d'Armor";"2 Rue Lycéens Martyrs, Bp 4613";"Privé";"48.51231509293923";"-2.762550443663486"
"Saint-Brieuc";"Elem";"ec.0221304y@ac-rennes.fr";"22000";"Ecole primaire privée Sainte Marie";"Côtes-d'Armor";"11  Rue De Touraine";"Privé";"48.511277802003306";"-2.7844203240824825"
"Saint-Quay-Portrieux";"Elem";"ec.0221333e@ac-rennes.fr";"22410";"Ecole primaire privée Notre Dame de la Ronce";"Côtes-d'Armor";"7 Rue Jeanne D'Arc";"Privé";"48.65357063955982";"-2.835940065695052"
"Saint-Trimoël";"Elem";"ec.0221337j@ac-rennes.fr";"22510";"Ecole  privée Notre Dame";"Côtes-d'Armor";"Bourg";"Privé";"48.386525052888636";"-2.5490795325416946"
"Squiffiec";"Elem";"ec.0221342p@ac-rennes.fr";"22200";"Ecole primaire privée Jeanne d'Arc";"Côtes-d'Armor";"21 Rue De L'Argoat";"Privé";"48.62595727216903";"-3.151049570932343"
"Uzel";"Elem";"ec.0221360j@ac-rennes.fr";"22460";"Ecole primaire privée Jeanne d'Arc";"Côtes-d'Armor";"6 Rue Du Parc Mail";"Privé";"48.28228637442678";"-2.83897044146848"
"Corlay";"Elem";"ec.0221389r@ac-rennes.fr";"22320";"Ecole primaire privée Saint Joseph";"Côtes-d'Armor";"15 Place Du Marche";"Privé";"48.315718157865525";"-3.0566804990217067"
"Gâvres";"Elem";"ec.0560239f@ac-rennes.fr";"56680";"Ecole primaire publique Anita Conti";"Morbihan";"42 Avenue Des Sardiniers";"Public";"47.696173316087446";"-3.3531004178946353"
"Guidel";"Elem";"ec.0560240g@ac-rennes.fr";"56520";"Ecole élémentaire publique Prat-Foën";"Morbihan";"Pratfoen";"Public";"47.788115591849056";"-3.4984804761149504"
"Guilliers";"Elem";"ec.0560241h@ac-rennes.fr";"56490";"Ecole primaire publique Robert Desnos";"Morbihan";"19 Rue De La Mairie";"Public";"48.04090243808982";"-2.404289983911088"
"Languidic";"Elem";"ec.0560244l@ac-rennes.fr";"56440";"Ecole primaire publique Georges Brassens";"Morbihan";"3 Rue Saint-Aubin";"Public";"47.83227212217952";"-3.15533997458225"
"Meslan";"Elem";"ec.0560248r@ac-rennes.fr";"56320";"Ecole primaire publique l'Arbre Jaune";"Morbihan";"17 Rue Joseph Le Gallo";"Public";"47.99351905092567";"-3.4324194887193475"
"Ploemel";"Elem";"ec.0560251u@ac-rennes.fr";"56400";"Ecole primaire publique du Groez-Ven";"Morbihan";"Rue Des Ecoles";"Public";"47.652223109101506";"-3.0707599254539755"
"Pont-Scorff";"Elem";"ec.0560257a@ac-rennes.fr";"56620";"Ecole élémentaire publique Marc Chagall";"Morbihan";"Rue Monseigneur Duparc";"Public";"47.833077563343444";"-3.401650539595265"
"Silfiac";"Elem";"ec.0560268m@ac-rennes.fr";"56480";"Ecole primaire publique Louise Favennec";"Morbihan";"Bourg";"Public";"48.14887792997167";"-3.15759958424763"
"Ile-d'Houat";"Elem";"ec.0560279z@ac-rennes.fr";"56170";"Ecole primaire publique de l'Ile d'Houat";"Morbihan";"Le Bourg";"Public";"47.39043279605765";"-2.955580442991874"
"Inzinzac-Lochrist";"Elem";"ec.0560292n@ac-rennes.fr";"56650";"Ecole primaire publique la Châtaigneraie";"Morbihan";"9 Rue Flaubert, Penquesten";"Public";"47.867549782903865";"-3.2345305381218368"
"Lanester";"Mater";"ec.0560309g@ac-rennes.fr";"56600";"Ecole maternelle publique Paul Langevin";"Morbihan";"Rue Hélène Boucher";"Public";"47.765491740906924";"-3.354300144296164"
"Pluneret";"Elem";"ec.0560387s@ac-rennes.fr";"56400";"Ecole primaire publique Germaine Tillion";"Morbihan";"Place François Mitterrand";"Public";"47.6758428828358";"-2.959522838643296"
"Larmor-Plage";"Elem";"ec.0560389u@ac-rennes.fr";"56260";"Ecole primaire publique le Ménez";"Morbihan";"Le Menez";"Public";"47.711804301657736";"-3.385799541969798"
"Limerzel";"Elem";"ec.0560396b@ac-rennes.fr";"56220";"Ecole primaire publique Angélique Mounier";"Morbihan";"15 Rue De La Métairie";"Public";"47.63493813157506";"-2.3525543496789627"
"Lorient";"Mater";"ec.0560413v@ac-rennes.fr";"56100";"Ecole maternelle publique Bisson";"Morbihan";"2 Rue Vauban";"Public";"47.749514252945886";"-3.3627203616495707"
"Lorient";"Mater";"ec.0560422e@ac-rennes.fr";"56100";"Ecole maternelle publique Lanveur Kerjulaude";"Morbihan";"Rue Roland Garros";"Public";"47.74036336450354";"-3.38564060949698"
"Saint-Armel";"Elem";"ec.0560440z@ac-rennes.fr";"56450";"Ecole primaire publique Gustave Siné";"Morbihan";"Rue De La Côte";"Public";"47.57355628820024";"-2.7130205425400247"
"Saint-Jean-Brévelay";"Elem";"ec.0560459v@ac-rennes.fr";"56660";"Ecole primaire publique Paul-Emile Victor";"Morbihan";"Route De Colpo";"Public";"47.84202142583821";"-2.7447215664035434"
"Sarzeau";"Elem";"ec.0560480t@ac-rennes.fr";"56370";"Ecole primaire publique  Marie Le Franc";"Morbihan";"30 Rue De Brenudel";"Public";"47.53027223851755";"-2.7594997341678607"
"La Trinité-sur-Mer";"Elem";"ec.0560506w@ac-rennes.fr";"56470";"Ecole primaire publique de la Trinié sur Mer";"Morbihan";"1 Rue Inouarh Braz";"Public";"47.58585473699137";"-3.0312596530115763"
"Vannes";"Mater";"ec.0560520l@ac-rennes.fr";"56000";"Ecole maternelle publique Anne de Bretagne";"Morbihan";"4 Rue De La Salle D'Asile";"Public";"47.65664188501301";"-2.762899401617793"
"Grand-Champ";"Elem";"ec.0560550u@ac-rennes.fr";"56390";"Ecole primaire publique Yves Coppens";"Morbihan";"6 Route De Vannes";"Public";"47.757016220616116";"-2.8439303838262844"
"Hennebont";"Mater";"ec.0560594s@ac-rennes.fr";"56700";"Ecole maternelle publique Paul Eluard";"Morbihan";"Rue Emile Zola";"Public";"47.80254466226359";"-3.2737493018133286"
"Marzan";"Elem";"ec.0560600y@ac-rennes.fr";"56130";"Ecole primaire publique le Pigeon Vert";"Morbihan";"Hameau, Le Pigeon Vert";"Public";"47.559943282813634";"-2.3964593818928357"
"Muzillac";"Elem";"ec.0560627c@ac-rennes.fr";"56190";"Ecole primaire publique les Poulpikans";"Morbihan";"1  Rue Des Lilas";"Public";"47.55194583369755";"-2.48215022688173"
"Allaire";"Elem";"ec.0560646y@ac-rennes.fr";"56350";"Ecole primaire publique Eugène et M Renaudeau";"Morbihan";"6 Rue De Redon";"Public";"47.63665121909979";"-2.1637506431235463"
"Baden";"Elem";"ec.0560662r@ac-rennes.fr";"56870";"Ecole primaire publique Joseph Le Brix";"Morbihan";"17 Rue Dieudonné Costes";"Public";"47.61738310426489";"-2.9194988462194984"
"Pontivy";"Elem";"ec.0560704l@ac-rennes.fr";"56300";"Ecole primaire publique Jules Ferry";"Morbihan";"2 Quai Presbourg";"Public";"48.0686643452983";"-2.9677104693839085"
"Quéven";"Elem";"ec.0560726k@ac-rennes.fr";"56530";"Ecole élémentaire publique Anatole France";"Morbihan";"18 Rue Anatole France";"Public";"47.78773109283074";"-3.413146587739573"
"Rohan";"Elem";"ec.0560746g@ac-rennes.fr";"56580";"Ecole primaire publique la Ville Moisan";"Morbihan";"1 Rue De La Roseraie";"Public";"48.073380972172515";"-2.752659338461196"
"La Chapelle-Neuve";"Elem";"ec.0560764b@ac-rennes.fr";"56500";"Ecole primaire publique la Fourmilière";"Morbihan";"17 Rue Du Tilleul";"Public";"47.86378244176907";"-2.9448804997317377"
"Erdeven";"Elem";"ec.0560782w@ac-rennes.fr";"56410";"Ecole primaire publique Le Grand Large";"Morbihan";"24 Rue Du Grand Large";"Public";"47.63910184489517";"-3.1611316502265305"
"Férel";"Elem";"ec.0560791f@ac-rennes.fr";"56130";"Ecole primaire publique Le Ruisseau Blanc";"Morbihan";"22 Rue De La Fontaine";"Public";"47.48247901723527";"-2.344939538277159"
"Lorient";"Mater";"ec.0560806x@ac-rennes.fr";"56100";"Ecole maternelle publique Marcel Pagnol";"Morbihan";"2 Rue Mozart, Bois Du Chateau";"Public";"47.76212701006464";"-3.3749794764808034"
"Brech";"Elem";"ec.0560905e@ac-rennes.fr";"56400";"Ecole primaire privée Sacré-Coeur";"Morbihan";"5 Rue Park Ar Fetan";"Privé";"47.71942384957276";"-2.9976502384228847"
"Bubry";"Elem";"ec.0560911l@ac-rennes.fr";"56310";"Ecole primaire privée Sainte Hélène";"Morbihan";"Rue De Sainte-Hélène";"Privé";"47.96759460516589";"-3.1727402133094307"
"Camors";"Elem";"ec.0560918u@ac-rennes.fr";"56330";"Ecole primaire privée Saint Joseph";"Morbihan";"13 Rue Du Vieux Presbytère";"Privé";"47.848748334727944";"-2.9991594974673954"
"Cléguérec";"Elem";"ec.0560937p@ac-rennes.fr";"56480";"Ecole primaire privée Saint Joseph";"Morbihan";"12 Rue Du Couvent";"Privé";"48.12497659395909";"-3.068770381614334"
"Concoret";"Elem";"ec.0560941u@ac-rennes.fr";"56430";"Ecole primaire privée Saint Laurent";"Morbihan";"16 Rue  Renan Le Cunff";"Privé";"48.06254429721702";"-2.205349845206837"
"Crach";"Elem";"ec.0560945y@ac-rennes.fr";"56950";"Ecole primaire privée Saint Joseph";"Morbihan";"2 Rue Du Général Leclerc";"Privé";"47.61500014841327";"-3.000789472338793"
"La Croix-Helléan";"Elem";"ec.0560949c@ac-rennes.fr";"56120";"Ecole primaire privée Sainte Anne";"Morbihan";"7 Rue Sainte Anne";"Privé";"47.95745305008805";"-2.5037902164671513"
"Cruguel";"Elem";"ec.0560950d@ac-rennes.fr";"56420";"Ecole primaire privée Sainte Marie";"Morbihan";"21 Chemin Des Ecoliers";"Privé";"47.877480009322966";"-2.5948998188961068"
"Erdeven";"Elem";"ec.0560953g@ac-rennes.fr";"56410";"Ecole primaire privée Saint Pierre Saint Paul";"Morbihan";"27 Rue Nationale";"Privé";"47.6436656958213";"-3.1571494595772163"
"Forges de Lanouée";"Elem";"ec.0560961r@ac-rennes.fr";"56120";"Ecole primaire privée Saint Pierre";"Morbihan";"10 Rue De La Cite, Les Forges";"Privé";"48.01573714215701";"-2.6471212026302298"
"Guer";"Elem";"ec.0560989w@ac-rennes.fr";"56380";"Ecole primaire privée Sainte Thérèse";"Morbihan";"20 Rue Du Calvaire, Saint Raoul";"Privé";"47.94354301202806";"-2.119463409528973"
"Guidel";"Elem";"ec.0560993a@ac-rennes.fr";"56520";"Ecole primaire privée Notre-Dame des Victoires";"Morbihan";"6 Rue Joseph Lena";"Privé";"47.788091384084595";"-3.488689873661958"
"Guilliers";"Elem";"ec.0560996d@ac-rennes.fr";"56490";"Ecole primaire privée Sainte Marie";"Morbihan";"Place Des Anciens Combattants";"Privé";"48.04281349279568";"-2.4041194712919247"
"Kervignac";"Elem";"ec.0561023h@ac-rennes.fr";"56700";"Ecole primaire privée Sainte Anne";"Morbihan";"3 Rue Du Stade";"Privé";"47.76301389788141";"-3.237639636807479"
"Kervignac";"Elem";"ec.0561024j@ac-rennes.fr";"56700";"Ecole primaire privée Notre-Dame de la Clarté";"Morbihan";"4 Route Du Pont";"Privé";"47.763833063228056";"-3.2894201747299823"
"Languidic";"Elem";"ec.0561033u@ac-rennes.fr";"56440";"Ecole primaire privée Notre-Dame des Fleurs";"Morbihan";"2 Rue Du Presbytère";"Privé";"47.831221369546476";"-3.156060021909698"
"Lorient";"Elem";"ec.0561062a@ac-rennes.fr";"56100";"Ecole primaire privée Saint Christophe";"Morbihan";"14 Rue Métayer";"Privé";"47.756756399747";"-3.371149398150197"
"Le Palais";"Elem";"ec.0561071k@ac-rennes.fr";"56360";"Ecole primaire privée Sainte Anne";"Morbihan";"Avenue Jules Ferry";"Privé";"47.346156387318096";"-3.1572100735742636"
"Ploeren";"Elem";"ec.0561094k@ac-rennes.fr";"56880";"Ecole primaire privée Ker Anna";"Morbihan";"3 Rue Des Fontaines";"Privé";"47.656101854546264";"-2.8644704860402688"
"Ploërmel";"Elem";"ec.0561096m@ac-rennes.fr";"56800";"Ecole primaire privée Saint Joseph - Saint Jean";"Morbihan";"Impasse Saint Joseph";"Privé";"47.931954476388945";"-2.395370182529434"
"Plouhinec";"Elem";"ec.0561102u@ac-rennes.fr";"56680";"Ecole primaire privée Sainte Anne";"Morbihan";"15 Place De L'Eglise";"Privé";"47.69771502395415";"-3.250580388996034"
"Plouhinec";"Elem";"ec.0561104w@ac-rennes.fr";"56680";"Ecole primaire privée la Sainte-Famille";"Morbihan";"Hameau De Locquenin";"Privé";"47.670511723676626";"-3.218830448599846"
"Pluherlin";"Elem";"ec.0561107z@ac-rennes.fr";"56220";"Ecole primaire privée Saint Gentien";"Morbihan";"13 Rue Du Taillis";"Privé";"47.69827859061251";"-2.3626805118988865"
"Plumergat";"Elem";"ec.0561119m@ac-rennes.fr";"56400";"Ecole primaire privée Saint Joseph";"Morbihan";"Rue Joseph Evenas";"Privé";"47.741468286609525";"-2.9196904167958855"
"Pluneret";"Elem";"ec.0561120n@ac-rennes.fr";"56400";"Ecole primaire privée Saint Joseph";"Morbihan";"1 Rue Docteur Laennec";"Privé";"47.674691490197056";"-2.956509822962622"
"Questembert";"Elem";"ec.0561138h@ac-rennes.fr";"56230";"Ecole primaire privée Notre-Dame";"Morbihan";"23 Rue De La Laine";"Privé";"47.65909524882964";"-2.4552896634743764"
"Quiberon";"Elem";"ec.0561143n@ac-rennes.fr";"56170";"Ecole primaire privée Sainte Anne-Saint Clément";"Morbihan";"16 Rue De Kermorvan";"Privé";"47.484782308567";"-3.116699581871315"
"Ménéac";"Elem";"ec.0561183g@ac-rennes.fr";"56490";"Ecole primaire privée Saint Jean-Baptiste";"Morbihan";"10 Rue Du 8 Mai 1945";"Privé";"48.139373134992645";"-2.4575198846324104"
"Molac";"Elem";"ec.0561191r@ac-rennes.fr";"56230";"Ecole primaire privée Saint Pierre";"Morbihan";"9 Rue Saint-Pierre";"Privé";"47.73187262954591";"-2.4378003968676825"
"Neulliac";"Elem";"ec.0561210l@ac-rennes.fr";"56300";"Ecole primaire privée Saint Joseph";"Morbihan";"3 Rue De La Mairie";"Privé";"48.128451057699465";"-2.9842103338076695"
"Saint-Allouestre";"Elem";"ec.0561222z@ac-rennes.fr";"56500";"Ecole primaire privée Sainte Anne";"Morbihan";"1 Rue De La Fontaine";"Privé";"47.910809780042484";"-2.7212098406656318"
"Saint-Gravé";"Elem";"ec.0561237r@ac-rennes.fr";"56220";"Ecole primaire privée Sainte Magdeleine";"Morbihan";"4 Route Saint Martin";"Privé";"47.72583311025448";"-2.278630443457581"
"Saint-Servant";"Elem";"ec.0561258n@ac-rennes.fr";"56120";"Ecole primaire privée Notre-Dame";"Morbihan";"7 Rue Du Moulin De Meslan, Bourg";"Privé";"47.912198371426804";"-2.513369795521792"
"Sauzon";"Elem";"ec.0561264v@ac-rennes.fr";"56360";"Ecole primaire privée Sainte Marie";"Morbihan";"Route De L'Apothicairerie";"Privé";"47.3708508530635";"-3.2268296811121195"
"Le Sourn";"Elem";"ec.0561272d@ac-rennes.fr";"56300";"Ecole primaire privée Saint Julien";"Morbihan";"10 Rue De Kerfrappe";"Privé";"48.042120408835984";"-2.990009671508304"
"Surzur";"Elem";"ec.0561276h@ac-rennes.fr";"56450";"Ecole primaire privée Saint André";"Morbihan";"1 Rue Des Ecoles";"Privé";"47.58049145707447";"-2.633640351062139"
"La Trinité-sur-Mer";"Elem";"ec.0561288w@ac-rennes.fr";"56470";"Ecole primaire privée Notre-Dame";"Morbihan";"24 Rue Du Mané Rorh";"Privé";"47.585373888785064";"-3.03148013338163"
"Vannes";"Elem";"ec.0561295d@ac-rennes.fr";"56000";"Ecole primaire privée Sainte Bernadette";"Morbihan";"Rue Jean-François De Surville";"Privé";"47.638255076666724";"-2.7754199923448746"
"Saint-Caradec-Trégomel";"Elem";"ec.0561322h@ac-rennes.fr";"56540";"Ecole primaire publique de Saint Caradec Trégomel";"Morbihan";"1 Rue De La Mairie";"Public";"48.037081026133535";"-3.3521605599134108"
"Roudouallec";"Elem";"ec.0561346j@ac-rennes.fr";"56110";"Ecole primaire publique le Gué des Saules";"Morbihan";"24 Rue Nicolas Le Grand";"Public";"48.125743593055255";"-3.719410166148052"
"Lanester";"Elem";"ec.0561368h@ac-rennes.fr";"56600";"Ecole élémentaire publique Joliot-Curie";"Morbihan";"18 Rue Larnicol";"Public";"47.764416058001544";"-3.34063979428064"
"Ploemeur";"Elem";"ec.0561393k@ac-rennes.fr";"56270";"Ecole primaire publique Lomener Kerroch";"Morbihan";"32 Rue De La Tour Du Génie";"Public";"47.7071046089103";"-3.442389939317619"
"Hennebont";"Elem";"ec.0561426w@ac-rennes.fr";"56700";"Ecole élémentaire publique Paul Eluard";"Morbihan";"Rue Emile Zola";"Public";"47.802174639171376";"-3.2727701908001237"
"Lorient";"Elem";"ec.0561438j@ac-rennes.fr";"56100";"Ecole primaire privée François Tanguy";"Morbihan";"35 Rue  Joseph Henaff";"Privé";"47.74911666615261";"-3.3937699949516964"
"Quistinic";"Elem";"ec.0561444r@ac-rennes.fr";"56310";"Ecole primaire publique le Chat Perché";"Morbihan";"1 Rue Pierre De Coubertin";"Public";"47.90649203735286";"-3.1374774557686402"
"Vannes";"Elem";"ec.0561485k@ac-rennes.fr";"56000";"Ecole primaire publique Kerniol";"Morbihan";"5 Rue Gustave Courbet";"Public";"47.676936020813066";"-2.7694406296915512"
"Saint-Barthélemy";"Elem";"ec.0561521z@ac-rennes.fr";"56150";"Ecole primaire publique les hirondelles";"Morbihan";"Rue De La Gare";"Public";"47.92749014364237";"-3.045060425674351"
"Plescop";"Mater";"ec.0561527f@ac-rennes.fr";"56890";"Ecole maternelle publique Françoise Dolto";"Morbihan";"6 Rue Sainte Anne";"Public";"47.69881977300653";"-2.807860599294921"
"Lorient";"Elem";"ec.0561565x@ac-rennes.fr";"56100";"Ecole élémentaire publique Nouvelle Ville";"Morbihan";"1 Rue René Lesage";"Public";"47.74256524001517";"-3.363560462336631"
"Lorient";"Elem";"ec.0561581p@ac-rennes.fr";"56100";"Ecole primaire privée Sainte Marie Pie X";"Morbihan";"26 Rue Du 62Ème Régiment D'Infanterie";"Privé";"47.75189997277156";"-3.362686027737075"
"Nivillac";"Elem";"ec.0561582r@ac-rennes.fr";"56130";"Ecole primaire privée Saint Louis";"Morbihan";"1 Chemin Des Écoliers";"Privé";"47.5230989532703";"-2.295376578502762"
"Lorient";"Elem";"ec.0561660a@ac-rennes.fr";"56100";"Ecole primaire publique Bois Bissonnet";"Morbihan";"2 Rue Eugène Varlin";"Public";"47.742117930017514";"-3.3948504275372366"
"Loyat";"Elem";"ec.0561664e@ac-rennes.fr";"56800";"Ecole primaire privée Sainte Jeanne d'Arc";"Morbihan";"2 Rue Du Barrage";"Privé";"47.988444698646795";"-2.3832202259362814"
"Vannes";"Elem";"ec.0561693l@ac-rennes.fr";"56000";"Ecole primaire publique la Rabine";"Morbihan";"1  Rue Philippe Lebon";"Public";"47.64936666914924";"-2.761460463871494"
"Lorient";"Elem";"ec.0561700u@ac-rennes.fr";"56100";"Ecole élémentaire publique Bois du Château";"Morbihan";"2 Rue Georges Bizet";"Public";"47.76298583081622";"-3.374249527465571"
"Quéven";"Elem";"ec.0561706a@ac-rennes.fr";"56530";"Ecole primaire privée Saint Joseph";"Morbihan";"1 Rue Julien Moello";"Privé";"47.78798251103327";"-3.4168094943954825"
"Carentoir";"Elem";"ec.0561727y@ac-rennes.fr";"56910";"Ecole primaire publique Yann Arthus Bertrand";"Morbihan";"2 Boulevard Gicquel";"Public";"47.81447072861117";"-2.1321305123837258"
"Gévezé";"Elem";"ec.0351736x@ac-rennes.fr";"35850";"Ecole primaire privée Ste Marie";"Ille-et-Vilaine";"4 Allée Du Grand Domaine";"Privé";"48.222059313247925";"-1.7884997540692775"
"Mézières-sur-Couesnon";"Elem";"ec.0351739a@ac-rennes.fr";"35140";"Ecole primaire privée St Martin";"Ille-et-Vilaine";"7 Rue De Saint-Jean";"Privé";"48.29599983103357";"-1.4307800070545365"
"Saint-M'Hervé";"Elem";"ec.0351747j@ac-rennes.fr";"35500";"Ecole primaire privée Ste Anne";"Ille-et-Vilaine";"18 Allée Des Sports";"Privé";"48.180226990581076";"-1.1167993611514118"
"Baguer-Pican";"Elem";"ecole.0351750m@ac-rennes.fr";"35120";"Ecole primaire publique les Trois Prunus";"Ille-et-Vilaine";"23 Rue De Paris";"Public";"48.5534339005957";"-1.6988398757800893"
"Coësmes";"Elem";"ecole.0351752p@ac-rennes.fr";"35134";"Ecole primaire publique Le Temps des Cerises";"Ille-et-Vilaine";"7 Impasse Alain Guivarch";"Public";"47.88439385304073";"-1.44369254457774"
"Thorigné-Fouillard";"Elem";"ecole.0351765d@ac-rennes.fr";"35235";"Ecole élémentaire publique les Grands Prés Verts";"Ille-et-Vilaine";"30 Avenue Gabriel Fauré";"Public";"48.15547616253379";"-1.5884805622036107"
"Le Rheu";"Mater";"ecole.0351778t@ac-rennes.fr";"35650";"Ecole maternelle publique la Gabillais";"Ille-et-Vilaine";"7 Bis Place De La Gabillais";"Public";"48.09932068844383";"-1.7890194461544273"
"Saint-Coulomb";"Elem";"ec.0351782x@ac-rennes.fr";"35350";"Ecole primaire privée St Joseph";"Ille-et-Vilaine";"30 Rue De Bel Air";"Privé";"48.6779308558709";"-1.9124001275731362"
"La Mézière";"Elem";"ecole.0351788d@ac-rennes.fr";"35520";"Ecole élémentaire publique Pierre Jakez Hélias";"Ille-et-Vilaine";"Rue De La Flume";"Public";"48.22045305388156";"-1.7569794187858911"
"Bédée";"Elem";"ecole.0351805x@ac-rennes.fr";"35137";"Ecole élémentaire publique La Plume";"Ille-et-Vilaine";"1 Rue Joseph Filaux";"Public";"48.178994093891006";"-1.942150553546025"
"Bruz";"Elem";"ecole.0351813f@ac-rennes.fr";"35170";"Ecole primaire publique Champ L'Evêque";"Ille-et-Vilaine";"53 Rue Du Guesclin";"Public";"48.022314749764114";"-1.738060555515024"
"Saint-Aubin-d'Aubigné";"Mater";"ecole.0351832b@ac-rennes.fr";"35250";"Ecole maternelle publique Paul Gauguin";"Ille-et-Vilaine";"3 Rue Des Ecoles";"Public";"48.26154741730944";"-1.6107701767651905"
"Maen Roch";"Mater";"ecole.0351834d@ac-rennes.fr";"35460";"Ecole maternelle publique Jacques Prévert";"Ille-et-Vilaine";"20 Rue Georges Guynemer, Saint- Brice-En-Cogles";"Public";"48.411496927176955";"-1.3702006325441183"
"Orgères";"Elem";"ecole.0351862j@ac-rennes.fr";"35230";"Ecole élémentaire publique les Grains d'Orge";"Ille-et-Vilaine";"10 Ter Rue De Rennes";"Public";"47.99724694464345";"-1.6677803462201235"
"Vern-sur-Seiche";"Mater";"ecole.0351893t@ac-rennes.fr";"35770";"Ecole maternelle publique la Chalotais";"Ille-et-Vilaine";"8 Allée De La Chalotais";"Public";"48.043276037244695";"-1.6034693702008458"
"Rennes";"Mater";"ecole.0352018d@ac-rennes.fr";"35200";"Ecole maternelle publique Henri Wallon";"Ille-et-Vilaine";"1 Rue De Hongrie";"Public";"48.09016568915146";"-1.6571097822960603"
"Bédée";"Mater";"ecole.0352031t@ac-rennes.fr";"35137";"Ecole maternelle publique La Marelle";"Ille-et-Vilaine";"5 Rue Joseph Filaux";"Public";"48.179225442345526";"-1.9427397568550473"
"Montgermont";"Mater";"ecole.0352036y@ac-rennes.fr";"35760";"Ecole maternelle publique Gérard Philipe";"Ille-et-Vilaine";"5 Rue De Rennes";"Public";"48.15650381137828";"-1.7146800742773318"
"Mordelles";"Elem";"ecole.0352038a@ac-rennes.fr";"35310";"Ecole primaire publique la Clairière";"Ille-et-Vilaine";"1 Avenue Des Geraults";"Public";"48.07422719652033";"-1.834915601740225"
"Gévezé";"Mater";"ecole.0352094l@ac-rennes.fr";"35850";"Ecole maternelle publique Léonard de Vinci";"Ille-et-Vilaine";"Allée Des Sports";"Public";"48.21934365269272";"-1.7912003718131682"
"Le Sel-de-Bretagne";"Elem";"ecole.0352101u@ac-rennes.fr";"35320";"Ecole primaire publique Mathurin Méheut";"Ille-et-Vilaine";"6 Rue Lamartine";"Public";"47.89477178016583";"-1.6132105874778027"
"Argentré-du-Plessis";"Elem";"ec.0352129z@ac-rennes.fr";"35370";"Ecole primaire privée La Salle St Joseph";"Ille-et-Vilaine";"54 Rue Alain D'Argentré";"Privé";"48.056987957233";"-1.1461697991988964"
"La Guerche-de-Bretagne";"Elem";"ecole.0352131b@ac-rennes.fr";"35130";"Ecole élémentaire publique Evelyne Brisou-Pellen";"Ille-et-Vilaine";"2 Avenue De La République";"Public";"47.941023855698006";"-1.2343498526786651"
"Rennes";"Mater";"ecole.0352139k@ac-rennes.fr";"35700";"Ecole maternelle publique Jules Ferry";"Ille-et-Vilaine";"21 Rue Emile Bernard";"Public";"48.13847224105374";"-1.667750586262734"
"Saint-Jouan-des-Guérets";"Mater";"ecole.0352148v@ac-rennes.fr";"35430";"Ecole maternelle publique Robert Lossois";"Ille-et-Vilaine";"19 Avenue De La Bréhaudais";"Public";"48.60109344470528";"-1.9773501925964512"
"Guichen";"Elem";"ec.0352153a@ac-rennes.fr";"35580";"Ecole primaire privée St Martin";"Ille-et-Vilaine";"15 Rue Du Commandant Charcot";"Privé";"47.96115968529154";"-1.8006806237483757"
"Rennes";"Elem";"ecole.0352158f@ac-rennes.fr";"35000";"Ecole élémentaire publique Jean Rostand";"Ille-et-Vilaine";"64 Rue Doyens A. Et P. Bouzat";"Public";"48.128867280382416";"-1.6351601910288138"
"Chantepie";"Mater";"ecole.0352159g@ac-rennes.fr";"35135";"Ecole maternelle publique les Deux Ruisseaux";"Ille-et-Vilaine";"Avenue Des Méliettes";"Public";"48.084780623375174";"-1.6181900865337535"
"Luitré-Dompierre";"Elem";"ec.0352195w@ac-rennes.fr";"35133";"Ecole primaire privée St Joseph";"Ille-et-Vilaine";"2 Impasse Pierre Nicolas, Luitre";"Privé";"48.28296020110296";"-1.119130680426344"
"Rennes";"Elem";"ecole.0352207j@ac-rennes.fr";"35000";"Ecole élémentaire publique Jean Moulin";"Ille-et-Vilaine";"8 Rue De Bourgogne";"Public";"48.118394976949375";"-1.7060396033765437"
"Rennes";"Elem";"ecole.0352209l@ac-rennes.fr";"35700";"Ecole primaire publique Trégain";"Ille-et-Vilaine";"13 Rue De Tregain";"Public";"48.12601114161598";"-1.6612405816934113"
"Saint-Père-Marc-en-Poulet";"Elem";"ec.0352240v@ac-rennes.fr";"35430";"Ecole primaire privée hors-contrat Ste Marie";"Ille-et-Vilaine";"Lieu-Dit Le Bois Martin";"Privé";"48.587406365253656";"-1.911757670157473"
"Rennes";"Elem";"ecole.0352258p@ac-rennes.fr";"35200";"Ecole élémentaire publique Volga";"Ille-et-Vilaine";"3 Rue De La Volga";"Public";"48.0852503300003";"-1.6520001875461812"
"Rennes";"Elem";"ecole.0352271d@ac-rennes.fr";"35000";"Ecole élémentaire publique Guyenne";"Ille-et-Vilaine";"23 Avenue De Guyenne";"Public";"48.12073722849306";"-1.717840044527648"
"Rennes";"Mater";"ecole.0352272e@ac-rennes.fr";"35700";"Ecole maternelle publique Jean Rostand";"Ille-et-Vilaine";"60 Rue Doyens A. Et P. Bouzat";"Public";"48.12825896760643";"-1.6362795249345374"
"Saint-Malo";"Elem";"ec.0352293c@ac-rennes.fr";"35400";"Ecole primaire privée Ste Croix Ste Agnès";"Ille-et-Vilaine";"8 Bd Gouazon";"Privé";"48.63597488787002";"-2.015179827673439"
"Saint-Malo";"Elem";"ecole.0352311x@ac-rennes.fr";"35400";"Ecole primaire publique Pierre Jakez Hélias";"Ille-et-Vilaine";"11 Rue Claude Monet";"Public";"48.61464237924275";"-1.9559495418940418"
"Mesnil-Roc'h";"Elem";"ecole.0352321h@ac-rennes.fr";"35720";"Ecole primaire publique Fanny Dufeil";"Ille-et-Vilaine";"9 Rue Du Général De Gaulle, Saint-Pierre-De-Plesguen";"Public";"48.445838620345825";"-1.9121197567982318"
"Redon";"Elem";"ec.0352343g@ac-rennes.fr";"35600";"Ecole primaire privée Notre Dame";"Ille-et-Vilaine";"1 Quai Surcouf, Bp 20113";"Privé";"47.64870194246502";"-2.0880294848562935"
"Bain-de-Bretagne";"Elem";"ec.0352359z@ac-rennes.fr";"35470";"Ecole primaire privée Ste Anne";"Ille-et-Vilaine";"6 Rue Du Docteur Haicault";"Privé";"47.839732863601704";"-1.6840104356853336"
"Cancale";"Elem";"ec.0352361b@ac-rennes.fr";"35260";"Ecole primaire privée Notre Dame du Verger";"Ille-et-Vilaine";"2 Rue Cocar";"Privé";"48.67672382033085";"-1.8489293120588544"
"Redon";"Elem";"ec.0352364e@ac-rennes.fr";"35602";"Ecole primaire privée St Michel";"Ille-et-Vilaine";"49 Rue Saint Michel, Bp 70216";"Privé";"47.65319791091992";"-2.078739442930192"
"Montauban-de-Bretagne";"Elem";"ec.0352366g@ac-rennes.fr";"35360";"Ecole primaire privée St Maurice la Providence";"Ille-et-Vilaine";"2 Rue De Dinan, Montauban-De-Bretagne";"Privé";"48.2023550281725";"-2.046398445308435"
"Noyal-sur-Vilaine";"Elem";"ec.0352368j@ac-rennes.fr";"35530";"Ecole primaire privée St Augustin";"Ille-et-Vilaine";"Rue Auguste Leroux";"Privé";"48.11564364974455";"-1.5268893937236365"
"Pacé";"Elem";"ec.0352377u@ac-rennes.fr";"35740";"Ecole primaire privée Ste Anne St Joseph";"Ille-et-Vilaine";"45 Avenue De Champalaune";"Privé";"48.15549882356141";"-1.766140409219832"
"La Chapelle-Thouarault";"Elem";"ecole.0352390h@ac-rennes.fr";"35590";"Ecole primaire publique Roger Beaulieu";"Ille-et-Vilaine";"1 Rue De La Chesnaie";"Public";"48.123487203602686";"-1.8670796972731483"
"Guignen";"Elem";"ecole.0352403x@ac-rennes.fr";"35580";"Ecole primaire publique Aimé Bailleul";"Ille-et-Vilaine";"6 Rue Des Vergers";"Public";"47.92260577584052";"-1.860602513458603"
"Dinard";"Elem";"ec.0352405z@ac-rennes.fr";"35800";"Ecole primaire privée Notre Dame de la Mer";"Ille-et-Vilaine";"1 Rue Des Français-Libres";"Privé";"48.62737088170413";"-2.056931379792297"
"Chavagne";"Elem";"ec.0352407b@ac-rennes.fr";"35310";"Ecole primaire privée Ste Anne";"Ille-et-Vilaine";"1 Rue Du Calvaire";"Privé";"48.051140871157756";"-1.7911799292940123"
"Vitré";"Elem";"ecole.0352434f@ac-rennes.fr";"35500";"Ecole primaire publique Jean Guéhenno";"Ille-et-Vilaine";"26 Avenue Le Gonidec De Traissan";"Public";"48.11430331703931";"-1.21451032373513"
"Martigné-Ferchaud";"Elem";"ec.0352442p@ac-rennes.fr";"35640";"Ecole primaire privée St Jean Baptiste de la Salle";"Ille-et-Vilaine";"5 Avenue Du Maréchal Foch";"Privé";"47.82917627890452";"-1.3153905232221195"
"Combourg";"Elem";"ec.0352443r@ac-rennes.fr";"35270";"Ecole primaire privée Ste Anne";"Ille-et-Vilaine";"8 Rue De Linon";"Privé";"48.40933731173381";"-1.748680613052006"
"Vitré";"Elem";"ecole.0352515u@ac-rennes.fr";"35500";"Ecole primaire publique le Château";"Ille-et-Vilaine";"Place Du Château";"Public";"48.124550781416275";"-1.2140601582334083"
"Fougères";"Elem";"ecole.0352519y@ac-rennes.fr";"35300";"Ecole primaire publique la Forairie";"Ille-et-Vilaine";"2 Rue Lemoine De La Giraudais";"Public";"48.36523579912711";"-1.188710280604682"
"Treffendel";"Elem";"ecole.0352535r@ac-rennes.fr";"35380";"Ecole primaire publique Aurelie Nemours";"Ille-et-Vilaine";"5 Rue Du Bignon";"Public";"48.03969047027757";"-2.003810371913977"
"Rennes";"Elem";"ecole.0352559s@ac-rennes.fr";"35000";"Ecole primaire publique Sonia Delaunay";"Ille-et-Vilaine";"6 Rue Marie Dorval";"Public";"48.13024009203078";"-1.7006602615000306"
"Rennes";"Elem";"ecole.0352669l@ac-rennes.fr";"35000";"Ecole élémentaire publique Pascal Lafaye";"Ille-et-Vilaine";"13 Boulevard Du Portugal";"Public";"48.084553432209965";"-1.6702596189076204"
"Bruz";"Elem";"ecole.0352674s@ac-rennes.fr";"35170";"Ecole primaire publique Le Vert Buisson";"Ille-et-Vilaine";"Mail De L'Ile Aux Moines";"Public";"48.03020338053695";"-1.7562504046967906"
"Saint-Thual";"Elem";"ecole.0352683b@ac-rennes.fr";"35190";"Ecole primaire publique St Thual La Baussaine";"Ille-et-Vilaine";"10 Rue De Tourdelin";"Public";"48.33620161136368";"-1.9338699074753367"
"Laignelet";"Elem";"ecole.0352718p@ac-rennes.fr";"35133";"Ecole primaire publique les Trois Chênes";"Ille-et-Vilaine";"Avenue De Bretagne";"Public";"48.370447222335535";"-1.1600294012174095"
"Saint-Ganton";"Elem";"ecole.0352844b@ac-rennes.fr";"35550";"Ecole des Colibris de Saint-Ganton";"Ille-et-Vilaine";"2 Rue Des Ecoles";"Public";"47.75472473879591";"-1.8829098855970048"
"Pleurtuit";"Elem";"ec.0352941g@ac-rennes.fr";"35730";"Ecole primaire privée hors-contrat KER ANNA ET JOACHIM";"Ille-et-Vilaine";"87 Rue De Dinan";"Privé";"48.57292764236771";"-2.058916531086457"
"Noyal-Châtillon-sur-Seiche";"Elem";"ecole.0352975u@ac-rennes.fr";"35230";"Ecole primaire publique Le Petit Prince";"Ille-et-Vilaine";"5 Place Antoine De Saint-Exupéry";"Public";"48.03258416863602";"-1.662070851472319"
"Rennes";"Elem";"ce.0353103h@ac-rennes.fr";"35000";"ASH Dispositif Répit Scolaire";"Ille-et-Vilaine";"Avenue Jules Maniez";"Public";"48.09865690798396";"-1.6978447307684164"
"Bourgbarré";"Elem";"ce.0353144c@ac-rennes.fr";"35230";"Ecole primaire publique Berthe Thelliez";"Ille-et-Vilaine";"12 Rue De La Grée";"Public";"47.99002619544674";"-1.6195574208759742"
"Cancale";"Elem";"ce.0353147f@ac-rennes.fr";"35260";"Centre de classe de mer Hériot - Cancale";"Ille-et-Vilaine";"Barbe Brûlée";"Public";"48.7036006469912";"-1.8466254506049535"
"Bourg-des-Comptes";"Elem";"ecole.0350148w@ac-rennes.fr";"35890";"Ecole primaire publique les Rondines";"Ille-et-Vilaine";"20 A Rue De La Courbe";"Public";"47.927722016896375";"-1.7426505041356246"
"Clayes";"Elem";"ecole.0350197z@ac-rennes.fr";"35590";"Ecole primaire publique de Clayes";"Ille-et-Vilaine";"8 Rue De L'Etang";"Public";"48.17597937091373";"-1.853709423450173"
"Dinard";"Mater";"ecole.0350218x@ac-rennes.fr";"35800";"Ecole maternelle publique Jules Verne";"Ille-et-Vilaine";"7 Rue St J Baptiste De La Salle";"Public";"48.62880527995902";"-2.0568593897236687"
"Ercé-en-Lamée";"Elem";"ecole.0350233n@ac-rennes.fr";"35620";"Ecole primaire publique Jules Verne";"Ille-et-Vilaine";"1 Rue Des Pervenches";"Public";"47.82944725612536";"-1.5607706755638888"
"Fougères";"Mater";"ecole.0350255m@ac-rennes.fr";"35300";"Ecole maternelle publique la Madeleine";"Ille-et-Vilaine";"2 Boulevard Edmond Roussin";"Public";"48.34642532689295";"-1.2020604238502615"
"Langon";"Elem";"ecole.0350305s@ac-rennes.fr";"35660";"Ecole primaire publique Léo Ferré";"Ille-et-Vilaine";"10 Grande Rue";"Public";"47.72046995159583";"-1.8485803739064344"
"Lassy";"Elem";"ecole.0350310x@ac-rennes.fr";"35580";"Ecole primaire publique Camille Claudel";"Ille-et-Vilaine";"7 Rue De La Mairie";"Public";"47.978978115123795";"-1.8727103951958979"
"Le Minihic-sur-Rance";"Elem";"ecole.0350351s@ac-rennes.fr";"35870";"Ecole primaire publique du Minihic sur Rance";"Ille-et-Vilaine";"1 Rue Du Général De Gaulle";"Public";"48.57475285631934";"-2.0145796087706094"
"Pléchâtel";"Elem";"ecole.0350401w@ac-rennes.fr";"35470";"Ecole primaire publique Henri Dès";"Ille-et-Vilaine";"2 Impasse Henri Dès";"Public";"47.893834864794464";"-1.7483798847752594"
"Poligné";"Elem";"ecole.0350417n@ac-rennes.fr";"35320";"Ecole primaire publique les Asphodèles";"Ille-et-Vilaine";"45 Rue Des Fontaines";"Public";"47.8884840967519";"-1.6846503210779231"
"Romazy";"Elem";"ecole.0350435h@ac-rennes.fr";"35490";"Ecole primaire publique Victor Chapellière";"Ille-et-Vilaine";"10 Rue Anne Rene Thebault";"Public";"48.37643713020697";"-1.4977096501688207"
"Sains";"Elem";"ecole.0350443s@ac-rennes.fr";"35610";"Ecole élémentaire publique Beau Soleil";"Ille-et-Vilaine";"1 Rue Beau Soleil";"Public";"48.55266291084464";"-1.586720534198193"
"Saint-Hilaire-des-Landes";"Elem";"ecole.0350485m@ac-rennes.fr";"35140";"Ecole primaire publique Louis Malassis";"Ille-et-Vilaine";"7 Rue Belle Aire";"Public";"48.35118290022471";"-1.3584293864411887"
"Saint-Malo";"Elem";"ecole.0350508m@ac-rennes.fr";"35400";"Ecole primaire publique Daniel Gelin - Rocabey";"Ille-et-Vilaine";"28 Boulevard Villebois Mareuil";"Public";"48.650530406303055";"-2.0036300323196987"
"Saint-Méloir-des-Ondes";"Elem";"ecole.0350527h@ac-rennes.fr";"35350";"Ecole primaire publique de St Méloir des Ondes";"Ille-et-Vilaine";"14 Rue De La Vallée Verte";"Public";"48.6357933778456";"-1.9029395470808093"
"Montauban-de-Bretagne";"Elem";"ecole.0350529k@ac-rennes.fr";"35360";"Ecole primaire publique Les Hirondelles";"Ille-et-Vilaine";"7 Bis Route De Médréac, Saint-M'Hervon";"Public";"48.22912443063634";"-2.058860543673364"
"Saint-Malo";"Mater";"ecole.0350546d@ac-rennes.fr";"35400";"Ecole maternelle publique le Trianon";"Ille-et-Vilaine";"34 Rue De La Nation";"Public";"48.63231265127166";"-2.0094300972482837"
"Saint-Malo";"Elem";"ecole.0350550h@ac-rennes.fr";"35400";"Ecole primaire publique la Gentillerie";"Ille-et-Vilaine";"123 Boulevard Du Rosais";"Public";"48.628909751352275";"-2.007749734041672"
"Saint-Sulpice-la-Forêt";"Elem";"ecole.0350552k@ac-rennes.fr";"35250";"Ecole primaire publique Niki de Saint Phalle";"Ille-et-Vilaine";"5 Route De Saint-Denis";"Public";"48.21775934742233";"-1.5789402178605483"
"Saint-Uniac";"Elem";"ecole.0350558s@ac-rennes.fr";"35360";"Ecole primaire publique du Moulin";"Ille-et-Vilaine";"Rue Saint Eloi";"Public";"48.17374721253679";"-2.0294695429868876"
"Mesnil-Roc'h";"Elem";"ecole.0350588z@ac-rennes.fr";"35720";"Ecole primaire publique de Tressé";"Ille-et-Vilaine";"Bourg, Le Bourg";"Public";"48.48151407870555";"-1.8859406214212273"
"Rennes";"Elem";"ecole.0350596h@ac-rennes.fr";"35200";"Ecole élémentaire publique Oscar Leroux";"Ille-et-Vilaine";"3 Boulevard Gaëtan Hervé";"Public";"48.09054668414536";"-1.6710194082422296"
"Rennes";"Elem";"ecole.0350607v@ac-rennes.fr";"35000";"Ecole primaire publique Mauconseil";"Ille-et-Vilaine";"7 Rue De La Courrouze";"Public";"48.09811598787128";"-1.6905203572372436"
"Rennes";"Elem";"ecole.0350639e@ac-rennes.fr";"35000";"Ecole élémentaire publique Villeneuve";"Ille-et-Vilaine";"38 Rue Ginguene";"Public";"48.09882164414123";"-1.682099564671616"
"Rennes";"Mater";"ecole.0350646m@ac-rennes.fr";"35000";"Ecole maternelle publique Châteaugiron-Landry";"Ille-et-Vilaine";"111 Bis Rue De Chateaugiron";"Public";"48.09977063274475";"-1.6459903817592754"
"Rennes";"Mater";"ecole.0350649r@ac-rennes.fr";"35000";"Ecole maternelle publique Joseph Lotte";"Ille-et-Vilaine";"1 Rue Joseph Lotte";"Public";"48.12384367151368";"-1.686629870884517"
"Rennes";"Mater";"ecole.0350656y@ac-rennes.fr";"35000";"Ecole maternelle publique Duchesse Anne";"Ille-et-Vilaine";"30 Rue De Paris";"Public";"48.112250172931056";"-1.6676595686793332"
"Rennes";"Mater";"ecole.0350657z@ac-rennes.fr";"35200";"Ecole maternelle publique Poterie";"Ille-et-Vilaine";"167 Rue De Vern";"Public";"48.09234025286177";"-1.645899474602671"
"Rennes";"Mater";"ecole.0350665h@ac-rennes.fr";"35200";"Ecole maternelle publique Clôteaux";"Ille-et-Vilaine";"56 Avenue De Brequigny";"Public";"48.08441622593588";"-1.6924996219763626"
"Rennes";"Mater";"ecole.0350667k@ac-rennes.fr";"35000";"Ecole maternelle publique Jean Moulin";"Ille-et-Vilaine";"5 Rue Jean Moulin";"Public";"48.11869587570048";"-1.706089303382678"
"Vitré";"Elem";"ecole.0350683c@ac-rennes.fr";"35500";"Ecole primaire publique Pierre Lemaître";"Ille-et-Vilaine";"5 Rue Du 70E Régt D'Infanterie";"Public";"48.122059333394446";"-1.209720175304806"
"Le Vivier-sur-Mer";"Elem";"ecole.0350687g@ac-rennes.fr";"35960";"Ecole primaire publique Francis Chevalier";"Ille-et-Vilaine";"2 Rue De La Mairie";"Public";"48.60295340433197";"-1.7739393788539115"
"Fougères";"Elem";"ecole.0350948r@ac-rennes.fr";"35300";"Ecole primaire publique les Bleuets";"Ille-et-Vilaine";"41 Avenue De Normandie";"Public";"48.363347476575896";"-1.186619689230718"
"Rennes";"Mater";"ecole.0350950t@ac-rennes.fr";"35000";"Ecole maternelle publique Jean Zay";"Ille-et-Vilaine";"3 D Place Saint Melaine";"Public";"48.115288767086284";"-1.672390522481019"
"Cancale";"Elem";"ecole.0351013l@ac-rennes.fr";"35260";"Ecole élémentaire publique les Terre-Neuvas";"Ille-et-Vilaine";"49 Rue Du Port";"Public";"48.67392019882104";"-1.8522503657192049"
"Montfort-sur-Meu";"Elem";"ecole.0351020u@ac-rennes.fr";"35160";"Ecole élémentaire publique le Pays Pourpré";"Ille-et-Vilaine";"23 Rue De Gaël";"Public";"48.13796945571016";"-1.9604701280669898"
"Mordelles";"Mater";"ecole.0351021v@ac-rennes.fr";"35310";"Ecole maternelle publique la Chesnaye";"Ille-et-Vilaine";"Place Pierre De Coubertin";"Public";"48.07565835183377";"-1.848120098058643"
"Saint-Benoît-des-Ondes";"Elem";"ecole.0351027b@ac-rennes.fr";"35114";"Ecole primaire publique de St Benoît des Ondes";"Ille-et-Vilaine";"53 Rue Du Bord De Mer";"Public";"48.62115433880785";"-1.8541200595776075"
"Landujan";"Elem";"ec.0351068w@ac-rennes.fr";"35360";"Ecole primaire privée Ste Jeanne Jugan";"Ille-et-Vilaine";"3 Bis Rue De Médréac";"Privé";"48.25178672190709";"-1.9963082974022908"
"Lécousse";"Elem";"ec.0351072a@ac-rennes.fr";"35133";"Ecole primaire privée Notre Dame";"Ille-et-Vilaine";"21 Rue De La Butte";"Privé";"48.36449492979736";"-1.2192400790031144"
"Lieuron";"Elem";"ec.0351073b@ac-rennes.fr";"35550";"Ecole primaire privée St Melaine";"Ille-et-Vilaine";"5 Rue La Fontaine";"Privé";"47.85233068436512";"-1.9416095656708667"
"Liffré";"Elem";"ec.0351075d@ac-rennes.fr";"35340";"Ecole primaire privée Ste Catherine St Joseph";"Ille-et-Vilaine";"6 Rue Des Ecoles";"Privé";"48.21337385988742";"-1.5070105059606773"
"Val d'Anast";"Elem";"ec.0351095a@ac-rennes.fr";"35330";"Ecole primaire privée Ste Marie";"Ille-et-Vilaine";"44 Rue De Guer, Maure-De-Bretagne";"Privé";"47.89328497242365";"-1.9929798676934964"
"Les Portes du Coglais";"Elem";"ec.0351129m@ac-rennes.fr";"35460";"Ecole primaire privée le Sacré Coeur";"Ille-et-Vilaine";"18 Rue Du Sacré Coeur, Montours";"Privé";"48.443225931057285";"-1.306340400287468"
"Montreuil-le-Gast";"Elem";"ec.0351131p@ac-rennes.fr";"35520";"Ecole primaire privée Notre Dame";"Ille-et-Vilaine";"12 Bis Rue Des Genêts";"Privé";"48.24783902030782";"-1.7280180354895365"
"Montreuil-sous-Pérouse";"Elem";"ec.0351132r@ac-rennes.fr";"35500";"Ecole primaire privée le Sacré Coeur";"Ille-et-Vilaine";"10 Rue Claire Fontaine";"Privé";"48.151152090195936";"-1.2366993317347965"
"Orgères";"Elem";"ec.0351151l@ac-rennes.fr";"35230";"Ecole primaire privée le Sacré Coeur";"Ille-et-Vilaine";"4 Rue Du Coteau";"Privé";"47.99675015322185";"-1.6703005468616852"
"Val-Couesnon";"Elem";"ec.0351159v@ac-rennes.fr";"35560";"Ecole primaire privée Ste Anne";"Ille-et-Vilaine";"21 Rue Hubert Leray, Antrain";"Privé";"48.459208361592395";"-1.4851303018153619"
"Boistrudan";"Elem";"ec.0351192f@ac-rennes.fr";"35150";"Ecole primaire privée Ste Thérèse";"Ille-et-Vilaine";"13 Rue François Marie Leroux";"Privé";"47.96962690081361";"-1.400969432575057"
"La Bouëxière";"Elem";"ec.0351195j@ac-rennes.fr";"35340";"Ecole primaire privée St Joseph";"Ille-et-Vilaine";"Allée Henri Queffélec";"Privé";"48.184513804499254";"-1.4408106411653003"
"Bréal-sous-Vitré";"Elem";"ec.0351204u@ac-rennes.fr";"35370";"Ecole primaire privée Ste Anne";"Ille-et-Vilaine";"2 Rue De La Tour";"Privé";"48.10325772471454";"-1.0606698516347894"
"Breteil";"Elem";"ec.0351205v@ac-rennes.fr";"35160";"Ecole primaire privée Notre Dame";"Ille-et-Vilaine";"4 Rue Des Chauffaux";"Privé";"48.14616884850401";"-1.8988298639513683"
"Bruz";"Elem";"ec.0351213d@ac-rennes.fr";"35170";"Ecole primaire privée Sainte-Rose de Lima";"Ille-et-Vilaine";"4 Rue De Gavrinis";"Privé";"48.03043964414498";"-1.7589893343884788"
"Châtillon-en-Vendelais";"Elem";"ec.0351244m@ac-rennes.fr";"35210";"Ecole primaire privée Ste Jeanne d'Arc";"Ille-et-Vilaine";"8 Rue De Rochary";"Privé";"48.22478687083247";"-1.1773296235983173"
"Combourtillé";"Elem";"ec.0351263h@ac-rennes.fr";"35210";"Ecole élémentaire privée le Sacré Coeur";"Ille-et-Vilaine";"1 Rue De La Messayais";"Privé";"48.2697540774761";"-1.2470200239837612"
"Corps-Nuds";"Elem";"ec.0351267m@ac-rennes.fr";"35150";"Ecole primaire privée St Joseph";"Ille-et-Vilaine";"1 Impasse Du Presbytere";"Privé";"47.97729336176918";"-1.587899564507824"
"Dol-de-Bretagne";"Elem";"ec.0351276x@ac-rennes.fr";"35120";"Ecole primaire privée Notre Dame";"Ille-et-Vilaine";"4 Chemin De La Belle Etoile";"Privé";"48.54873627046464";"-1.7360305444299398"
"La Dominelais";"Elem";"ec.0351283e@ac-rennes.fr";"35390";"Ecole primaire privée Ste Anne";"Ille-et-Vilaine";"14 Rue Des Pommiers Fleuris";"Privé";"47.763610945081446";"-1.68687991381424"
"Ercé-en-Lamée";"Elem";"ec.0351296u@ac-rennes.fr";"35620";"Ecole primaire privée St François";"Ille-et-Vilaine";"18 Rue Des Pervenches";"Privé";"47.829679312522536";"-1.562589932843107"
"Guignen";"Elem";"ec.0351343v@ac-rennes.fr";"35580";"Ecole primaire privée Saint Joseph";"Ille-et-Vilaine";"9 Rue Des Vergers";"Privé";"47.92030528750613";"-1.8564305015496667"
"Hédé-Bazouges";"Elem";"ec.0351347z@ac-rennes.fr";"35630";"Ecole primaire privée La Colombe de Noé";"Ille-et-Vilaine";"11 Rue Du Beau Manoir";"Privé";"48.29676680349431";"-1.8017994698856417"
"Saint-Christophe-des-Bois";"Elem";"ec.0351353f@ac-rennes.fr";"35210";"Ecole primaire privée St Joseph";"Ille-et-Vilaine";"17 Rue De L'Eglise";"Privé";"48.226043325651496";"-1.2525805504285406"
"Saint-Germain-en-Coglès";"Elem";"ec.0351368x@ac-rennes.fr";"35133";"Ecole primaire privée St Jacques de Compostelle";"Ille-et-Vilaine";"1 Rue De Villeneuve";"Privé";"48.40712269333864";"-1.264990614485898"
"Saint-Gilles";"Elem";"ec.0351369y@ac-rennes.fr";"35590";"Ecole primaire privée le Sacré Coeur";"Ille-et-Vilaine";"13 Rue De La Prouverie";"Privé";"48.1530062392366";"-1.826329869139562"
"Saint-Malo";"Elem";"ec.0351389v@ac-rennes.fr";"35400";"Ecole primaire privée Notre Dame Auxiliatrice";"Ille-et-Vilaine";"40 Avenue De Moka";"Privé";"48.64964487740281";"-2.0033194354463317"
"Saint-Malo";"Elem";"ec.0351394a@ac-rennes.fr";"35400";"Ecole primaire privée Montjoie";"Ille-et-Vilaine";"81 Rue De Riancourt";"Privé";"48.63404173493536";"-1.9984493822213762"
"La Selle-en-Luitré";"Elem";"ec.0351430p@ac-rennes.fr";"35133";"Ecole primaire privée St Jean-Baptiste";"Ille-et-Vilaine";"28Le Bourg";"Privé";"48.311767375530174";"-1.1268825459454013"
"Sens-de-Bretagne";"Elem";"ec.0351431r@ac-rennes.fr";"35490";"Ecole primaire privée St Jean Bosco";"Ille-et-Vilaine";"5 Rue Des Clouyères";"Privé";"48.334291216414684";"-1.5345793916593755"
"Thorigné-Fouillard";"Elem";"ec.0351443d@ac-rennes.fr";"35235";"Ecole primaire privée Ste Anne";"Ille-et-Vilaine";"7 Rue De La Mare Pavée";"Privé";"48.15450374958692";"-1.5791593709045144"
"Parcé";"Elem";"ec.0351454r@ac-rennes.fr";"35210";"Ecole primaire privée St Gilles";"Ille-et-Vilaine";"Rue De Kortenberg";"Privé";"48.27200716857877";"-1.2010298899950065"
"Le Pertre";"Elem";"ec.0351458v@ac-rennes.fr";"35370";"Ecole primaire privée  St Sébastien";"Ille-et-Vilaine";"1 Rue Du Parc";"Privé";"48.036279070915306";"-1.039000016253962"
"Pipriac";"Elem";"ec.0351459w@ac-rennes.fr";"35550";"Ecole primaire privée la Providence";"Ille-et-Vilaine";"2 Rue Du Docteur Le Rouzic";"Privé";"47.80733002487018";"-1.9429694902500638"
"Poilley";"Elem";"ec.0351479t@ac-rennes.fr";"35420";"Ecole primaire privée St Joseph";"Ille-et-Vilaine";"36 Rue Du Mont Saint-Michel";"Privé";"48.465899829557";"-1.26320940505543"
"Rennes";"Elem";"ec.0351515g@ac-rennes.fr";"35700";"Ecole primaire privée St Laurent";"Ille-et-Vilaine";"9 Rue Franz Heller";"Privé";"48.12926706549791";"-1.6648605419348335"
"Saint-Aubin-d'Aubigné";"Elem";"ec.0351541k@ac-rennes.fr";"35250";"Ecole primaire privée Notre Dame de Bon Secours";"Ille-et-Vilaine";"8 Rue Des Ecoles";"Privé";"48.26212073974255";"-1.609520499573705"
"Le Verger";"Elem";"ec.0351558d@ac-rennes.fr";"35160";"Ecole primaire privée Ste Bernadette";"Ille-et-Vilaine";"1 Route De St Thurial";"Privé";"48.06899510906876";"-1.9312501497204657"
"Vitré";"Elem";"ec.0351566m@ac-rennes.fr";"35500";"Ecole primaire privée Notre Dame";"Ille-et-Vilaine";"2 Place Jean Rozé";"Privé";"48.12476165423511";"-1.2154202217695225"
"Vitré";"Elem";"ec.0351569r@ac-rennes.fr";"35501";"Ecole élémentaire privée Ste Marie";"Ille-et-Vilaine";"2 Rue De La Meriais, Bp 90130";"Privé";"48.121846766866355";"-1.2118606355630284"
"Vitré";"Elem";"ec.0351570s@ac-rennes.fr";"35500";"Ecole élémentaire privée Ste Jeanne d'Arc";"Ille-et-Vilaine";"13 Place De La République";"Privé";"48.12515533391021";"-1.2089198046941414"
"Saint-Marcan";"Mater";"ecole.0351608h@ac-rennes.fr";"35120";"Ecole maternelle publique de St Marcan";"Ille-et-Vilaine";"4 Bourg";"Public";"48.58747065433963";"-1.634820323951024"
"Saint-Médard-sur-Ille";"Elem";"ecole.0351610k@ac-rennes.fr";"35250";"Ecole primaire publique de St Médard sur Ille";"Ille-et-Vilaine";"15 Rue Des Ecoles";"Public";"48.27318239311236";"-1.6585303040183914"
"Teillay";"Elem";"ecole.0351615r@ac-rennes.fr";"35620";"Ecole primaire publique Maxime Le Forestier";"Ille-et-Vilaine";"Placis De Bussy Chardonney";"Public";"47.80660694878134";"-1.5398600586147004"
"Le Theil-de-Bretagne";"Elem";"ecole.0351616s@ac-rennes.fr";"35240";"Ecole primaire publique du Theil de Bretagne";"Ille-et-Vilaine";"2 Boulevard De La Gare";"Public";"47.920345890785434";"-1.431559514106094"
"Vignoc";"Elem";"ecole.0351620w@ac-rennes.fr";"35630";"Ecole élémentare publique Simone Veil";"Ille-et-Vilaine";"18 Rue Des Ecoles";"Public";"48.2487052471503";"-1.7857704676061708"
"Châteaubourg";"Elem";"ecole.0351644x@ac-rennes.fr";"35220";"Ecole primaire publique Charles de Gaulle";"Ille-et-Vilaine";"7 Place Du Général De Gaulle";"Public";"48.11022016919113";"-1.4041604417271114"
"Le Crouais";"Elem";"ecole.0351648b@ac-rennes.fr";"35290";"Ecole primaire publique Les Petits Cailloux";"Ille-et-Vilaine";"3 Rue Du Garun";"Public";"48.20763595745382";"-2.1412198840110244"
"La Fresnais";"Elem";"ecole.0351654h@ac-rennes.fr";"35111";"Ecole primaire publique les Frênes";"Ille-et-Vilaine";"2 Impasse Du Pont Aux Prêtres";"Public";"48.59571745612712";"-1.844797913033209"
"Louvigné-de-Bais";"Elem";"ecole.0351662s@ac-rennes.fr";"35680";"Ecole primaire publique Charles Perrault";"Ille-et-Vilaine";"16 Rue Anne De Bretagne";"Public";"48.05192604509267";"-1.3253606346640718"
"Marcillé-Raoul";"Elem";"ecole.0351663t@ac-rennes.fr";"35560";"Ecole élémentaire publique de Marcillé Raoul";"Ille-et-Vilaine";"14 Rue Du Stade";"Public";"48.38554778775201";"-1.6060606340173451"
"Muel";"Elem";"ecole.0351670a@ac-rennes.fr";"35290";"Ecole primaire publique Les P'tits Pitaos";"Ille-et-Vilaine";"1 Rue De Trekoet";"Public";"48.12639387802136";"-2.159130595149312"
"Pleumeleuc";"Elem";"ecole.0351674e@ac-rennes.fr";"35137";"Ecole élémentaire publique le Petit Prince";"Ille-et-Vilaine";"17 Rue De Bédée";"Public";"48.18301825106514";"-1.923950484559426"
"Saint-Broladre";"Elem";"ecole.0351678j@ac-rennes.fr";"35120";"Ecole primaire publique le Vieux Chêne";"Ille-et-Vilaine";"Passage Du Vieux Chêne";"Public";"48.587010033248205";"-1.6565001924333587"
"Saint-Coulomb";"Elem";"ecole.0351679k@ac-rennes.fr";"35350";"Ecole primaire publique les Blés en Herbe";"Ille-et-Vilaine";"13 Rue Des Bas Chemins";"Public";"48.67633643716874";"-1.913889942876191"
"Broualan";"Elem";"ecole.0351687u@ac-rennes.fr";"35120";"Ecole élémentaire publique de Broualan";"Ille-et-Vilaine";"6 Rue De L'Ecole";"Public";"48.47203311968965";"-1.6507797879594992"
"Chantepie";"Elem";"ec.0351699g@ac-rennes.fr";"35135";"Ecole primaire privée St Joseph";"Ille-et-Vilaine";"10 Rue Du Parc";"Privé";"48.08789580355171";"-1.6154796297997855"
"Brielles";"Elem";"ec.0351729p@ac-rennes.fr";"35370";"Ecole primaire privée Ste Jeanne d'Arc";"Ille-et-Vilaine";"12 Rue De Bretagne";"Privé";"48.00953720782338";"-1.0915299174421795"
"Trégunc";"Elem";"ec.0290370v@ac-rennes.fr";"29910";"Ecole primaire publique Marc Bourhis";"Finistère";"10 Rue De La Gare";"Public";"47.85583519330342";"-3.848339845841464"
"Moëlan-sur-Mer";"Elem";"ec.0290387n@ac-rennes.fr";"29350";"Ecole primaire publique Kermoulin";"Finistère";"Hameau De Saint-Thamec";"Public";"47.78262238856186";"-3.6278603775958835"
"Quimper";"Elem";"ec.0290414t@ac-rennes.fr";"29000";"Ecole primaire publique Léon Goraguer";"Finistère";"47 Rue Du Moulin Vert";"Public";"48.006006945676084";"-4.117610038843338"
"Plogonnec";"Elem";"ec.0290441x@ac-rennes.fr";"29180";"Ecole primaire publique Jean-Marie Autret";"Finistère";"8 Rue Hent Ar Menez";"Public";"48.07772589835491";"-4.122170198717173"
"Querrien";"Elem";"ec.0290456n@ac-rennes.fr";"29310";"Ecole primaire publique de Querrien";"Finistère";"29 Rue De Quimperlé";"Public";"47.95789576041237";"-3.533990351169142"
"Quimperlé";"Elem";"ec.0290461u@ac-rennes.fr";"29300";"Ecole élémentaire publique Le Lézardeau";"Finistère";"46 Rue Du Lézardeau";"Public";"47.880820244438176";"-3.54965029291908"
"Guilligomarc'h";"Elem";"ec.0290466z@ac-rennes.fr";"29300";"Ecole primaire publique de la Fontaine";"Finistère";"6 Rue De La Fontaine";"Public";"47.936136189352496";"-3.4169005737997424"
"Saint-Martin-des-Champs";"Mater";"ec.0290525n@ac-rennes.fr";"29600";"Ecole maternelle publique Le Gouelou";"Finistère";"Rue Jean Pierre Calloc'H";"Public";"48.581267239145674";"-3.8475106275096955"
"Bannalec";"Mater";"ec.0290530u@ac-rennes.fr";"29380";"Ecole maternelle publique de Bannalec";"Finistère";"2 Rue Glenmor";"Public";"47.93042327372581";"-3.694070658784872"
"Plonéour-Lanvern";"Mater";"ec.0290553u@ac-rennes.fr";"29720";"Ecole maternelle publique Nicole et Félix Le Garrec";"Finistère";"4 Place Charles De Gaulle";"Public";"47.90334923585878";"-4.285145031512882"
"Scaër";"Mater";"ec.0290576u@ac-rennes.fr";"29390";"Ecole maternelle publique Joliot-Curie";"Finistère";"35 Rue Pierre Curie";"Public";"48.02824068723071";"-3.7085198702886375"
"Spézet";"Elem";"ec.0290604z@ac-rennes.fr";"29540";"Ecole primaire publique de Spézet";"Finistère";"6 Rue Des Ecoles";"Public";"48.19441066887625";"-3.715209659573787"
"Châteaulin";"Elem";"ec.0290623v@ac-rennes.fr";"29150";"Ecole élémentaire publique Marie Curie";"Finistère";"Rue Raoul Anthony";"Public";"48.19701092988707";"-4.088320517296114"
"Crozon";"Elem";"ec.0290642r@ac-rennes.fr";"29160";"Ecole primaire publique Jean Jaurès";"Finistère";"69 Rue Alsace Lorraine";"Public";"48.24532426713808";"-4.494830105937281"
"La Forêt-Fouesnant";"Elem";"ec.0290688r@ac-rennes.fr";"29940";"Ecole primaire publique l'Encre Marine";"Finistère";"Route De Garen Seach";"Public";"47.90930312630002";"-3.9825805869612796"
"Treffiagat";"Elem";"ec.0290730l@ac-rennes.fr";"29730";"Ecole primaire publique Léchiagat";"Finistère";"4 Rue Des Ecoles";"Public";"47.796968881261286";"-4.271760411952217"
"Rosporden";"Elem";"ec.0290737u@ac-rennes.fr";"29140";"Ecole élémentaire publique Kernével";"Finistère";"4 Place De La Mairie";"Public";"47.958388098980855";"-3.779439759586952"
"Rosporden";"Mater";"ec.0290738v@ac-rennes.fr";"29140";"Ecole maternelle publique Kernével";"Finistère";"4 Place De La Mairie";"Public";"47.95873987426199";"-3.779729581195786"
"Pouldreuzic";"Elem";"ec.0290782t@ac-rennes.fr";"29710";"Ecole primaire publique intercommunale Pierre Jakez Hélias";"Finistère";"Place Corentin Hénaff";"Public";"47.954094327522355";"-4.36088010253347"
"Saint-Pabu";"Elem";"ec.0290833y@ac-rennes.fr";"29830";"Ecole primaire publique de l'Aber Benoît";"Finistère";"2 Rue Roz Avel";"Public";"48.56620188477132";"-4.602619534294094"
"Plougonvelin";"Elem";"ec.0290852u@ac-rennes.fr";"29217";"Ecole primaire publique Roz Avel";"Finistère";"1 Rue De Mezou Vilin";"Public";"48.34187237589531";"-4.719900198455342"
"Lanrivoaré";"Elem";"ec.0290859b@ac-rennes.fr";"29290";"Ecole primaire publique Pierre Mac Orlan";"Finistère";"5 Rue De L'Ecole";"Public";"48.472787034709654";"-4.638199545241431"
"Brest";"Elem";"ec.0290869m@ac-rennes.fr";"29200";"Ecole primaire publique Petit Paris";"Finistère";"6 Rue D'Audierne";"Public";"48.40375190123067";"-4.462690236378284"
"Gouesnou";"Elem";"ec.0290875u@ac-rennes.fr";"29850";"Ecole primaire publique Isabelle Autissier";"Finistère";"14  Rue De La Gare";"Public";"48.45235762077959";"-4.465516563916103"
"Kerlouan";"Elem";"ec.0291048g@ac-rennes.fr";"29890";"Ecole primaire publique intercommunale Kerlouan-Guissény";"Finistère";"Hameau Du Tréas";"Public";"48.648594997864976";"-4.403020628500243"
"Saint-Pol-de-Léon";"Elem";"ec.0291078p@ac-rennes.fr";"29250";"Ecole primaire publique Jean Jaurès";"Finistère";"82 Rue Des Carmes";"Public";"48.68250845024926";"-3.994439609368337"
"Santec";"Elem";"ec.0291080s@ac-rennes.fr";"29250";"Ecole primaire publique Tanguy Prigent";"Finistère";"106 Rue De Kerabret";"Public";"48.70442003283567";"-4.026309515747632"
"Guilers";"Mater";"ec.0291112b@ac-rennes.fr";"29820";"Ecole maternelle publique Chateaubriand";"Finistère";"1 Rue Alexandre Le Monnier";"Public";"48.42299125768554";"-4.558189583177647"
"Rédené";"Elem";"ec.0291119j@ac-rennes.fr";"29300";"Ecole primaire publique du Marronnier";"Finistère";"8 Rue Du Croeziou";"Public";"47.858061790450755";"-3.462260082989622"
"Carhaix-Plouguer";"Mater";"ec.0291138e@ac-rennes.fr";"29270";"Ecole maternelle publique Huella";"Finistère";"3 Rue Louis Pasteur";"Public";"48.27623618559089";"-3.5700199929393786"
"Quimper";"Mater";"ec.0291142j@ac-rennes.fr";"29000";"Ecole maternelle publique Le Quinquis";"Finistère";"11 Rue De St Alor";"Public";"47.98277464887468";"-4.068830201159667"
"Quimperlé";"Mater";"ec.0291149s@ac-rennes.fr";"29300";"Ecole maternelle publique Brizeux";"Finistère";"9 Rue Jules Ferry";"Public";"47.86910435994117";"-3.5481194882852294"
"Briec";"Elem";"ec.0291152v@ac-rennes.fr";"29510";"Ecole primaire publique Yves de Kerguelen";"Finistère";"15 Rue De La Boissière";"Public";"48.099792555810964";"-3.996780608709745"
"Cléder";"Elem";"ec.0291155y@ac-rennes.fr";"29233";"Ecole primaire publique Per Jakez Helias";"Finistère";"19 Rue De Kermargar";"Public";"48.66144583549181";"-4.1049695511654125"
"Crozon";"Elem";"ec.0291161e@ac-rennes.fr";"29160";"Ecole primaire publique Tal ar Groas";"Finistère";"Route De Crozon";"Public";"48.248129770834055";"-4.421839764287216"
"Quimper";"Elem";"ec.0291178y@ac-rennes.fr";"29000";"Ecole primaire publique Kerjestin";"Finistère";"6 Rue De Kerjestin";"Public";"47.98635818224221";"-4.130560452610014"
"Guimaëc";"Elem";"ec.0291180a@ac-rennes.fr";"29620";"Ecole primaire publique de Guimaëc";"Finistère";"Hent Lanmeur";"Public";"48.66683280510694";"-3.7097206319898564"
"Huelgoat";"Elem";"ec.0291181b@ac-rennes.fr";"29690";"Ecole primaire publique Jules Ferry";"Finistère";"1 Bis Rue Jean Jaurès";"Public";"48.360469623009564";"-3.7441404095316067"
"Landudal";"Elem";"ec.0291184e@ac-rennes.fr";"29510";"Ecole primaire publique des Châtaigniers";"Finistère";"Rue De L'Ecole";"Public";"48.061516197049805";"-3.979919602189255"
"Brest";"Elem";"ec.0291186g@ac-rennes.fr";"29287";"Ecole primaire privée Saint Jean-Baptiste";"Finistère";"13 Rue Nattier";"Privé";"48.415181150339286";"-4.472860477492596"
"Quimper";"Elem";"ec.0291192n@ac-rennes.fr";"29000";"Ecole primaire publique Kergoat ar Lez";"Finistère";"30 Bis Rue Louis Pasteur";"Public";"47.98941625331758";"-4.087269942913262"
"Brest";"Elem";"ec.0291211j@ac-rennes.fr";"29200";"Ecole primaire publique Paul Dukas";"Finistère";"2 Rue Paul Dukas";"Public";"48.40876876158051";"-4.497269285119947"
"Roscanvel";"Elem";"ec.0291222w@ac-rennes.fr";"29570";"Ecole primaire publique Francis Mazé";"Finistère";"Rue De L'Ecole";"Public";"48.31679166704751";"-4.546889984821123"
"Brest";"Mater";"ec.0291229d@ac-rennes.fr";"29200";"Ecole maternelle privée Saint André";"Finistère";"10 Rue Cuirasse Bouvet";"Privé";"48.38283689197772";"-4.524020611572156"
"Brest";"Elem";"ec.0291242t@ac-rennes.fr";"29229";"Ecole élémentaire privée La Croix Rouge";"Finistère";"2 Rue Mirabeau";"Privé";"48.40759228117427";"-4.489209370624803"
"Bohars";"Elem";"ec.0291248z@ac-rennes.fr";"29820";"Ecole primaire privée Notre-Dame de Lourdes";"Finistère";"1 Rue De Loguillo";"Privé";"48.427780733396254";"-4.515889368887141"
"Landunvez";"Elem";"ec.0291256h@ac-rennes.fr";"29840";"Ecole primaire privée Notre-Dame de Bon Secours";"Finistère";"5 Résidence Gludig";"Privé";"48.531414613926664";"-4.7251200087465355"
"Brest";"Elem";"ec.0291268w@ac-rennes.fr";"29200";"Ecole primaire privée Saint Vincent";"Finistère";"5 Bis Rue Auguste Comte";"Privé";"48.37854686511138";"-4.53783051996099"
"Ploumoguer";"Elem";"ec.0291280j@ac-rennes.fr";"29810";"Ecole primaire privée Saint Joseph";"Finistère";"6 Rue Saint Joseph";"Privé";"48.40434392630917";"-4.721519697012324"
"Brest";"Elem";"ec.0291286r@ac-rennes.fr";"29238";"Ecole primaire privée Charles de Foucauld";"Finistère";"32 Route De Quimper";"Privé";"48.40230976359036";"-4.459379751203041"
"Brest";"Elem";"ec.0291291w@ac-rennes.fr";"29200";"Ecole primaire privée Saint Joseph";"Finistère";"1 Bis Rue Jules Lesven";"Privé";"48.40097860086961";"-4.471130402522731"
"Brest";"Elem";"ec.0291292x@ac-rennes.fr";"29200";"Ecole primaire privée Saint Louis";"Finistère";"64 Rue Jean Macé";"Privé";"48.388970825955006";"-4.492549717549339"
"Kersaint-Plabennec";"Elem";"ec.0291297c@ac-rennes.fr";"29860";"Ecole primaire privée Sainte Thérèse";"Finistère";"13 Route De L'Echangeur";"Privé";"48.47038094638602";"-4.373480519260376"
"Lannilis";"Elem";"ec.0291302h@ac-rennes.fr";"29870";"Ecole primaire privée Sacré-Coeur";"Finistère";"16 Rue Du Couvent";"Privé";"48.56728039606751";"-4.5226204054111445"
"Plouvien";"Elem";"ec.0291306m@ac-rennes.fr";"29860";"Ecole primaire privée Saint Jaoua";"Finistère";"45 Rue De Languiden";"Privé";"48.531978228000476";"-4.450239977126117"
"Le Relecq-Kerhuon";"Elem";"ec.0291312u@ac-rennes.fr";"29480";"Ecole primaire privée Saint Jean de la Croix";"Finistère";"11 Rue Traonouez, Bp 21";"Privé";"48.406341102542314";"-4.3961698988031195"
"Plougastel-Daoulas";"Elem";"ec.0291317z@ac-rennes.fr";"29470";"Ecole élémentaire privée Saint Pierre";"Finistère";"44 Rue Jean Corre, Bp 6";"Privé";"48.37184691289141";"-4.3754802006952564"
"Saint-Thonan";"Elem";"ec.0291330n@ac-rennes.fr";"29800";"Ecole primaire privée Sainte Anne";"Finistère";"27 Rue De L'Eglise";"Privé";"48.478442995881146";"-4.337220282458566"
"Plomodiern";"Elem";"ec.0291345e@ac-rennes.fr";"29550";"Ecole privée Notre-Dame du Menez Hom";"Finistère";"18 Rue De L'Ecole";"Privé";"48.18060385334537";"-4.229800056521467"
"Gouézec";"Elem";"ec.0291355r@ac-rennes.fr";"29190";"Ecole primaire privée Sainte Anne";"Finistère";"2 Allée Pen Ar Vern";"Privé";"48.17167936190464";"-3.967459774737251"
"Morlaix";"Elem";"ec.0291378r@ac-rennes.fr";"29600";"Ecole primaire privée Notre-Dame de Ploujean";"Finistère";"Rue De La Maison De Paille";"Privé";"48.605253118372865";"-3.8360396698927053"
"Plougar";"Elem";"ec.0291389c@ac-rennes.fr";"29440";"Ecole primaire privée Saint Joseph";"Finistère";"2 Place De La Mairie";"Privé";"48.562040878138454";"-4.142109850811584"
"Ploudaniel";"Elem";"ec.0291407x@ac-rennes.fr";"29260";"Ecole primaire privée Sainte Anne";"Finistère";"1 Rue Des Federes";"Privé";"48.5381767644793";"-4.313209787925792"
"Plounévez-Lochrist";"Elem";"ec.0291412c@ac-rennes.fr";"29430";"Ecole primaire privée Sainte-Famille";"Finistère";"7 Rue Des Acacias";"Privé";"48.61883613420271";"-4.211110038309858"
"Saint-Méen";"Elem";"ec.0291414e@ac-rennes.fr";"29260";"Ecole primaire privée Saint Joseph";"Finistère";"1 Rue Du Stade";"Privé";"48.56164081081629";"-4.262579433871351"
"Plouénan";"Elem";"ec.0291421m@ac-rennes.fr";"29420";"Ecole primaire privée Notre-Dame de Kerellon";"Finistère";"16 Rue De Kerellon";"Privé";"48.62687229367791";"-3.9867704764895127"
"Plougoulm";"Elem";"ec.0291424r@ac-rennes.fr";"29250";"Ecole primaire privée Sainte Thérèse";"Finistère";"Rue Bel Air";"Privé";"48.66549273402612";"-4.045559525565639"
"Sibiril";"Elem";"ec.0291434b@ac-rennes.fr";"29250";"Ecole primaire privée Sainte Agnès";"Finistère";"Rue De Kermenguy";"Privé";"48.66364017163003";"-4.063630635338213"
"Fouesnant";"Elem";"ec.0291440h@ac-rennes.fr";"29170";"Ecole primaire privée Notre-Dame d'Espérance";"Finistère";"21 Place De L'Eglise";"Privé";"47.89544938866544";"-4.009070666661152"
"Saint-Yvi";"Elem";"ec.0291463h@ac-rennes.fr";"29140";"Ecole primaire privée Sainte Anne";"Finistère";"8 Rue Robert Le Mao";"Privé";"47.96544713232105";"-3.9314397613451586"
"Pont-Croix";"Elem";"ec.0291474v@ac-rennes.fr";"29790";"Ecole primaire privée Notre-Dame de Roscudon";"Finistère";"39 Rue De La Liberté";"Privé";"48.040962591941245";"-4.493770168349623"
"Quimper";"Elem";"ec.0291489l@ac-rennes.fr";"29000";"Ecole primaire privée Saint Raphaël - Saint Charles";"Finistère";"1  Rue Marie Rose Le Bloc H";"Privé";"48.00516843664612";"-4.096350074676496"
"Landrévarzec";"Elem";"ec.0291497v@ac-rennes.fr";"29510";"Ecole primaire privée Saint René";"Finistère";"4 Rue De Cornouaille";"Privé";"48.09198098322298";"-4.0618801712844235"
"Guengat";"Elem";"ec.0291503b@ac-rennes.fr";"29180";"Ecole primaire privée Saint Joseph";"Finistère";"8 Rue Armor";"Privé";"48.041609105963474";"-4.20737033286946"
"Poullan-sur-Mer";"Elem";"ec.0291508g@ac-rennes.fr";"29100";"Ecole primaire privée Notre-Dame de Kerinec";"Finistère";"13 Rue Abbé Conan";"Privé";"48.079580280396094";"-4.417219674112899"
"Scaër";"Elem";"ec.0291517s@ac-rennes.fr";"29390";"Ecole primaire privée Saint Joseph";"Finistère";"Rue Pierre Curie";"Privé";"48.02766045149965";"-3.7058705328144494"
"Riec-sur-Bélon";"Elem";"ec.0291530f@ac-rennes.fr";"29340";"Ecole primaire privée Sacré-Coeur";"Finistère";"2 Bis Rue Saint-Pierre";"Privé";"47.841970462858946";"-3.6946206586605546"
"Brest";"Elem";"ec.0291550c@ac-rennes.fr";"29200";"Ecole élémentaire publique Guérin";"Finistère";"1  Place Guerin";"Public";"48.39636524489357";"-4.478790221383333"
"Riec-sur-Bélon";"Elem";"ec.0291599f@ac-rennes.fr";"29340";"Ecole primaire publique Coat Pin";"Finistère";"11  Rue De Coat-Pin";"Public";"47.8299031390415";"-3.716460677767848"
"Quimper";"Mater";"ec.0291620d@ac-rennes.fr";"29000";"Ecole maternelle publique Bourg de Penhars";"Finistère";"1 Place De Penhars";"Public";"47.989369088045336";"-4.1299193516217585"
"Fouesnant";"Mater";"ec.0291625j@ac-rennes.fr";"29170";"Ecole maternelle publique La Garenne";"Finistère";"Rue Des Iles";"Public";"47.89492942395155";"-4.014570622257502"
"Scaër";"Elem";"ec.0291629n@ac-rennes.fr";"29390";"Ecole élémentaire publique Joliot-Curie";"Finistère";"35 Rue Pierre Curie, Bp 40";"Public";"48.02845945179109";"-3.708990619440995"
"Brest";"Elem";"ec.0291670h@ac-rennes.fr";"29200";"Ecole primaire publique Quizac";"Finistère";"21 Avenue De Provence";"Public";"48.40728166864449";"-4.517019344821378"
"Camaret-sur-Mer";"Elem";"ec.0291673l@ac-rennes.fr";"29570";"Ecole primaire publique Louise Michel";"Finistère";"368 Rue Saint-Pol-Roux";"Public";"48.275784648046894";"-4.60136846490594"
"Guerlesquin";"Elem";"ec.0291679t@ac-rennes.fr";"29650";"Ecole primaire publique ar Roudour";"Finistère";"Rue Morice Du Parc";"Public";"48.51312693941862";"-3.5886097709193723"
"Lanildut";"Elem";"ec.0291684y@ac-rennes.fr";"29840";"Ecole primaire publique des Rives de l'Ildut";"Finistère";"7 Route De L'Aber Ildut";"Public";"48.4736718577871";"-4.74718047011887"
"Pleuven";"Elem";"ec.0291689d@ac-rennes.fr";"29170";"Ecole élémentaire publique René Tressard";"Finistère";"13 Hameau De Bellevue";"Public";"47.90931472643475";"-4.049634031838376"
"Plougonven";"Elem";"ec.0291694j@ac-rennes.fr";"29640";"Ecole élémentaire publique Albert Larher";"Finistère";"1 Rue De La Montagne";"Public";"48.51964878054336";"-3.7131494614111444"
